     3.04           OBSERVATION DATA    Mixed(MIXED)        RINEX VERSION / TYPE
cnvtToRINEX 3.14.0  convertToRINEX OPR  20250615 162112 UTC PGM / RUN BY / DATE 
----------------------------------------------------------- COMMENT             
1007                                                        MARKER NAME         
1007                                                        MARKER NUMBER       
GEODETIC                                                    MARKER TYPE         
GNSS Observer       Trimble                                 OBSERVER / AGENCY   
6337S22116          Geo Explorer 3      6.26                REC # / TYPE / VERS 
                    UNKNOWN EXT     NONE                    ANT # / TYPE        
  3916204.7729  1193207.6745  4875194.2397                  APPROX POSITION XYZ 
        1.2670        0.0000        0.0000                  ANTENNA: DELTA H/E/N
R    4 C1C C2C L1C L2C                                      SYS / # / OBS TYPES 
G    8 C1C C2W C2X C5X L1C L2W L2X L5X                      SYS / # / OBS TYPES 
C    4 C2I C7I L2I L7I                                      SYS / # / OBS TYPES 
E    4 C1X C8X L1X L8X                                      SYS / # / OBS TYPES 
    15.000                                                  INTERVAL            
  2025     6    15    13    50    0.0000000     GPS         TIME OF FIRST OBS   
  2025     6    15    14    17   30.0000000     GPS         TIME OF LAST OBS    
     0                                                      RCV CLOCK OFFS APPL 
  8 R02 -4 R03  5 R04  6 R05  1 R12 -1 R18 -3 R19  3 R20  2 GLONASS SLOT / FRQ #
R L2C -0.25000                                              SYS / PHASE SHIFT   
G L2X -0.25000                                              SYS / PHASE SHIFT   
    18                                                      LEAP SECONDS        
    39                                                      # OF SATELLITES     
   C05   109   107   108   106                              PRN / # OF OBS      
   C06   110   110   110   110                              PRN / # OF OBS      
   C09   110   110   110   110                              PRN / # OF OBS      
   C11   110   110   110   110                              PRN / # OF OBS      
   C12   110   110   110   110                              PRN / # OF OBS      
   C16   110   110   110   110                              PRN / # OF OBS      
   C19    52     0    51     0                              PRN / # OF OBS      
   C21   110     0   110     0                              PRN / # OF OBS      
   C22   110     0   110     0                              PRN / # OF OBS      
   C34   110     0   110     0                              PRN / # OF OBS      
   C35    30     0    30     0                              PRN / # OF OBS      
   C39   110     0   110     0                              PRN / # OF OBS      
   C43    64     0    64     0                              PRN / # OF OBS      
   C44   110     0   110     0                              PRN / # OF OBS      
   E03   110   110   110   110                              PRN / # OF OBS      
   E05   110   110   110   110                              PRN / # OF OBS      
   E06    17    21    17    21                              PRN / # OF OBS      
   E09   110   110   110   110                              PRN / # OF OBS      
   E15   110   110   110   110                              PRN / # OF OBS      
   E34   110   110   110   110                              PRN / # OF OBS      
   E36   110   110   110   110                              PRN / # OF OBS      
   G01   110     0   110   110   110     0   110   110      PRN / # OF OBS      
   G02   110   110     0     0   110   110     0     0      PRN / # OF OBS      
   G03   110     0   110   110   110     0   110   110      PRN / # OF OBS      
   G04   110     0   110   110   110     0   110   110      PRN / # OF OBS      
   G06    37     0    37    37    36     0    37    37      PRN / # OF OBS      
   G09    69     0    66    67    62     0    66    67      PRN / # OF OBS      
   G17   109     0   108     0   106     0   108     0      PRN / # OF OBS      
   G19   110   110     0     0   110   110     0     0      PRN / # OF OBS      
   G28   110     0   110   110   110     0   110   110      PRN / # OF OBS      
   G31   110     0   110     0   110     0   110     0      PRN / # OF OBS      
   R02    75    67    75    66                              PRN / # OF OBS      
   R03   110   110   110   110                              PRN / # OF OBS      
   R04   110   110   110   110                              PRN / # OF OBS      
   R05    20     6    20     5                              PRN / # OF OBS      
   R12   102    93   100    88                              PRN / # OF OBS      
   R18   110   110   110   110                              PRN / # OF OBS      
   R19   110   110   110   110                              PRN / # OF OBS      
   R20    99    99    99    99                              PRN / # OF OBS      
DBHZ                                                        SIGNAL STRENGTH UNIT
                                                            END OF HEADER       
>                              2  1
              *** Start of Kinematic Data ***               COMMENT             
> 2025 06 15 13 50  0.0000000  0 33
C05  39304228.867 5  39304223.569 6 204667443.52215 158261822.79416
C06  38740784.456 6  38740780.522 7 201733432.23816 155993077.95017
C09  39373537.421 6  39373535.772 7 205028348.13816 158540923.18717
C11  24601522.452 7  24601520.127 8 128106828.98617  99060118.33418
C12  22229463.619 7  22229460.791 8 115754652.85617  89508795.55218
C16  39232039.352 7  39232041.658 7 204291508.87717 157971155.35817
C19  25288948.025 6                 131686193.50516
C21  23355782.919 8                 121619692.24418
C22  21673095.919 8                 112857495.11118
C34  22827128.156 7                 118866844.34017
C35  25910060.841 5                 134920493.77715
C39  39009767.659 7                 203134090.71217
C44  22597811.529 8                 117672731.46818
E03  26058870.084 7  26058874.443 8 136940288.94417 103594455.29318
E05  22228192.012 8  22228194.059 9 116809934.42918  88365966.76819
E06  27768449.588 6  27768454.913 6 145924182.72916 110390666.97316
E09  25968995.545 7  25968998.590 9 136467991.60517 103237159.23719
E15  25263484.054 7  25263487.827 9 132760503.28817 100432472.41019
E34  23441186.850 8  23441189.122 9 123184269.10018  93188105.38719
E36  26177874.513 7  26177879.645 7 137565660.45117 104067545.77217
G01  20543628.620 7                  20543631.563 8  20543633.526 9 107957488.80117                  84122734.08518  80617628.44719
G02  22578951.561 7  22578952.729 5                                 118653182.47017  92456825.56415                
G03  20045312.325 8                  20045317.820 8  20045316.021 9 105338823.34418                  82082260.93318  78662196.91719
G04  22096767.070 7                  22096772.712 7  22096773.274 8 116119295.55417                  90482593.59717  86712486.75218
G17  22443099.921 7                  22443103.619 7                 117939230.06917                  91900757.91717
G19  22766813.135 7  22766815.583 5                                 119640407.08317  93226313.54115                
G28  23294299.767 7                  23294303.991 7  23294307.069 8 122412367.67217                  95386307.22117  91411903.26218
G31  22927575.538 7                  22927580.062 7                 120485217.77317                  93884782.79417
R02  22931932.229 6  22931935.617 5 122369184.51016  95176049.83115
R03  19461320.796 8  19461322.462 7 104177971.69318  81027273.88617
R04  20390490.584 8  20390493.046 7 109190139.16118  84925676.97817
R18  20048067.026 8  20048069.750 7 107017941.76518  83236024.11417
R19  19824549.658 8  19824550.208 7 106047975.88418  82481916.19517
>                              3  5
              *** Start of Occupation ***                   COMMENT             
1007                                                        MARKER NAME         
1007                                                        MARKER NUMBER       
  3916204.7729  1193207.6745  4875194.2397                  APPROX POSITION XYZ 
        1.2670        0.0000        0.0000                  ANTENNA: DELTA H/E/N
> 2025 06 15 13 50 30.0000000  0 34
C05  39303905.170 5  39303901.403 6 204665765.14615 158260524.93816
C06  38735587.959 6  38735583.759 7 201706371.083 6 155972152.551 7
C09  39365787.928 6  39365786.310 7 204987996.733 6 158509720.949 7
C11  24586698.932 7  24586696.968 8 128029638.540 7  99000429.825 8
C12  22231876.470 7  22231873.978 8 115767217.322 7  89518511.165 8
C16  39227792.435 6  39227794.991 7 204269394.920 6 157954055.475 7
C19  25305317.004 6                 131771431.92916
C21  23342923.943 7                 121552731.370 7
C22  21676842.625 8                 112877005.070 8
C34  22820240.485 8                 118830979.895 8
C35  25929909.918 6                 135023847.762 6
C39  39008209.350 7                 203125973.665 7
C44  22609791.923 8                 117735117.946 8
E03  26042167.134 7  26042171.833 8 136852516.604 7 103528056.139 8
E05  22224434.503 8  22224436.960 9 116790190.310 8  88351030.482 9
E06  27784113.734 6  27784117.986 5 146006497.757 6 110452934.63715
E09  25980988.758 7  25980991.315 9 136531014.230 7 103284835.399 9
E15  25250696.922 7  25250700.671 8 132693306.533 7 100381638.533 8
E34  23442802.367 8  23442804.642 9 123192758.577 8  93194527.601 9
E36  26192080.298 8  26192085.054 8 137640310.879 8 104124018.209 8
G01  20550738.485 7                  20550741.556 8  20550743.233 9 107994851.106 7                  84151847.547 8  80645528.865 9
G02  22593944.688 7  22593945.623 5                                 118731972.746 7  92518220.562 5                
G03  20042720.297 8                  20042725.849 8  20042724.191 9 105325203.009 8                  82071647.691 8  78652025.896 9
G04  22079029.577 7                  22079035.144 7  22079035.698 8 116026084.523 7                  90409961.699 7  86642881.216 8
G17  22443960.282 6                  22443964.315 7                 117943750.967 6                  91904280.725 7
G19  22756215.139 7  22756217.990 5                                 119584714.852 7  93182917.049 5                
G28  23293369.858 7                  23293374.448 7  23293377.140 8 122407482.28317                  95382500.419 7  91408255.063 8
G31  22916013.249 7                  22916019.365 7                 120424463.447 7                  93837441.879 7
R02  22953234.050 7  22953237.645 6 122482853.067 7  95264458.56316
R03  19467233.501 8  19467235.721 8 104209624.330 8  81051892.631 8
R04  20375983.177 8  20375985.531 7 109112455.669 8  84865256.552 7
R12  23737076.697 6  23737083.367 5 126799271.89616  98621816.74415
R18  20062180.336 8  20062182.276 8 107093278.615 8  83294619.396 8
R19  19814584.023 8  19814584.694 8 105994667.878 8  82440454.426 8
> 2025 06 15 13 50 45.0000000  0 34
C05  39303742.059 5  39303738.765 7 204664917.535 5 158259869.557 7
C06  38732999.103 6  38732995.011 7 201692892.104 6 155961729.775 7
C09  39361920.506 6  39361919.305 7 204967860.205 6 158494150.156 7
C11  24579307.220 7  24579305.267 8 127991147.674 7  98970666.287 8
C12  22233117.537 7  22233114.817 8 115773679.684 7  89523508.266 8
C16  39225678.564 6  39225681.671 7 204258389.718 6 157945545.537 7
C19  25313506.140 6                 131814071.288 6
C21  23336512.207 7                 121519344.995 7
C22  21678739.215 8                 112886880.628 8
C34  22816828.797 7                 118813213.038 7
C35  25939835.276 5                 135075535.691 5
C39  39007440.526 7                 203121970.198 7
C44  22615808.698 8                 117766447.571 8
E03  26033827.325 7  26033831.695 8 136808688.932 7 103494900.844 8
E05  22222582.666 8  22222584.703 9 116780456.827 8  88343667.174 9
E06  27791951.956 5  27791954.072 5 146047686.988 5 110484093.92015
E09  25987000.529 7  25987003.573 8 136562608.272 7 103308736.064 8
E15  25244313.199 7  25244317.142 8 132659761.035 7 100356261.608 8
E34  23443631.589 8  23443633.734 9 123197115.881 8  93197823.885 9
E36  26199193.030 7  26199198.780 8 137677692.688 7 104152297.307 8
G01  20554325.739 7                  20554328.637 8  20554330.402 9 108013701.223 7                  84166535.915 8  80659605.228 9
G02  22601460.035 7  22601461.470 6                                 118771464.973 7  92548993.658 6                
G03  20041451.226 7                  20041456.667 7  20041454.887 9 105318532.766 7                  82066450.125 7  78647044.873 9
G04  22070182.284 7                  22070187.524 7  22070187.630 7 115979591.109 7                  90373733.071 7  86608162.134 7
G17  22444427.926 7                  22444432.340 7                 117946208.001 7                  91906195.256 7
G19  22750954.372 6  22750957.421 5                                 119557071.596 6  93161376.857 5                
G28  23292946.456 6                  23292950.502 7  23292953.235 8 122405253.678 6                  95380763.854 7  91406590.861 8
G31  22910268.058 7                  22910273.163 7                 120394267.217 7                  93813912.368 7
R02  22963888.609 7  22963892.204 6 122539710.796 7  95308681.209 6
R03  19470227.183 8  19470229.424 7 104225648.737 8  81064356.083 7
R04  20368762.928 8  20368765.080 7 109073789.638 8  84835183.013 7
R12  23730641.358 6  23730647.114 5 126764890.460 6  98595075.630 5
R18  20069278.850 8  20069280.478 7 107131170.671 8  83324090.965 7
R19  19809646.732 8  19809647.151 7 105968256.323 8  82419912.099 7
> 2025 06 15 13 51  0.0000000  0 34
C05  39303576.691 5                 204664068.09615
C06  38730416.930 6  38730413.056 7 201679447.436 6 155951333.531 7
C09  39358058.620 6  39358057.228 7 204947749.821 6 158478599.550 7
C11  24571928.864 7  24571926.946 8 127952726.636 7  98940956.751 8
C12  22234381.853 7  22234378.730 8 115780262.088 7  89528598.210 8
C16  39223572.369 7  39223574.627 7 204247418.913 7 157937062.227 7
C19  25321696.965 6                 131856723.674 6
C21  23330112.849 7                 121486021.330 7
C22  21680650.757 8                 112896836.278 8
C34  22813437.825 7                 118795556.537 7
C35  25949762.731 6                 135127230.554 6
C39  39006678.485 7                 203118003.353 7
C44  22621842.487 7                 117797867.789 7
E03  26025494.676 7  26025499.043 8 136764900.358 7 103461775.095 8
E05  22220747.863 8  22220750.052 9 116770815.655 8  88336373.671 9
E06  27799795.889 5  27799803.625 5 146088896.993 5 110515269.49715
E09  25993023.023 8  25993026.062 8 136594257.098 8 103332678.179 8
E15  25237936.736 7  25237940.268 8 132626250.893 7 100330911.418 8
E34  23444474.873 8  23444477.258 9 123201548.231 8  93201176.921 9
E36  26206314.339 7  26206319.500 8 137715112.010 7 104180604.710 8
G01  20557933.910 8                  20557937.294 8  20557938.990 9 108032663.770 8                  84181311.931 8  80673765.550 9
G02  22608987.442 7  22608989.743 6                                 118811021.515 7  92579816.904 6                
G03  20040199.312 7                  20040204.986 8  20040203.172 9 105311955.759 7                  82061325.179 8  78642133.489 9
G04  22061349.092 7                  22061354.646 7  22061355.276 8 115933172.622 7                  90337562.856 7  86573499.013 8
G17  22444920.445 6                  22444924.349 7                 117948795.839 6                  91908211.773 7
G19  22745720.317 7  22745722.446 5                                 119529563.575 7  93139942.014 5                
G28  23292549.387 6                  23292553.587 7  23292556.881 8 122403167.803 6                  95379138.520 7  91405033.245 8
G31  22904544.996 7                  22904549.494 7                 120364191.787 7                  93790477.013 7
R02  22974547.124 7  22974551.111 6 122596583.717 7  95352915.642 6
R03  19473245.063 8  19473247.474 8 104241805.022 8  81076922.044 8
R04  20361564.060 8  20361566.512 7 109035240.781 8  84805200.578 7
R12  23724231.719 6  23724234.397 4 126730647.691 6  98568442.52614
R18  20076404.905 8  20076407.343 7 107169211.292 8  83353678.100 7
R19  19804739.882 8  19804740.119 7 105942006.983 8  82399495.937 7
> 2025 06 15 13 51 15.0000000  0 34
C05  39303411.287 5  39303408.643 7 204663204.150 5 158258537.55817
C06  38727841.305 6  38727836.612 7 201666032.264 6 155940960.079 7
C09  39354201.303 6  39354199.262 7 204927660.753 6 158463065.399 7
C11  24564562.884 7  24564560.927 8 127914370.859 7  98911297.662 8
C12  22235667.830 7  22235664.893 8 115786959.646 7  89533777.180 8
C16  39221471.118 7  39221473.540 7 204236477.675 7 157928601.768 7
C19  25329887.813 6                 131899384.191 6
C21  23323724.171 7                 121452755.559 7
C22  21682577.386 8                 112906867.070 8
C34  22810067.631 8                 118778005.711 8
C35  25959691.344 7                 135178927.257 7
C39  39005923.131 7                 203114068.192 7
C44  22627892.597 7                 117829373.601 7
E03  26017168.569 7  26017172.837 8 136721146.169 7 103428675.344 8
E05  22218929.885 8  22218932.063 9 116761261.827 8  88329146.284 9
E06  27807643.667 5  27807648.342 5 146130122.65015 110546456.474 5
E09  25999055.517 8  25999058.151 8 136625955.646 8 103356657.900 8
E15  25231565.420 7  25231569.350 8 132592771.414 7 100305584.435 8
E34  23445331.690 8  23445334.088 9 123206050.794 8  93204583.066 9
E36  26213441.232 7  26213446.450 8 137752563.840 7 104208936.721 8
G01  20561562.854 7                  20561565.960 8  20561567.871 9 108051733.833 7                  84196171.736 8  80688006.182 9
G02  22616525.908 7  22616528.312 6                                 118850637.323 7  92610686.372 6                
G03  20038964.807 8                  20038970.021 8  20038968.684 9 105305467.080 8                  82056269.068 8  78637288.053 9
G04  22052529.384 7                  22052534.339 7  22052535.479 8 115886824.413 7                  90301447.412 7  86538888.391 8
G17  22445436.079 6                  22445441.098 6                 117951509.700 6                  91910326.463 6
G19  22740510.032 7  22740512.646 5                                 119502186.381 7  93118609.204 5                
G28  23292178.790 6                  23292182.793 7  23292186.015 8 122401219.893 6                  95377620.597 7  91403578.592 8
G31  22898843.855 7                  22898848.384 7                 120334232.707 7                  93767132.269 7
R02  22985204.675 6  22985210.940 6 122653466.413 6  95397157.725 6
R03  19476286.525 8  19476288.602 7 104258087.592 8  81089586.270 7
R04  20354386.026 8  20354388.459 7 108996804.242 8  84775305.511 7
R12  23717845.048 4  23717851.352 5 126696539.252 4  98541913.746 5
R18  20083558.306 8  20083560.319 7 107207395.298 8  83383376.726 7
R19  19799862.323 8  19799862.626 7 105915915.289 8  82379202.412 7
> 2025 06 15 13 51 30.0000000  0 34
C05  39303244.178 5  39303241.423 7 204662331.571 5 158257862.816 7
C06  38725270.782 6  38725266.662 7 201652648.667 6 155930611.042 7
C09  39350347.933 6  39350345.900 7 204907595.080 6 158447549.354 7
C11  24557210.162 7  24557207.924 8 127876082.615 7  98881690.764 8
C12  22236976.421 7  22236973.765 8 115793774.435 7  89539046.807 8
C16  39219376.435 7  39219378.472 7 204225568.039 7 157920165.768 7
C19  25338082.976 6                 131942054.693 6
C21  23317347.668 7                 121419549.844 7
C22  21684518.497 8                 112916974.861 8
C34  22806717.582 7                 118760562.709 7
C35  25969619.429 6                 135230627.599 6
C39  39005173.963 7                 203110166.837 7
C44  22633959.974 7                 117860966.763 7
E03  26008849.646 7  26008853.778 8 136677428.536 7 103395603.287 8
E05  22217128.789 8  22217131.051 9 116751797.458 8  88321986.540 9
E06  27815490.448 5  27815496.634 5 146171365.93215 110577656.794 5
E09  26005097.363 7  26005100.101 8 136657705.763 7 103380676.634 8
E15  25225200.946 7  25225204.689 9 132559324.768 7 100280282.271 9
E34  23446202.473 8  23446204.676 9 123210625.640 8  93208043.911 9
E36  26220575.377 8  26220579.849 8 137790050.204 8 104237294.839 8
G01  20565212.708 7                  20565215.952 8  20565217.567 8 108070913.415 7                  84211116.821 8  80702328.585 8
G02  22624076.205 7  22624079.056 6                                 118890314.318 7  92641603.483 6                
G03  20037747.003 8                  20037752.709 8  20037750.977 9 105299068.828 8                  82051283.418 8  78632510.122 9
G04  22043722.983 7                  22043728.141 7  22043729.517 8 115840548.764 7                  90265388.465 7  86504331.934 8
G17  22445977.095 6                  22445980.916 6                 117954351.734 6                  91912541.023 6
G19  22735325.524 6  22735328.736 5                                 119474942.181 6  93097379.974 5                
G28  23291834.562 7                  23291838.123 7  23291841.873 8 122399411.905 7                  95376211.790 7  91402228.475 8
G31  22893165.017 7                  22893169.533 7                 120304392.305 7                  93743880.021 7
R02  22995865.344 6  22995873.100 6 122710360.750 6  95441408.837 6
R03  19479352.271 8  19479355.024 8 104274498.641 8  81102350.438 8
R04  20347229.785 8  20347232.184 7 108958482.354 8  84745499.619 7
R12  23711484.870 6                 126662565.61616
R18  20090738.509 8  20090741.174 7 107245724.457 8  83413188.279 7
R19  19795014.519 8  19795014.812 7 105889983.726 8  82359033.440 7
> 2025 06 15 13 51 45.0000000  0 34
C05  39303076.798 5  39303073.669 6 204661458.757 5 158257187.904 6
C06  38722707.942 6  38722704.705 7 201639304.872 6 155920292.776 7
C09  39346500.204 6  39346498.343 7 204887561.143 6 158432057.840 7
C11  24549871.547 7  24549869.866 8 127837870.555 7  98852142.784 8
C12  22238308.854 7  22238306.763 8 115800714.714 7  89544413.450 8
C16  39217288.771 7  39217291.160 7 204214698.324 7 157911760.615 7
C19  25346281.864 6                 131984743.328 6
C21  23310983.784 8                 121386412.533 8
C22  21686475.908 8                 112927167.901 8
C34  22803390.482 8                 118743236.000 8
C35  25979550.989 6                 135282339.729 6
C39  39004433.004 7                 203106307.493 7
C44  22640045.540 8                 117892655.453 8
E03  26000539.083 7  26000543.122 8 136633755.988 7 103362565.322 8
E05  22215346.544 8  22215348.588 9 116742430.876 8  88314900.785 9
E06  27823341.234 5  27823348.903 6 146212635.104 5 110608876.681 6
E09  26011150.101 7  26011153.303 8 136689515.621 7 103404740.565 8
E15  25218844.673 7  25218847.891 8 132525919.538 7 100255011.451 8
E34  23447088.183 8  23447090.597 9 123215281.228 8  93211565.834 9
E36  26227716.940 7  26227721.461 8 137827579.373 7 104265685.384 8
G01  20568884.626 8                  20568888.015 8  20568889.677 8 108090210.827 8                  84226153.786 8  80716738.979 8
G02  22631639.817 7  22631642.445 6                                 118930060.752 7  92672574.683 6                
G03  20036548.506 8                  20036553.955 7  20036552.162 9 105292769.289 8                  82046374.688 7  78627805.927 9
G04  22034932.760 7                  22034937.908 7  22034938.486 8 115794354.308 7                  90229392.843 7  86469836.123 8
G17  22446544.028 6                  22446547.091 6                 117957329.999 6                  91914861.814 6
G19  22730168.578 6  22730171.345 5                                 119447839.660 6  93076261.130 5                
G28  23291518.425 7                  23291522.755 7  23291525.915 8 122397752.278 7                  95374918.588 7  91400989.168 8
G31  22887511.220 7                  22887515.494 7                 120274679.308 7                  93720727.067 7
R02  23006534.378 6  23006538.225 6 122767274.998 6  95485675.467 6
R03  19482443.628 8  19482446.075 8 104291045.997 8  81115220.568 8
R04  20340096.653 8  20340099.111 7 108920283.669 8  84715789.512 7
R12  23705154.875 6  23705158.308 5 126628739.480 6  98488969.20315
R18  20097947.858 8  20097950.249 7 107284206.993 8  83443119.104 7
R19  19790199.042 8  19790199.042 8 105864220.998 8  82338995.778 8
> 2025 06 15 13 52  0.0000000  0 34
C05  39302908.957 5  39302905.303 7 204660582.936 5 158256510.689 7
C06  38720152.813 6  38720148.866 7 201625998.262 6 155910003.262 7
C09  39342658.171 6  39342656.579 7 204867556.009 6 158416588.618 7
C11  24542547.938 7  24542545.787 8 127799731.999 7  98822651.657 8
C12  22239665.585 7  22239662.870 8 115807777.618 7  89549874.938 8
C16  39215208.247 7  39215210.790 7 204203865.749 7 157903384.174 7
C19  25354481.640 6                 132027447.121 6
C21  23304632.614 8                 121353340.892 8
C22  21688449.059 8                 112937443.226 8
C34  22800084.833 8                 118726022.946 8
C35  25989482.859 6                 135334060.552 6
C39  39003699.292 7                 203102487.348 7
C44  22646148.847 8                 117924436.647 8
E03  25992236.957 7  25992240.364 8 136590125.846 7 103329559.435 8
E05  22213581.884 8  22213584.272 9 116733159.245 8  88307886.858 9
E06  27831199.347 5  27831204.088 6 146253926.977 5 110640113.842 6
E09  26017214.363 7  26017217.321 8 136721382.220 7 103428847.432 8
E15  25212494.851 7  25212498.477 8 132492553.053 7 100229769.927 8
E34  23447988.666 8  23447991.400 9 123220014.772 8  93215146.728 9
E36  26234865.708 7  26234870.684 8 137865148.494 7 104294106.097 8
G01  20572578.877 8                  20572582.209 8  20572583.897 8 108109623.180 8                  84241280.285 8  80731235.218 8
G02  22639216.246 7  22639219.204 6                                 118969873.678 7  92703597.687 6                
G03  20035368.296 8                  20035373.464 8  20035371.757 9 105286565.685 8                  82041540.712 8  78623173.367 9
G04  22026157.603 7                  22026162.380 7  22026162.382 7 115748238.455 7                  90193458.427 7  86435398.982 7
G17  22447135.869 6                  22447139.871 6                 117960441.583 6                  91917286.431 6
G19  22725037.402 7  22725040.117 5                                 119420876.135 7  93055250.601 5                
G28  23291230.641 7                  23291234.823 7  23291237.541 8 122396238.280 7                  95373738.882 7  91399858.631 8
G31  22881880.592 7                  22881885.441 7                 120245091.103 7                  93697671.342 7
R02  23017204.305 6  23017207.184 6 122824205.812 6  95529954.924 6
R03  19485559.773 8  19485562.433 7 104307726.925 8  81128194.630 7
R04  20332985.646 8  20332988.152 7 108882205.550 8  84686173.238 7
R12  23698848.746 6  23698853.779 5 126595056.530 6  98462771.345 5
R18  20105185.157 8  20105187.045 7 107322839.810 8  83473166.840 7
R19  19785413.516 8  19785413.800 7 105838624.541 8  82319087.435 7
> 2025 06 15 13 52 15.0000000  0 34
C05  39302738.453 5  39302736.458 7 204659702.52015 158255829.90717
C06  38717603.752 6  38717600.401 7 201612727.236 6 155899741.240 7
C09  39338821.978 6  39338820.592 7 204847578.480 6 158401140.736 7
C11  24535237.328 7  24535235.491 8 127761665.807 7  98793216.503 8
C12  22241045.056 7  22241042.602 8 115814961.736 7  89555430.138 8
C16  39213135.066 7  39213137.116 7 204193068.850 7 157895035.354 7
C19  25362685.533 6                 132070164.508 6
C21  23298293.990 8                 121320333.526 8
C22  21690437.807 8                 112947799.282 8
C34  22796800.846 8                 118708922.241 8
C35  25999416.510 6                 135385788.452 6
C39  39002973.175 7                 203098705.007 7
C44  22652269.568 8                 117956308.730 8
E03  25983941.841 7  25983945.671 8 136546536.849 7 103296584.682 8
E05  22211835.541 8  22211837.728 9 116723981.127 8  88300943.680 9
E06  27839061.100 5  27839065.029 6 146295240.106 5 110671366.932 6
E09  26023289.051 7  26023291.802 8 136753303.892 7 103452995.957 8
E15  25206152.351 7  25206156.192 8 132459223.973 7 100204556.715 8
E34  23448904.230 8  23448906.688 9 123224824.904 8  93218785.553 9
E36  26242022.688 8  26242027.136 8 137902755.972 8 104322555.888 8
G01  20576294.366 8                  20576297.824 8  20576299.443 8 108129149.026 8                  84256495.200 8  80745816.185 8
G02  22646804.746 7  22646807.151 6                                 119009751.354 7  92734671.173 6                
G03  20034205.672 8                  20034210.546 7  20034209.229 9 105280456.546 8                  82036780.359 7  78618611.357 9
G04  22017396.390 7                  22017401.676 7  22017401.942 8 115702199.940 7                  90157584.296 7  86401019.602 8
G17  22447753.185 6                  22447757.484 7                 117963685.229 6                  91919813.887 7
G19  22719932.273 7  22719934.967 5                                 119394050.431 7  93034347.494 5                
G28  23290970.207 7                  23290974.035 7  23290976.516 8 122394868.540 7                  95372671.544 7  91398835.754 8
G31  22876273.731 7                  22876278.558 7                 120215626.683 7                  93674712.062 7
R02  23027876.011 7  23027879.294 6 122881151.706 7  95574246.135 6
R03  19488700.770 8  19488702.878 7 104324539.463 8  81141271.027 7
R04  20325897.220 8  20325900.194 7 108844246.639 8  84656649.671 7
R12  23692569.623 6  23692574.947 5 126561515.831 6  98436683.981 5
R18  20112449.990 8  20112451.997 7 107361621.069 8  83503330.046 7
R19  19780659.265 8  19780660.222 7 105813193.173 8  82299307.489 7
> 2025 06 15 13 52 30.0000000  0 34
C05  39302570.986 5  39302567.637 7 204658824.738 5 158255151.144 7
C06  38715063.733 6  38715060.262 7 201599498.985 6 155889512.336 7
C09  39334991.953 6  39334990.686 7 204827635.554 6 158385719.639 7
C11  24527942.510 7  24527940.565 8 127723679.368 7  98763842.986 8
C12  22242449.554 7  22242447.031 8 115822274.146 7  89561084.562 8
C16  39211069.499 7  39211071.937 7 204182314.730 7 157886719.577 7
C19  25370892.778 6                 132112902.436 6
C21  23291968.974 8                 121287397.631 8
C22  21692443.678 8                 112958243.034 8
C34  22793539.580 8                 118691941.154 8
C35  26009353.224 6                 135437530.187 6
C39  39002255.161 7                 203094967.504 7
C44  22658408.919 8                 117988278.632 8
E03  25975656.126 7  25975660.167 8 136502996.313 7 103263646.580 8
E05  22210108.112 8  22210110.315 9 116714903.672 8  88294076.645 9
E06  27846931.251 5  27846932.435 6 146336581.323 5 110702641.278 6
E09  26029375.008 7  26029378.108 8 136785287.660 7 103477191.429 8
E15  25199818.511 7  25199822.278 9 132425939.665 7 100179377.368 9
E34  23449835.378 8  23449838.009 9 123229718.821 8  93222487.771 9
E36  26249187.306 8  26249192.044 8 137940408.918 8 104351040.043 8
G01  20580033.056 7                  20580036.478 8  20580037.992 9 108148795.400 7                  84271804.044 8  80760487.177 9
G02  22654406.585 7  22654408.844 6                                 119049700.884 7  92765800.655 6                
G03  20033062.051 8                  20033067.586 8  20033066.140 9 105274449.079 8                  82032099.230 8  78614125.262 9
G04  22008652.034 7                  22008656.989 7  22008657.587 8 115656246.231 7                  90121776.265 7  86366703.557 8
G17  22448397.811 6                  22448401.795 7                 117967067.877 6                  91922449.703 7
G19  22714855.180 6  22714857.733 5                                 119367370.129 6  93013557.646 5                
G28  23290738.145 7                  23290742.375 7  23290744.137 8 122393650.196 7                  95371722.167 7  91397925.932 8
G31  22870691.820 7                  22870697.060 7                 120186293.504 7                  93651855.064 7
R02  23038552.643 7  23038554.542 6 122938119.546 7  95618554.387 6
R03  19491867.413 8  19491869.375 7 104341490.500 8  81154455.178 7
R04  20318832.262 8  20318834.629 7 108806414.320 8  84627224.543 7
R12  23686318.763 6  23686318.917 4 126528125.070 6
R18  20119744.504 8  20119746.337 7 107400557.800 8  83533614.131 7
R19  19775937.470 8  19775938.379 7 105787934.838 8  82279662.145 7
> 2025 06 15 13 52 45.0000000  0 34
C05  39302401.045 5  39302398.613 7 204657944.005 5 158254470.144 7
C06  38712530.666 6  38712527.104 7 201586307.949 6 155879312.170 7
C09  39331168.294 7  39331166.180 7 204807721.787 7 158370321.071 7
C11  24520661.577 7  24520660.087 8 127685767.387 7  98734527.044 8
C12  22243877.366 7  22243875.009 8 115829709.263 7  89566833.872 8
C16  39209010.907 7  39209013.775 7 204171597.871 7 157878432.620 7
C19  25379103.559 6                 132155655.238 6
C21  23285656.811 8                 121254527.685 8
C22  21694465.052 8                 112968768.779 8
C34  22790300.395 7                 118675074.272 7
C35  26019291.022 6                 135489280.009 6
C39  39001545.117 7                 203091269.264 7
C44  22664565.759 7                 118020340.540 7
E03  25967378.420 7  25967382.818 8 136459498.768 7 103230740.989 8
E05  22208398.889 8  22208400.968 9 116705921.234 8  88287281.495 9
E06  27854801.960 4  27854803.072 6 146377944.889 4 110733932.540 6
E09  26035472.235 7  26035475.123 8 136817327.654 7 103501429.470 8
E15  25193492.115 7  25193495.947 8 132392694.684 7 100154227.763 8
E34  23450781.445 8  23450784.153 9 123234690.969 8  93226249.163 9
E36  26256360.135 7  26256364.775 8 137978101.691 7 104379554.332 8
G01  20583793.348 8                  20583797.007 8  20583798.657 9 108168556.648 8                  84287202.430 8  80775243.948 9
G02  22662021.829 7  22662023.975 6                                 119089716.511 7  92796981.651 6                
G03  20031937.148 8                  20031942.740 8  20031941.063 9 105268537.671 8                  82027492.920 8  78609710.893 9
G04  21999922.276 7                  21999927.432 7  21999927.816 8 115610371.868 7                  90086030.061 7  86332446.765 8
G17  22449065.806 6                  22449070.670 7                 117970583.719 6                  91925189.338 7
G19  22709805.273 7  22709807.068 5                                 119340829.688 7  92992876.816 5                
G28  23290533.985 7                  23290537.968 7  23290540.068 8 122392577.698 7                  95370886.465 7  91397125.031 8
G31  22865133.860 7                  22865138.762 7                 120157086.350 7                  93629096.270 7
R02  23049230.098 6  23049233.411 6 122995102.998 6  95662874.849 6
R03  19495058.479 8  19495060.555 7 104358574.159 8  81167742.454 7
R04  20311790.217 8  20311792.030 7 108768703.232 8  84597893.700 7
R12  23680095.010 6  23680099.622 5 126494878.772 6  98384855.47515
R18  20127066.480 8  20127068.503 7 107439644.093 8  83564014.557 7
R19  19771247.215 8  19771247.526 7 105762843.924 8  82260146.970 7
> 2025 06 15 13 53  0.0000000  0 34
C05  39302232.577 5  39302229.707 7 204657064.142 5 158253789.746 7
C06  38710005.310 6  38710001.641 7 201573157.876 6 155869143.712 7
C09  39327351.610 7  39327348.079 7 204787840.967 7 158354947.978 7
C11  24513396.646 7  24513394.307 8 127647933.773 7  98705271.733 8
C12  22245329.718 7  22245326.983 8 115837270.818 7  89572680.936 8
C16  39206961.048 6  39206963.716 7 204160921.967 6 157870177.349 7
C19  25387317.074 6                 132198426.386 6
C21  23279357.757 8                 121221727.550 8
C22  21696502.707 8                 112979380.199 8
C34  22787084.290 7                 118658325.460 7
C35  26029231.092 6                 135541041.416 6
C39  39000843.023 7                 203087614.007 7
C44  22670741.695 8                 118052498.063 8
E03  25959110.064 7  25959114.449 8 136416048.144 7 103197870.885 8
E05  22206708.335 8  22206710.455 9 116697037.600 8  88280561.089 9
E09  26041580.332 7  26041583.502 8 136849427.521 7 103525712.784 8
E15  25187174.082 7  25187177.754 8 132359492.946 7 100129110.886 8
E34  23451743.268 8  23451745.950 9 123239745.176 8  93230072.630 9
E36  26263540.996 7  26263545.820 8 138015837.943 7 104408101.518 8
G01  20587576.653 7                  20587579.982 8  20587581.562 9 108188436.531 7                  84302693.239 8  80790089.307 9
G02  22669649.668 7  22669652.155 6                                 119129801.777 7  92828216.877 6                
G03  20030831.261 7                  20030836.986 8  20030835.014 9 105262726.071 7                  82022964.401 8  78605371.068 9
G04  21991208.383 7                  21991213.511 7  21991214.215 8 115564580.953 7                  90050348.875 7  86298252.296 8
G17  22449761.268 6                  22449765.570 7                 117974236.667 6                  91928035.766 7
G19  22704782.446 7  22704783.809 5                                 119314433.202 7  92972308.116 5                
G28  23290358.065 6                  23290362.491 7  23290364.719 8 122391654.875 6                  95370167.371 7  91396435.914 8
G31  22859600.520 7                  22859605.388 7                 120128009.271 7                  93606438.858 7
R02  23059909.144 6  23059915.419 6 123052105.856 6  95707210.444 6
R03  19498275.568 8  19498277.653 7 104375794.066 8  81181135.719 7
R04  20304771.008 8  20304773.687 7 108731117.195 8  84568660.142 7
R12  23673898.305 6  23673903.911 6 126461781.468 6  98359113.070 6
R18  20134417.244 8  20134418.865 7 107478883.467 8  83594534.026 7
R19  19766588.552 8  19766589.339 7 105737924.725 8  82240765.368 7
R20  23716323.536 5  23716330.837 7 126821827.51715  98639240.23617
> 2025 06 15 13 53 15.0000000  0 34
C05  39302062.958 5  39302059.975 7 204656181.503 5 158253107.249 7
C06  38707486.984 6  38707483.167 7 201560045.354 6 155859004.274 7
C09  39323539.415 6  39323535.964 7 204767989.622 6 158339597.669 7
C11  24506144.994 7  24506143.313 8 127610175.365 7  98676074.580 8
C12  22246805.300 7  22246802.666 8 115844955.417 7  89578623.149 8
C16  39204918.487 7  39204920.609 7 204150283.580 7 157861951.106 7
C19  25395533.131 6                 132241212.356 6
C21  23273071.791 8                 121188993.777 8
C22  21698556.066 8                 112990073.674 8
C34  22783889.576 7                 118641691.458 7
C35  26039172.718 6                 135592810.841 6
C39  39000148.552 7                 203083998.282 7
C44  22676934.957 7                 118084747.513 7
E03  25950849.790 7  25950854.452 8 136372641.093 7 103165033.780 8
E05  22205036.202 8  22205038.087 9 116688249.289 8  88273912.791 9
E09  26047699.392 7  26047702.632 8 136881583.521 7 103550038.587 8
E15  25180863.490 7  25180867.199 9 132326331.138 7 100104024.213 9
E34  23452720.190 8  23452722.700 9 123244878.035 8  93233955.604 9
E36  26270729.245 7  26270734.460 8 138053614.134 7 104436678.929 8
G01  20591381.560 7                  20591385.074 8  20591386.447 9 108208431.452 7                  84318273.687 8  80805020.555 9
G02  22677289.972 7  22677292.404 6                                 119169953.118 7  92859503.601 6                
G03  20029743.834 8                  20029749.509 8  20029747.478 9 105257010.785 8                  82018510.948 8  78601103.162 9
G04  21982509.584 7                  21982514.764 7  21982515.671 8 115518870.179 7                  90014730.110 7  86264117.676 8
G17  22450481.948 6                  22450485.598 6                 117978023.211 6                  91930986.303 6
G19  22699785.791 7  22699787.161 5                                 119288177.324 7  92951849.022 5                
G28  23290210.989 6                  23290214.602 7  23290217.587 8 122390878.248 6                  95369562.207 7  91395855.959 8
G31  22854091.653 7                  22854095.739 7                 120099059.119 7                  93583880.292 7
R02  23070595.244 6  23070601.423 5 123109124.391 6  95751558.086 5
R03  19501516.813 8  19501519.193 7 104393146.458 8  81194632.020 7
R04  20297774.907 8  20297777.087 7 108693652.639 8  84539521.048 7
R12  23667730.037 7  23667734.469 5 126428829.727 7  98333483.993 5
R18  20141796.073 8  20141798.503 7 107518271.992 8  83625169.532 7
R19  19761962.138 8  19761962.356 8 105713174.020 8  82221514.825 8
R20  23704131.927 4  23704139.555 7 126756632.038 4  98588532.604 7
> 2025 06 15 13 53 30.0000000  0 35
C05  39301892.122 5  39301888.918 6 204655290.89815 158252418.63316
C06  38704974.634 6  38704971.214 7 201546965.041 6 155848889.745 7
C09  39319730.630 6  39319728.157 7 204748162.466 6 158324266.086 7
C11  24498907.768 7  24498905.354 8 127572487.156 7  98646931.702 8
C12  22248303.329 7  22248300.878 8 115852757.553 7  89584656.239 8
C16  39202881.634 7  39202884.152 7 204139677.437 7 157853749.785 7
C19  25403751.776 6                 132284007.616 6
C21  23266797.051 8                 121156321.103 8
C22  21700624.333 8                 113000843.683 8
C34  22780716.207 7                 118625167.011 7
C35  26049115.097 6                 135644582.522 6
C39  38999461.117 7                 203080416.715 7
C44  22683144.463 7                 118117083.347 7
E03  25942597.234 7  25942601.638 8 136329272.346 7 103132225.635 8
E05  22203380.632 8  22203382.848 9 116679550.857 8  88267332.488 9
E06  27878438.110 5  27878442.364 6 146502176.35715 110827911.357 6
E09  26053827.953 7  26053831.418 8 136913790.107 7 103574402.623 8
E15  25174559.292 7  25174563.267 8 132293203.998 7 100078963.778 8
E34  23453711.044 8  23453713.405 9 123250084.146 8  93237893.991 9
E36  26277924.230 7  26277929.554 8 138091424.729 7 104465282.370 8
G01  20595207.427 7                  20595210.642 8  20595212.068 9 108228535.946 7                  84333939.518 8  80820033.663 9
G02  22684941.838 7  22684944.203 6                                 119210164.891 7  92890837.432 6                
G03  20028673.603 8                  20028678.943 8  20028677.059 9 105251386.437 8                  82014128.345 8  78596903.159 9
G04  21973825.544 7                  21973830.464 7  21973831.309 8 115473234.418 7                  89979169.803 7  86230039.049 8
G17  22451226.985 6                  22451230.560 6                 117981937.791 6                  91934036.637 6
G19  22694815.345 7  22694815.863 5                                 119262056.800 7  92931495.425 5                
G28  23290089.931 6                  23290093.803 7  23290096.769 8 122390242.412 6                  95369066.723 7  91395381.138 8
G31  22848605.552 7                  22848609.708 6                 120070230.858 7                  93561416.746 6
R02  23081283.730 6  23081289.723 5 123166152.778 6  95795913.340 5
R03  19504782.295 8  19504784.262 7 104410625.500 8  81208226.834 7
R04  20290800.247 8  20290802.741 7 108656304.362 8  84510472.426 7
R12  23661588.040 6  23661593.229 5 126396018.822 6  98307964.398 5
R18  20149202.040 8  20149204.343 7 107557804.089 8  83655916.674 7
R19  19757365.728 8  19757365.842 7 105688586.575 8  82202391.279 7
R20  23691944.104 5  23691950.867 7 126691455.850 5  98537840.055 7
> 2025 06 15 13 53 45.0000000  0 35
C05  39301720.442 5  39301716.247 7 204654391.831 5 158251723.390 7
C06  38702469.013 6  38702465.723 7 201533916.476 6 155838799.786 7
C09  39315927.078 6  39315925.011 7 204728359.058 6 158308952.835 7
C11  24491683.335 7  24491681.302 8 127534868.901 7  98617842.903 8
C12  22249824.678 7  22249821.817 8 115860676.890 7  89590779.958 8
C16  39200851.425 7  39200853.420 7 204129103.041 7 157845572.993 7
C19  25411971.875 6                 132326811.624 6
C21  23260534.325 8                 121123709.163 8
C22  21702707.450 8                 113011689.721 8
C34  22777564.222 7                 118608751.886 7
C35  26059058.077 6                 135696355.993 6
C39  38998779.494 7                 203076868.872 7
C44  22689371.014 7                 118149504.959 7
E03  25934351.831 7  25934355.897 8 136285941.723 7 103099446.292 8
E05  22201742.641 8  22201744.646 9 116670941.879 8  88260819.856 9
E06  27886326.337 5  27886328.482 6 146543620.853 5 110859263.789 6
E09  26059966.299 7  26059969.710 8 136946046.635 7 103598804.451 8
E15  25168262.600 7  25168265.934 8 132260111.329 7 100053929.392 8
E34  23454715.587 8  23454717.958 9 123255363.179 8  93241887.550 9
E36  26285126.015 7  26285131.272 8 138129269.302 7 104493911.490 8
G01  20599053.779 7                  20599057.055 8  20599058.760 9 108248749.563 7                  84349690.382 8  80835128.234 9
G02  22692605.596 7  22692608.235 6                                 119250436.565 7  92922217.896 6                
G03  20027620.555 8                  20027625.982 8  20027624.226 9 105245852.590 8                  82009816.260 8  78592770.757 9
G04  21965155.629 7                  21965160.837 7  21965161.361 8 115427673.465 7                  89943667.752 7  86196016.282 8
G17  22451996.250 6                  22451999.414 6                 117985980.141 6                  91937186.470 6
G19  22689870.268 7  22689871.173 5                                 119236071.597 7  92911247.233 5                
G28  23289995.274 6                  23289999.731 7  23290002.089 8 122389747.001 6                  95368680.714 7  91395011.189 8
G31  22843142.869 7                  22843146.784 6                 120041524.268 7                  93539047.978 6
R02  23091972.490 6  23091977.053 5 123223189.967 6  95840275.500 5
R03  19508070.688 8  19508073.315 7 104428230.369 8  81221919.522 7
R04  20283847.299 8  20283850.193 8 108619072.184 8  84481514.106 8
R12  23655471.877 7  23655477.316 5 126363348.463 7  98282554.217 5
R18  20156634.387 8  20156636.260 7 107597478.962 8  83686774.877 7
R19  19752799.728 8  19752799.832 7 105664162.601 8  82183394.846 7
R20  23679758.816 5  23679766.562 7 126626299.065 5  98487162.646 7
> 2025 06 15 13 54  0.0000000  0 35
C05  39301545.678 5  39301542.271 7 204653484.634 5 158251021.884 7
C06  38699969.500 6  38699965.862 7 201520900.000 6 155828734.639 7
C09  39312128.692 6  39312126.728 7 204708579.699 6 158293658.189 7
C11  24484473.054 7  24484470.276 8 127497321.162 7  98588808.630 8
C12  22251368.013 7  22251365.112 8 115868713.641 7  89596994.482 8
C16  39198826.695 7  39198828.569 7 204118560.720 7 157837421.017 7
C19  25420193.545 6                 132369624.546 6
C21  23254283.658 8                 121091158.266 8
C22  21704804.908 8                 113022611.936 8
C34  22774432.561 7                 118592446.460 7
C35  26069001.187 6                 135748131.152 6
C39  38998104.779 6                 203073354.969 6
C44  22695613.468 8                 118182012.399 8
E03  25926113.576 7  25926117.613 8 136242649.523 7 103066696.062 8
E05  22200121.231 8  22200123.495 9 116662422.589 8  88254375.071 9
E06  27894215.577 6  27894217.953 6 146585081.508 6 110890628.464 6
E09  26066114.194 7  26066117.521 8 136978353.180 7 103623244.117 8
E15  25161971.420 7  25161975.160 8 132227053.504 7 100028921.357 8
E34  23455734.111 8  23455736.449 9 123260715.433 8  93245936.492 9
E36  26292334.270 7  26292339.343 8 138167147.992 7 104522566.425 8
G01  20602921.198 7                  20602924.408 8  20602925.982 9 108269072.495 7                  84365526.421 8  80850304.443 9
G02  22700280.458 7  22700282.747 6                                 119290768.240 7  92953645.147 6                
G03  20026584.673 8                  20026590.106 8  20026588.654 9 105240409.525 8                  82005574.907 8  78588706.125 9
G04  21956499.657 7                  21956504.778 7  21956506.132 8 115382187.786 7                  89908224.430 7  86162049.740 8
G17  22452789.803 7                  22452792.993 6                 117990150.085 7                  91940435.852 6
G19  22684950.853 7  22684952.531 5                                 119210222.238 7  92891104.876 5                
G28  23289927.630 7                  23289932.605 7  23289934.437 8 122389392.391 7                  95368404.374 7  91394746.350 8
G31  22837703.749 7                  22837707.776 6                 120012939.898 7                  93516774.454 6
R02  23102663.303 6  23102667.456 6 123280236.571 6  95884645.031 6
R03  19511382.774 8  19511386.024 7 104445961.183 8  81235710.147 7
R04  20276916.377 8  20276919.167 7 108581956.284 8  84452646.236 7
R12  23649382.396 6  23649386.502 5 126330819.420 6  98257253.928 5
R18  20164093.504 8  20164095.475 7 107637296.483 8  83717744.077 7
R19  19748264.887 8  19748265.318 7 105639902.422 8  82164525.844 7
R20  23667578.206 5  23667584.988 7 126561162.573 5  98436500.985 7
> 2025 06 15 13 54 15.0000000  0 35
C05  39301370.560 5  39301366.927 7 204652572.589 5 158250316.635 7
C06  38697476.150 6  38697473.005 7 201507918.913 6 155818696.843 7
C09  39308336.033 6  39308333.686 7 204688827.806 6 158278384.770 7
C11  24477276.827 7  24477273.857 8 127459847.501 7  98559831.632 8
C12  22252934.369 7  22252931.682 8 115876871.085 7  89603302.318 8
C16  39196809.212 7  39196810.590 7 204108053.729 7 157829296.364 7
C19  25428418.658 6                 132412449.542 6
C21  23248044.613 8                 121058671.834 8
C22  21706917.648 8                 113033613.489 8
C34  22771323.160 8                 118576254.219 8
C35  26078944.871 6                 135799911.138 6
C39  38997437.103 6                 203069878.325 6
C44  22701873.389 8                 118214608.800 8
E03  25917883.546 7  25917887.382 8 136199399.274 7 103033977.571 8
E05  22198518.061 8  22198520.050 9 116653996.354 8  88248000.672 9
E06  27902109.386 6  27902111.135 5 146626561.457 6 110922007.673 5
E09  26072272.504 7  26072275.364 8 137010712.896 7 103647724.007 8
E15  25155687.956 7  25155691.773 8 132194034.048 7 100003942.379 8
E34  23456766.921 8  23456769.546 9 123266144.323 8  93250043.403 9
E36  26299549.676 8  26299554.666 8 138205064.058 8 104551249.663 8
G01  20606809.819 7                  20606813.315 8  20606814.829 9 108289507.997 7                  84381450.205 8  80865564.717 9
G02  22707967.279 7  22707969.620 6                                 119331163.209 7  92985121.705 6                
G03  20025566.889 8                  20025572.305 8  20025570.823 9 105235060.584 8                  82001406.892 8  78584711.782 9
G04  21947859.203 7                  21947864.243 7  21947865.431 8 115336780.954 7                  89872842.529 7  86128142.108 8
G17  22453607.956 6                  22453612.185 6                 117994451.316 6                  91943787.396 6
G19  22680058.188 7  22680060.664 5                                 119184512.178 7  92871071.067 5                
G28  23289887.358 7                  23289892.176 7  23289894.552 8 122389181.828 7                  95368240.330 7  91394589.159 8
G31  22832288.063 7                  22832292.509 7                 119984481.466 7                  93494599.072 7
R02  23113356.891 6  23113360.390 6 123337295.101 6  95929023.771 6
R03  19514719.754 8  19514721.773 8 104463821.124 8  81249601.193 8
R04  20270007.256 8  20270010.542 7 108544960.430 8  84423871.700 7
R12  23643320.026 7  23643323.065 5 126298435.495 7  98232066.478 5
R18  20171579.893 8  20171582.137 7 107677259.836 8  83748826.654 7
R19  19743760.327 8  19743761.194 8 105615809.737 8  82145787.119 8
R20  23655401.901 5  23655408.767 7 126496050.105 5  98385858.012 7
> 2025 06 15 13 54 30.0000000  0 35
C05  39301194.702 5  39301190.148 7 204651652.332 5 158249605.006 7
C06  38694989.523 6  38694986.158 7 201494969.865 6 155808683.842 7
C09  39304547.806 6  39304545.207 7 204669100.008 6 158263130.008 7
C11  24470093.390 7  24470090.933 8 127422444.796 7  98530909.509 8
C12  22254523.479 7  22254520.658 8 115885145.834 7  89609700.873 8
C16  39194797.659 7  39194799.060 7 204097578.763 7 157821196.452 7
C19  25436644.684 6                 132455283.072 6
C21  23241817.512 8                 121026246.537 8
C22  21709044.984 8                 113044690.880 8
C34  22768234.634 7                 118560171.941 7
C35  26088888.455 6                 135851692.347 6
C39  38996775.922 6                 203066435.583 6
C44  22708149.640 8                 118247290.601 8
E03  25909660.159 7  25909664.535 8 136156187.796 7 103001288.400 8
E05  22196931.562 8  22196933.647 9 116645659.735 8  88241694.087 9
E06  27910004.866 5  27910008.238 5 146668057.165 5 110953398.835 5
E09  26078440.013 7  26078442.644 8 137043122.183 7 103672241.412 8
E15  25149411.223 7  25149415.121 9 132161049.716 7  99978989.958 9
E34  23457813.871 8  23457816.559 9 123271646.495 8  93254205.762 9
E36  26306771.564 8  26306776.439 8 138243014.063 8 104579958.541 8
G01  20610719.388 7                  20610722.760 8  20610724.386 9 108310052.672 7                  84397459.017 8  80880906.507 9
G02  22715665.848 7  22715667.947 6                                 119371617.736 7  93016644.685 6                
G03  20024566.509 8                  20024571.734 8  20024569.994 9 105229802.322 8                  81997309.561 8  78580785.172 9
G04  21939232.891 7                  21939237.987 7  21939238.850 8 115291449.868 7                  89837519.615 7  86094290.992 8
G17  22454451.690 6                  22454454.902 6                 117998880.202 6                  91947238.469 6
G19  22675192.177 6  22675194.530 5                                 119158938.489 6  92851143.493 5                
G28  23289874.334 7                  23289878.506 7  23289881.580 8 122389112.027 7                  95368185.920 7  91394537.059 8
G31  22826895.941 7                  22826900.651 7                 119956145.879 7                  93472519.450 7
R02  23124053.249 6  23124055.284 6 123394362.079 6  95973409.152 6
R03  19518079.413 8  19518082.012 8 104481806.393 8  81263589.743 8
R04  20263120.460 8  20263122.945 8 108508081.072 8  84395187.771 8
R12  23637284.327 6  23637287.683 5 126266193.831 6  98206989.581 5
R18  20179092.942 8  20179094.720 7 107717365.336 8  83780019.796 7
R19  19739287.287 8  19739287.812 8 105591881.575 8  82127176.331 8
R20  23643228.494 5  23643236.348 7 126430958.443 5  98335231.275 7
> 2025 06 15 13 54 45.0000000  0 35
C05  39301014.964 5  39301011.980 7 204650724.038 5 158248887.188 7
C06  38692509.560 7  38692505.489 7 201482053.077 7 155798695.749 7
C09  39300763.646 6  39300761.259 7 204649396.521 6 158247894.029 7
C11  24462924.899 7  24462922.058 8 127385113.492 7  98502042.633 8
C12  22256135.246 7  22256132.369 8 115893538.081 7  89616190.281 8
C16  39192791.815 7  39192793.240 7 204087136.004 7 157813121.419 7
C19  25444871.028 6                 132498125.172 6
C21  23235602.304 8                 120993882.646 8
C22  21711186.752 8                 113055844.239 8
C34  22765167.399 7                 118544199.965 7
C35  26098833.272 6                 135903474.733 6
C39  38996121.365 6                 203063026.933 6
C44  22714442.101 7                 118280057.827 7
E03  25901445.685 7  25901448.995 8 136113015.350 7 102968628.773 8
E05  22195362.099 8  22195364.312 9 116637412.933 8  88235455.443 9
E06  27917904.434 5  27917908.912 5 146709568.609 5 110984801.836 5
E09  26084616.370 7  26084619.337 8 137075581.048 7 103696796.335 8
E15  25143141.206 7  25143145.182 9 132128100.883 7  99954064.407 9
E34  23458875.010 8  23458877.565 9 123277222.202 8  93258423.749 9
E36  26313999.279 8  26314004.559 8 138280998.094 8 104608693.181 8
G01  20614649.880 7                  20614653.133 8  20614654.782 9 108330706.604 7                  84413552.979 8  80896329.888 9
G02  22723375.163 7  22723377.462 6                                 119412131.896 7  93048214.115 6                
G03  20023582.791 8                  20023588.522 8  20023586.658 9 105224635.024 8                  81993283.090 8  78576926.474 9
G04  21930621.141 7                  21930626.120 7  21930627.197 8 115246194.942 7                  89802256.033 7  86060496.743 8
G17  22455318.729 7                  22455321.834 6                 118003436.768 7                  91950789.017 6
G19  22670351.963 7  22670353.799 5                                 119133501.350 7  92831322.339 5                
G28  23289887.849 7                  23289891.712 7  23289895.568 8 122389183.173 7                  95368241.372 7  91394590.201 8
G31  22821526.905 7                  22821532.154 7                 119927933.700 7                  93450535.936 7
R02  23134745.541 5  23134750.486 6 123451436.955 5  96017800.771 6
R03  19521462.638 8  19521464.942 7 104499916.685 8  81277675.502 7
R04  20256255.395 8  20256257.842 7 108471318.749 8  84366594.857 7
R12  23631275.593 6  23631280.806 5 126234094.753 6  98182023.783 5
R18  20186633.292 8  20186634.980 7 107757612.903 8  83811323.408 7
R19  19734845.116 8  19734845.198 7 105568118.371 8  82108693.816 7
R20  23631060.488 5  23631067.538 7 126365888.642 5  98284621.497 7
> 2025 06 15 13 55  0.0000000  0 34
C05  39300835.329 5  39300831.721 7 204649786.637 5 158248162.334 7
C06  38690035.239 7  38690031.109 7 201469167.419 7 155788731.758 7
C09  39296983.518 6  39296982.098 7 204629716.308 6 158232676.063 7
C11  24455768.602 7  24455766.728 8 127347852.804 7  98473230.330 8
C12  22257769.268 7  22257766.324 8 115902046.738 7  89622769.698 8
C16  39190792.550 7  39190793.863 6 204076724.329 7 157805070.474 6
C19  25453101.417 6                 132540974.626 6
C21  23229398.959 8                 120961579.142 8
C22  21713343.051 8                 113067072.286 8
C34  22762121.155 7                 118528337.289 7
C35  26108777.478 6                 135955256.984 6
C39  38995473.100 6                 203059651.207 6
C44  22720750.769 8                 118312909.124 8
E03  25893237.352 8  25893240.560 8 136069881.049 8 102935997.985 8
E05  22193809.537 8  22193811.859 9 116629254.821 8  88229283.886 9
E09  26090802.187 7  26090805.147 8 137108088.229 7 103721387.778 8
E15  25136877.470 7  25136881.795 8 132095186.616 7  99929165.001 8
E34  23459949.897 8  23459952.364 9 123282870.399 8  93262696.566 9
E36  26321234.017 8  26321239.002 8 138319015.013 8 104637452.677 8
G01  20618600.924 7                  20618603.872 8  20618605.342 8 108351468.656 7                  84429731.172 8  80911833.988 8
G02  22731095.914 7  22731098.391 6                                 119452704.469 7  93079829.066 6                
G03  20022616.588 8                  20022622.200 8  20022620.443 9 105219557.553 8                  81989326.611 8  78573134.839 9
G04  21922023.953 7                  21922028.907 7  21922029.433 8 115201015.265 7                  89767051.147 7  86026758.711 8
G17  22456208.885 7                  22456212.724 6                 118008119.986 7                  91954438.311 6
G19  22665537.001 7  22665538.577 5                                 119108199.829 7  92811606.924 5                
G28  23289927.887 7                  23289932.586 7  23289935.656 8 122389394.275 7                  95368405.862 7  91394747.794 8
