     3.04           OBSERVATION DATA    Mixed(MIXED)        RINEX VERSION / TYPE
cnvtToRINEX 3.14.0  convertToRINEX OPR  20250615 162110 UTC PGM / RUN BY / DATE 
----------------------------------------------------------- COMMENT             
1006                                                        MARKER NAME         
1006                                                        MARKER NUMBER       
GEODETIC                                                    MARKER TYPE         
GNSS Observer       Trimble                                 OBSERVER / AGENCY   
6337S22116          Unknown             6.26                REC # / TYPE / VERS 
                    UNKNOWN EXT     NONE                    ANT # / TYPE        
  3915590.3423  1192600.1010  4875838.3440                  APPROX POSITION XYZ 
        1.4250        0.0000        0.0000                  ANTENNA: DELTA H/E/N
R    4 C1C C2C L1C L2C                                      SYS / # / OBS TYPES 
G    8 C1C C2W C2X C5X L1C L2W L2X L5X                      SYS / # / OBS TYPES 
C    4 C2I C7I L2I L7I                                      SYS / # / OBS TYPES 
E    4 C1X C8X L1X L8X                                      SYS / # / OBS TYPES 
    15.000                                                  INTERVAL            
  2025     6    15    12    53   45.0000000     GPS         TIME OF FIRST OBS   
  2025     6    15    13    23   15.0000000     GPS         TIME OF LAST OBS    
     0                                                      RCV CLOCK OFFS APPL 
  7 R02 -4 R03  5 R04  6 R11  0 R17  4 R18 -3 R19  3        GLONASS SLOT / FRQ #
R L2C -0.25000                                              SYS / PHASE SHIFT   
G L2X -0.25000                                              SYS / PHASE SHIFT   
    18                                                      LEAP SECONDS        
    40                                                      # OF SATELLITES     
   C05   119   119   119   119                              PRN / # OF OBS      
   C06   119   119   119   119                              PRN / # OF OBS      
   C09   119   119   119   119                              PRN / # OF OBS      
   C11    71    68    68    65                              PRN / # OF OBS      
   C12   119   119   119   119                              PRN / # OF OBS      
   C13    16    15    16    15                              PRN / # OF OBS      
   C16   119   119   119   119                              PRN / # OF OBS      
   C19   119     0   119     0                              PRN / # OF OBS      
   C21   119     0   119     0                              PRN / # OF OBS      
   C22   119     0   119     0                              PRN / # OF OBS      
   C34   119     0   119     0                              PRN / # OF OBS      
   C35   119     0   119     0                              PRN / # OF OBS      
   C39   119     0   119     0                              PRN / # OF OBS      
   C44   119     0   119     0                              PRN / # OF OBS      
   E03    87    87    87    87                              PRN / # OF OBS      
   E05   119   119   119   119                              PRN / # OF OBS      
   E06   119   119   119   119                              PRN / # OF OBS      
   E09   119   119   119   119                              PRN / # OF OBS      
   E15   119   119   119   119                              PRN / # OF OBS      
   E27    72    76    71    76                              PRN / # OF OBS      
   E34   119   119   119   119                              PRN / # OF OBS      
   E36   119   119   119   119                              PRN / # OF OBS      
   G01   119     0   119   119   119     0   119   119      PRN / # OF OBS      
   G02   119   119     0     0   119   119     0     0      PRN / # OF OBS      
   G03   119     0   119   119   119     0   119   119      PRN / # OF OBS      
   G04   119     0   119   119   119     0   119   119      PRN / # OF OBS      
   G08    61     0    61    61    61     0    61    61      PRN / # OF OBS      
   G17   119     0   119     0   119     0   119     0      PRN / # OF OBS      
   G19    83    10     0     0    76    10     0     0      PRN / # OF OBS      
   G22     5     2     0     0     5     2     0     0      PRN / # OF OBS      
   G28   119     0   119   119   119     0   119   119      PRN / # OF OBS      
   G31   115     0   115     0   115     0   115     0      PRN / # OF OBS      
   G32   119     0   119   119   119     0   119   119      PRN / # OF OBS      
   R02   119   119   119   119                              PRN / # OF OBS      
   R03   119   119   119   119                              PRN / # OF OBS      
   R04   119   119   119   119                              PRN / # OF OBS      
   R11    66    66    66    66                              PRN / # OF OBS      
   R17   119   119   119   119                              PRN / # OF OBS      
   R18   119   119   119   119                              PRN / # OF OBS      
   R19   119   119   119   119                              PRN / # OF OBS      
DBHZ                                                        SIGNAL STRENGTH UNIT
                                                            END OF HEADER       
>                              2  1
              *** Start of Kinematic Data ***               COMMENT             
> 2025 06 15 12 53 45.0000000  0 34
C05  39056369.541 6  39056367.623 7 203376764.63716 157263810.52017
C06  39229232.879 6  39229229.291 7 204276911.59816 157959866.98317
C09  40102092.178 6  40102091.235 7 208822122.68316 161474516.59217
C12  22271194.734 7  22271191.359 8 115971957.15217  89676971.89618
C13  40392286.778 5  40392287.720 4 210333220.15015 162643009.34114
C16  39616744.210 7  39616745.703 7 206294781.08617 159520212.53217
C19  23320105.856 8                 121433908.87718
C21  24820879.927 7                 129248829.26817
C22  21428168.141 8                 111582090.39218
C34  23813504.806 7                 124003168.35317
C35  23542012.880 7                 122589437.79417
C39  39110817.712 7                 203660287.54217
C44  21493030.713 8                 111919851.30318
E05  22831696.162 8  22831699.333 9 119981371.45518  90765141.60119
E06  25923770.125 7  25923773.924 8 136230331.81317 103057374.73818
E09  24699477.977 7  24699480.475 9 129796631.47217  98190318.24319
E15  26561298.028 7  26561302.689 7 139580559.94417 105591806.38217
E34  23339671.893 8  23339674.329 9 122650804.11618  92784544.91619
E36  24529070.937 8  24529074.152 9 128901142.42418  97512845.87119
G01  20035437.267 8                  20035440.003 8  20035441.967 9 105286925.99618                  82041777.44418  78623374.97019
G02  20996363.255 7  20996364.419 6                                 110336628.81317  85976497.36216                
G03  20525918.931 8                  20525924.774 7  20525923.088 8 107864421.86518                  84050375.12517  80548304.40118
G04  24103868.282 6                  24103875.718 5  24103880.082 7 126666676.14116                  98701337.07715  94588796.49717
G08  24053050.852 6                  24053060.548 6  24053058.502 7 126399625.05116                  98493258.73216  94389360.35417
G17  22712914.803 7                  22712918.506 6                 119357167.34317                  93005762.39616
G22  24937756.636 5                                                 131048695.08715                                
G28  23786350.432 7                  23786356.321 7  23786359.061 8 124998110.34617                  97401324.75117  93342945.34718
G32  22935221.444 7                  22935227.883 7  22935224.542 7 120525398.92217                  93915720.21817  90002613.29117
R02  20480489.576 8  20480492.139 8 109287813.15818  85001464.33918
R03  19245313.140 8  19245315.351 8 103021664.33318  80128094.28218
R04  22251784.706 7  22251787.330 7 119157286.34417  92677911.99017
R17  20868359.140 8  20868362.504 7 111670802.47318  86855081.32617
R18  18979437.503 8  18979438.453 7 101313521.54918  78799436.97117
R19  21312057.350 8  21312059.025 7 114005134.87118  88670662.84217
> 2025 06 15 12 54  0.0000000  0 35
C05  39056103.260 6  39056101.692 7 203375378.488 6 157262738.657 7
C06  39224910.590 6  39224906.856 7 204254404.793 6 157942463.303 7
C09  40096937.673 6  40096936.694 7 208795282.473 6 161453762.080 7
C12  22267177.473 7  22267174.042 8 115951039.116 7  89660796.739 8
C13  40394395.705 4  40394401.807 5 210344220.47814 162651515.44515
C16  39612855.876 7  39612858.308 7 206274537.779 7 159504559.132 7
C19  23326482.751 7                 121467114.307 7
C21  24811839.071 7                 129201749.773 7
C22  21425730.005 8                 111569395.438 8
C34  23805918.706 7                 123963663.708 7
C35  23550158.179 7                 122631851.080 7
C39  39108073.286 7                 203645993.786 7
C44  21494099.786 8                 111925416.659 8
E05  22825715.135 8  22825718.401 9 119949941.729 8  90741365.252 9
E06  25929383.514 7  25929387.632 8 136259831.235 7 103079690.819 8
E09  24701871.627 7  24701874.084 9 129809209.979 7  98199833.797 9
E15  26553730.984 7  26553735.556 7 139540794.242 7 105561723.905 7
E34  23337287.940 8  23337290.354 9 122638276.399 8  92775067.785 9
E36  24533930.600 8  24533933.740 9 128926679.633 8  97532164.586 9
G01  20033861.803 8                  20033864.626 8  20033866.641 9 105278647.206 8                  82035326.476 8  78617192.773 9
G02  21000169.481 7  21000170.324 6                                 110356630.213 7  85992082.869 6                
G03  20520390.167 7                  20520396.157 8  20520394.435 8 107835368.959 7                  84027736.523 8  80526609.089 8
G04  24092718.360 5                  24092726.557 6  24092730.002 7 126608081.306 5                  98655678.935 6  94545040.823 7
G08  24063392.613 6                  24063402.049 6  24063400.386 7 126453973.261 6                  98535607.850 6  94429944.956 7
G17  22707647.356 7                  22707650.592 7                 119329485.614 7                  92984192.256 7
G19  24238320.568 6                                                 127373169.78816                                
G22  24941916.584 5                                                 131070558.755 5                                
G28  23780184.695 7                  23780190.403 7  23780193.188 8 124965708.644 7                  97376076.669 7  93318749.289 8
G32  22942231.800 7                  22942238.181 7  22942235.269 7 120562239.171 7                  93944426.887 7  90030123.849 7
R02  20488387.420 8  20488390.274 7 109329956.984 8  85034242.845 7
R03  19241471.261 8  19241473.570 7 103001098.035 8  80112098.291 7
R04  22240275.606 7  22240278.961 7 119095655.805 7  92629977.242 7
R17  20877587.297 8  20877590.373 7 111720184.038 8  86893489.146 7
R18  18979182.037 8  18979183.595 7 101312157.852 8  78798376.313 7
R19  21301892.848 8  21301894.560 7 113950762.894 8  88628373.549 7
>                              3  5
              *** Start of Occupation ***                   COMMENT             
1006                                                        MARKER NAME         
1006                                                        MARKER NUMBER       
  3915590.3423  1192600.1010  4875838.3440                  APPROX POSITION XYZ 
        1.4250        0.0000        0.0000                  ANTENNA: DELTA H/E/N
> 2025 06 15 12 54 15.0000000  0 35
C05  39055836.602 5  39055834.844 7 203373990.621 5 157261665.459 7
C06  39220594.644 6  39220590.716 7 204231929.755 6 157925084.215 7
C09  40091786.908 6  40091786.053 7 208768462.188 6 161433022.964 7
C12  22263179.886 7  22263176.687 8 115930222.754 7  89644700.229 8
C13  40396511.187 5  40396513.286 5 210355212.223 5 162660014.792 5
C16  39608974.468 6  39608977.415 7 206254328.063 6 159488931.724 7
C19  23332871.084 8                 121500379.831 8
C21  24802805.982 7                 129154713.248 7
C22  21423311.706 8                 111556802.682 8
C34  23798344.758 7                 123924224.864 7
C35  23558314.750 7                 122674325.424 7
C39  39105335.818 7                 203631740.494 7
C44  21495190.902 8                 111931098.632 8
E05  22819749.678 8  22819752.876 9 119918592.957 8  90717650.120 9
E06  25935011.128 7  25935014.617 8 136289400.644 7 103102059.843 8
E09  24704283.661 8  24704286.298 9 129821886.003 8  98209423.126 9
E15  26546165.767 7  26546170.479 8 139501038.022 7 105531648.642 8
E27  27632574.437 6  27632579.965 7 145210158.71216 109850563.18817
E34  23334915.369 8  23334917.750 9 122625808.496 8  92765635.921 9
E36  24538799.799 7  24538803.472 9 128952269.211 7  97551522.913 9
G01  20032306.692 8                  20032309.780 8  20032311.732 9 105270476.232 8                  82028959.482 8  78611091.071 9
G02  21003992.663 7  21003993.617 6                                 110376722.034 7  86007738.807 6                
G03  20514878.633 7                  20514884.357 7  20514882.686 8 107806404.915 7                  84005167.167 7  80504980.107 8
G04  24081571.634 6                  24081579.536 6  24081582.970 7 126549504.413 6                  98610034.773 6  94501298.485 7
G08  24073737.095 6                  24073746.332 6  24073744.847 7 126508331.742 6                  98577964.999 6  94470537.217 7
G17  22702401.094 7                  22702404.322 7                 119301916.399 7                  92962709.751 7
G22  24946095.607 5                                                 131092515.854 5                                
G28  23774038.282 7                  23774043.214 7  23774046.356 8 124933406.768 7                  97350906.427 7  93294627.803 8
G32  22949258.446 7                  22949265.361 7  22949262.151 8 120599165.307 7                  93973200.481 7  90057698.535 8
R02  20496305.160 8  20496307.766 7 109372207.398 8  85067104.252 7
R03  19237660.402 8  19237662.682 7 102980697.205 8  80096230.986 7
R04  22228778.604 7  22228782.843 7 119034091.637 7  92582094.104 7
R17  20886835.330 8  20886838.657 7 111769672.302 8  86931979.990 7
R18  18978958.304 8  18978959.951 7 101310962.885 8  78797446.904 7
R19  21291741.774 8  21291743.294 7 113896460.781 8  88586138.621 7
> 2025 06 15 12 54 30.0000000  0 36
C05  39055568.722 6  39055567.542 7 203372597.854 6 157260588.483 7
C06  39216283.667 6  39216280.208 7 204209483.360 6 157907727.271 7
C09  40086639.312 6  40086638.756 7 208741658.646 6 161412296.804 7
C12  22259201.434 8  22259198.261 8 115909505.016 8  89628679.970 8
C13  40398615.713 5  40398622.034 4 210366191.626 5 162668504.775 4
C16  39605099.288 6  39605101.962 7 206234148.655 6 159473327.729 7
C19  23339270.433 7                 121533702.023 7
C21  24793781.378 7                 129107716.637 7
C22  21420912.209 8                 111544308.929 8
C34  23790783.387 7                 123884848.870 7
C35  23566482.577 7                 122716857.397 7
C39  39102605.781 7                 203617524.479 7
C44  21496303.957 8                 111936894.030 8
E05  22813798.894 8  22813802.178 9 119887321.993 8  90693993.868 9
E06  25940650.670 7  25940654.072 8 136319036.517 7 103124479.211 8
E09  24706714.212 7  24706716.350 9 129834656.214 7  98219083.710 9
E15  26538600.708 7  26538606.480 8 139461288.254 7 105501578.222 8
E27  27635538.585 6  27635543.689 7 145225735.087 6 109862346.576 7
E34  23332553.405 8  23332555.939 9 122613397.316 8  92756246.935 9
E36  24543678.806 8  24543682.214 9 128977907.869 8  97570918.358 9
G01  20030771.913 8                  20030774.766 8  20030776.434 9 105262409.968 8                  82022674.079 8  78605067.550 9
G02  21007832.520 7  21007833.429 6                                 110396900.824 7  86023462.515 6                
G03  20509383.364 7                  20509389.242 7  20509387.031 8 107777526.628 7                  83982664.628 7  80483415.172 8
G04  24070427.196 6                  24070435.872 6  24070438.345 6 126490942.458 6                  98564402.181 6  94457567.282 6
G08  24084082.220 6                  24084091.669 6  24084090.384 7 126562696.935 6                  98620327.423 6  94511134.498 7
G17  22697175.755 7                  22697179.051 7                 119274456.485 7                  92941312.438 7
G19  24218457.603 5                                                 127268800.69415                                
G22  24950291.274 6  24950296.991 2                                 131114563.123 6 102167293.73512                
G28  23767909.588 7                  23767915.002 7  23767918.067 8 124901201.943 7                  97325811.786 7  93270578.772 8
G32  22956301.061 7                  22956307.748 7  22956304.463 7 120636173.799 7                  94002038.229 7  90085334.692 7
R02  20504242.313 8  20504244.546 7 109414560.564 8  85100045.581 7
R03  19233879.151 8  19233881.610 7 102960458.719 8  80080489.938 7
R04  22217293.641 7  22217297.337 7 118972590.893 7  92534260.239 7
R17  20896102.651 8  20896105.932 7 111819263.897 8  86970551.202 7
R18  18978765.907 8  18978767.341 7 101309933.563 8  78796646.313 7
R19  21281603.214 8  21281605.439 7 113842225.863 8  88543955.945 7
> 2025 06 15 12 54 45.0000000  0 37
C05  39055301.390 6  39055299.718 7 203371204.164 6 157259510.793 7
C06  39211979.462 6  39211975.952 7 204187069.707 6 157890395.628 7
C09  40081495.977 6  40081495.358 7 208714875.870 6 161391586.725 7
C12  22255242.647 8  22255239.313 8 115888890.164 8  89612739.274 8
C13  40400722.192 5  40400726.728 4 210377163.177 5 162676988.629 4
C16  39601230.732 6  39601232.924 7 206214003.702 6 159457750.354 7
C19  23345680.937 8                 121567084.708 8
C21  24784764.405 7                 129060764.108 7
C22  21418532.855 8                 111531918.150 8
C34  23783234.205 7                 123845540.009 7
C35  23574662.378 7                 122759450.876 7
C39  39099883.650 7                 203603349.792 7
C44  21497439.242 8                 111942806.813 8
E05  22807863.903 8  22807867.085 9 119856133.036 8  90670399.657 9
E06  25946303.420 7  25946306.874 8 136348742.861 7 103146951.826 8
E09  24709162.423 7  24709165.084 9 129847524.481 7  98228818.470 9
E15  26531039.030 7  26531044.249 8 139421548.947 7 105471515.730 8
E27  27638522.200 6  27638525.246 7 145241405.715 6 109874201.319 7
E34  23330203.435 8  23330205.753 9 122601046.951 8  92746903.972 9
E36  24548567.768 8  24548571.218 9 129003599.620 8  97590353.985 9
G01  20029257.878 8                  20029260.376 8  20029262.197 9 105254452.551 8                  82016473.479 8  78599125.328 9
G02  21011689.744 7  21011690.842 6                                 110417170.797 7  86039257.271 6                
G03  20503905.169 7                  20503911.057 7  20503909.116 8 107748738.149 7                  83960232.059 7  80461917.307 8
G04  24059286.683 6                  24059295.408 6  24059297.866 6 126432399.651 6                  98518784.608 6  94413850.415 6
G08  24094430.032 6                  24094439.089 6  24094437.853 7 126617072.632 6                  98662697.993 6  94551739.606 7
G17  22691971.965 7                  22691975.381 7                 119247110.218 7                  92920003.641 7
G19  24208547.441 5                                                 127216715.83415                                
G22  24954504.355 6  24954510.527 3                                 131136703.996 6 102184546.375 3                
G28  23761799.696 6                  23761805.886 7  23761809.053 8 124869098.433 6                  97300796.136 7  93246605.443 8
G31  24382276.532 5                  24382285.510 6                 128129916.30015                  99841376.93816
G32  22963359.727 7                  22963366.852 7  22963363.362 7 120673268.365 7                  94030943.087 7  90113035.175 7
R02  20512199.263 8  20512201.847 8 109457020.250 8  85133069.746 8
R03  19230129.852 8  19230131.811 7 102940386.585 8  80064878.281 7
R04  22205820.882 7  22205824.429 7 118911158.054 7  92486479.203 7
R17  20905389.824 8  20905393.035 7 111868962.438 8  87009205.593 7
R18  18978604.315 8  18978605.903 7 101309074.270 8  78795977.993 7
R19  21271478.048 8  21271479.671 7 113788062.467 8  88501828.858 7
> 2025 06 15 12 55  0.0000000  0 36
C05  39055033.273 6  39055031.750 7 203369807.111 6 157258430.507 7
C06  39207680.729 6  39207677.661 7 204164686.298 6 157873087.375 7
C09  40076356.264 6  40076355.474 7 208688111.467 6 161370890.825 7
C12  22251303.129 8  22251299.734 8 115868375.896 8  89596876.349 8
C13  40402828.164 5  40402833.492 5 210388124.237 5 162685464.364 5
C16  39597368.071 6  39597370.756 7 206193890.711 6 159442197.744 7
C19  23352103.167 8                 121600525.155 8
C21  24775755.486 7                 129013853.364 7
C22  21416172.850 8                 111519627.927 8
C34  23775697.631 7                 123806295.981 7
C35  23582853.418 7                 122802103.161 7
C39  39097168.860 7                 203589213.980 7
C44  21498597.161 8                 111948834.611 8
E05  22801944.514 8  22801947.167 9 119825023.766 8  90646865.706 9
E06  25951969.382 7  25951972.807 8 136378516.915 7 103169475.715 8
E09  24711629.675 7  24711632.015 9 129860488.255 7  98238625.476 9
E15  26523478.778 7  26523483.393 8 139381817.829 7 105441459.421 8
E27  27641520.432 6  27641524.819 7 145257168.057 6 109886125.420 7
E34  23327864.329 8  23327866.663 9 122588755.070 8  92737605.247 9
E36  24553465.971 8  24553469.867 9 129029342.027 8  97609827.918 9
G01  20027763.712 8                  20027766.638 8  20027768.023 9 105246601.641 8                  82010355.881 8  78593262.634 9
G02  21015564.351 7  21015565.107 6                                 110437529.445 7  86055121.161 6                
G03  20498443.141 8                  20498449.182 7  20498447.391 8 107720037.134 8                  83937867.616 7  80440484.723 8
G04  24048149.372 6                  24048158.043 6  24048160.861 6 126373873.920 6                  98473180.240 6  94370146.262 6
G08  24104778.364 6                  24104788.061 6  24104786.566 7 126671455.985 6                  98705074.539 6  94592350.455 7
G17  22686789.162 7                  22686793.136 7                 119219875.312 7                  92898781.645 7
G19  24198647.018 5                                                                                                
G28  23755709.461 7                  23755715.607 7  23755718.392 8 124837094.155 7                  97275857.813 7  93222706.223 8
G31  24372857.219 5                  24372865.781 6                 128080420.143 5                  99802808.562 6
G32  22970434.719 7                  22970441.464 7  22970438.385 7 120710446.342 7                  94059912.889 7  90140797.889 7
R02  20520175.381 8  20520178.333 8 109499583.513 8  85166174.475 8
R03  19226410.720 8  19226412.597 7 102920478.494 8  80049394.226 7
R04  22194361.040 7  22194364.283 7 118849790.787 7  92438749.144 7
R17  20914697.275 8  20914700.446 7 111918765.273 8  87047941.061 7
R18  18978474.819 8  18978476.236 7 101308382.509 8  78795439.931 7
R19  21261366.622 8  21261367.210 7 113733968.687 8  88459755.966 7
> 2025 06 15 12 55 15.0000000  0 36
C05  39054764.750 6  39054762.766 7 203368407.783 6 157257348.456 7
C06  39203389.141 6  39203384.955 7 204142334.316 6 157855803.431 7
C09  40071219.744 6  40071219.380 7 208661366.659 6 161350210.060 7
C12  22247383.259 8  22247379.735 8 115847963.455 8  89581092.168 8
C13  40404931.887 5  40404937.902 5 210399076.026 5 162693933.014 5
C16  39593512.052 7  39593514.651 7 206173810.798 7 159426670.684 7
C19  23358536.335 7                 121634024.267 7
C21  24766755.236 7                 128966985.561 7
C22  21413831.800 8                 111507439.297 8
C34  23768174.131 7                 123767118.170 7
C35  23591055.908 7                 122844815.106 7
C39  39094462.010 7                 203575118.172 7
C44  21499776.830 8                 111954978.438 8
E05  22796039.717 8  22796042.651 9 119793995.367 8  90623392.953 9
E06  25957648.206 7  25957651.753 8 136408359.583 7 103192051.485 8
E09  24714114.689 7  24714117.289 9 129873548.442 7  98248505.437 9
E15  26515919.377 7  26515924.559 8 139342096.026 7 105411410.183 8
E27  27644537.683 5  27644542.385 7 145273023.081 5 109898119.621 7
E34  23325536.538 8  23325538.981 9 122576522.855 8  92728351.656 9
E36  24558374.676 8  24558378.319 9 129055136.090 8  97629340.948 9
G01  20026290.490 8                  20026293.238 8  20026295.013 9 105238858.412 8                  82004322.204 8  78587480.356 9
G02  21019455.292 7  21019456.406 6                                 110457977.836 7  86071054.968 6                
G03  20492998.720 8                  20493004.528 8  20493002.581 8 107691424.661 8                  83915572.189 8  80419118.271 8
G04  24037016.054 6                  24037023.883 6  24037026.753 6 126315366.587 6                  98427590.276 6  94326455.899 6
G08  24115128.978 6                  24115138.509 6  24115136.878 7 126725847.764 6                  98747457.700 6  94632967.581 7
G17  22681627.772 7                  22681631.929 7                 119192752.805 7                  92877647.269 7
G19  24188760.192 5                                                 127112734.28715                                
G28  23749638.478 7                  23749644.406 7  23749647.582 8 124805190.558 7                  97250997.901 7  93198882.141 8
G31  24363445.618 5                  24363452.808 5                 128030960.246 5                  99764268.425 5
G32  22977525.398 7                  22977532.228 7  22977528.898 7 120747708.402 7                  94088948.255 7  90168623.444 7
R02  20528171.087 8  20528173.972 7 109542250.921 8  85199360.221 7
R03  19222722.752 8  19222724.757 8 102900735.634 8  80034038.681 8
R04  22182913.885 7  22182917.712 7 118788490.368 7  92391071.161 7
R17  20924023.477 8  20924027.057 7 111968673.087 8  87086758.194 7
R18  18978376.705 8  18978378.044 7 101307859.479 8  78795033.130 7
R19  21251267.098 8  21251268.599 7 113679946.134 8  88417738.453 7
> 2025 06 15 12 55 30.0000000  0 35
C05  39054494.877 5  39054492.886 7 203367004.355 5 157256263.241 7
C06  39199101.968 6  39199098.418 7 204120011.913 6 157838542.348 7
C09  40066086.767 6  40066086.817 7 208634639.569 6 161329543.007 7
C12  22243482.467 7  22243478.850 8 115827651.167 7  89565385.422 8
C13  40407033.373 5  40407039.626 5 210410016.741 5 162702393.046 5
C16  39589661.831 6  39589664.372 7 206153762.217 6 159411167.866 7
C19  23364980.365 7                 121667579.981 7
C21  24757762.615 7                 128920159.027 7
C22  21411510.557 8                 111495350.351 8
C34  23760662.818 7                 123728004.991 7
C35  23599269.634 7                 122887584.750 7
C39  39091762.628 7                 203561060.481 7
C44  21500978.558 8                 111961236.474 8
E05  22790150.191 8  22790153.214 9 119763046.151 8  90599980.084 9
E06  25963339.416 7  25963343.380 8 136438268.813 7 103214677.607 8
E09  24716618.104 7  24716620.527 9 129886703.118 7  98258456.841 9
E15  26508361.812 7  26508367.089 8 139302381.783 7 105381366.653 8
E27  27647570.699 5  27647576.892 7 145288968.710 5 109910182.317 7
E34  23323220.088 8  23323222.267 9 122564348.518 8  92719141.854 9
E36  24563292.680 8  24563296.233 9 129080979.967 8  97648891.655 9
G01  20024836.768 8                  20024839.895 8  20024841.722 9 105231221.146 8                  81998371.102 8  78581777.207 9
G02  21023362.992 7  21023364.305 6                                 110478513.965 7  86087057.126 6                
G03  20487570.269 8                  20487576.329 7  20487574.308 8 107662899.025 8                  83893344.427 7  80397816.655 8
G04  24025885.062 6                  24025893.294 6  24025895.914 7 126256876.070 6                  98382013.366 6  94282778.058 7
G08  24125480.849 6                  24125490.287 6  24125488.554 7 126780245.857 6                  98789845.733 6  94673589.413 7
G17  22676487.621 7                  22676492.071 7                 119165741.289 7                  92856599.353 7
G28  23743586.604 7                  23743592.393 7  23743595.323 8 124773386.062 7                  97226215.214 7  93175132.080 8
G31  24354039.551 6                  24354048.451 6                 127981534.931 6                  99725755.287 6
G32  22984631.743 7                  22984638.862 7  22984635.184 7 120785052.455 7                  94118047.486 7  90196510.223 7
R02  20536186.266 8  20536188.784 8 109585020.245 8  85232625.219 8
R03  19219064.641 8  19219066.959 8 102881155.944 8  80018810.034 8
R04  22171478.895 7  22171483.200 7 118727255.595 7  92343444.187 7
R17  20933369.265 8  20933372.919 7 112018683.613 8  87125655.257 7
R18  18978310.055 8  18978311.167 7 101307503.445 8  78794756.217 7
R19  21241181.253 8  21241182.511 7 113625993.163 8  88375775.063 7
> 2025 06 15 12 55 45.0000000  0 35
C05  39054225.079 6  39054223.705 7 203365600.746 6 157255177.882 7
C06  39194821.578 6  39194818.082 7 204097723.125 6 157821307.271 7
C09  40060958.845 6  40060958.221 7 208607934.284 6 161308892.813 7
C12  22239601.556 7  22239597.977 8 115807443.140 7  89549759.289 8
C13  40409133.462 5  40409138.178 5 210420950.338 5 162710847.577 5
C16  39585818.156 6  39585820.530 7 206133748.899 6 159395692.287 7
C19  23371435.817 7                 121701196.030 7
C21  24748778.472 7                 128873377.828 7
C22  21409208.919 8                 111483365.077 8
C34  23753164.652 7                 123688960.603 7
C35  23607494.794 8                 122930415.767 8
C39  39089071.453 7                 203547044.953 7
C44  21502203.295 8                 111967612.659 8
E05  22784276.473 8  22784279.622 9 119732180.212 8  90576630.235 9
E06  25969044.764 7  25969048.354 8 136468248.404 7 103237356.946 8
E09  24719139.910 7  24719142.455 9 129899956.117 7  98268482.636 9
E15  26500806.777 6  26500811.950 8 139262679.232 6 105351331.981 8
E27  27650623.840 6  27650629.368 7 145305008.802 6 109922316.510 7
E34  23320915.054 8  23320917.372 9 122552236.178 8  92709978.941 9
E36  24568220.497 8  24568224.374 9 129106877.581 8  97668483.021 9
G01  20023404.475 8                  20023407.546 8  20023409.280 9 105223693.941 8                  81992505.743 8  78576156.242 9
G02  21027288.570 7  21027289.653 6                                 110499141.824 7  86103130.771 6                
G03  20482159.119 7                  20482165.352 8  20482163.478 8 107634464.226 7                  83871187.447 8  80376582.905 8
G04  24014758.925 5                  24014767.013 6  24014769.320 7 126198406.638 5                  98336452.883 6  94239115.985 7
G08  24135833.618 6                  24135843.984 6  24135842.278 7 126834653.885 6                  98832241.494 6  94714218.668 7
G17  22671369.492 7                  22671373.302 7                 119138845.135 7                  92835641.314 7
G28  23737554.271 7                  23737559.759 7  23737562.697 8 124741684.990 7                  97201513.129 7  93151459.252 8
G31  24344642.589 6                  24344650.701 6                 127932148.799 6                  99687272.719 6
G32  22991754.205 7                  22991761.562 7  22991757.767 7 120822482.270 7                  94147213.497 7  90224460.980 7
R02  20544220.766 8  20544223.709 7 109627895.128 8  85265972.328 7
R03  19215438.453 8  19215440.685 8 102861743.926 8  80003711.797 8
R04  22160056.796 7  22160060.208 7 118666090.396 7  92295871.311 7
R17  20942734.941 8  20942737.882 7 112068800.988 8  87164635.395 7
R18  18978275.896 8  18978276.697 7 101307318.558 8  78794612.419 7
R19  21231108.761 7  21231110.678 7 113572114.466 7  88333869.452 7
> 2025 06 15 12 56  0.0000000  0 35
C05  39053955.243 6  39053953.527 7 203364193.810 6 157254089.956 7
C06  39190547.281 6  39190543.579 7 204075464.887 6 157804095.809 7
C09  40055833.630 6  40055833.371 7 208581247.613 6 161288257.038 7
C12  22235740.370 7  22235736.850 8 115787336.524 7  89534211.598 8
C13  40411227.604 5  40411236.021 5 210431873.394 5 162719293.966 5
C16  39581980.961 6  39581983.596 7 206113767.779 6 159380241.633 7
C19  23377902.521 7                 121734869.080 7
C21  24739803.498 7                 128826639.078 7
C22  21406926.326 8                 111471480.314 8
C34  23745678.908 7                 123649982.120 7
C35  23615730.670 7                 122973304.898 7
C39  39086387.467 7                 203533068.451 7
C44  21503450.329 8                 111974103.891 8
E05  22778417.972 8  22778421.258 9 119701394.563 8  90553341.112 9
E06  25974762.304 7  25974766.064 8 136498294.978 7 103260086.977 8
E09  24721679.652 7  24721682.468 9 129913304.109 7  98278580.330 9
E15  26493253.686 7  26493258.433 8 139222985.292 7 105321303.820 8
E27  27653693.869 6  27653699.039 7 145321140.107 6 109934519.678 7
E34  23318621.281 8  23318623.686 9 122540182.772 8  92700860.623 9
E36  24573158.648 8  24573162.171 9 129132825.812 8  97688112.676 9
G01  20021992.516 8                  20021995.466 8  20021997.338 9 105216273.762 8                  81986723.769 8  78570615.204 9
G02  21031230.727 7  21031231.962 6                                 110519858.204 7  86119273.389 6                
G03  20476765.366 7                  20476770.883 7  20476769.319 8 107606117.195 7                  83849098.893 7  80355414.699 8
G04  24003635.627 6                  24003644.118 6  24003646.019 7 126139955.401 6                  98290906.613 6  94195467.511 7
G08  24146189.173 6                  24146198.314 6  24146196.944 7 126889068.383 6                  98874642.280 6  94754852.756 7
G17  22666272.730 7                  22666276.292 7                 119112061.268 7                  92814770.807 7
G28  23731540.912 7                  23731546.377 7  23731549.504 8 124710084.576 7                  97176889.463 7  93127861.579 8
G31  24335251.611 6                  24335259.596 6                 127882799.166 6                  99648818.512 6
G32  22998892.089 7                  22998899.515 7  22998895.742 7 120859994.239 7                  94176443.597 7  90252473.187 7
R02  20552274.800 8  20552277.102 7 109670871.786 8  85299398.615 7
R03  19211842.883 8  19211845.259 8 102842496.054 8  79988741.245 8
R04  22148646.777 8  22148650.675 7 118604992.230 8  92248350.552 7
R17  20952119.842 8  20952122.896 7 112119021.487 8  87203695.735 7
R18  18978272.451 8  18978273.608 7 101307301.841 8  78794599.401 7
R19  21221050.148 8  21221051.401 7 113518306.954 8  88292019.198 7
> 2025 06 15 12 56 15.0000000  0 35
C05  39053684.356 6  39053682.545 7 203362783.189 6 157252999.169 7
C06  39186278.237 6  39186274.975 7 204053236.807 6 157786907.657 7
C09  40050712.313 6  40050712.107 7 208554579.328 6 161267635.455 7
C12  22231898.054 7  22231895.160 8 115767331.101 7  89518742.139 8
C13  40413324.987 5  40413331.909 5 210442785.902 5 162727732.231 5
C16  39578150.460 6  39578152.774 7 206093818.508 6 159364815.585 7
C19  23384379.384 7                 121768598.533 7
C21  24730835.654 7                 128779942.384 7
C22  21404663.264 8                 111459695.635 8
C34  23738206.666 7                 123611069.429 7
C35  23623978.737 7                 123016251.496 7
C39  39083710.784 7                 203519130.544 7
C44  21504718.388 8                 111980709.817 8
E05  22772574.690 8  22772578.137 9 119670688.938 8  90530112.524 9
E06  25980492.850 7  25980496.419 8 136528407.967 7 103282867.243 8
E09  24724238.001 7  24724240.500 9 129926746.685 7  98288749.530 9
E15  26485701.804 7  26485706.388 8 139183299.681 7 105291281.978 8
E27  27656781.095 6  27656785.944 7 145337361.947 6 109946791.394 7
E34  23316338.676 8  23316341.156 9 122528188.011 8  92691786.683 9
E36  24578105.898 8  24578109.521 9 129158824.240 8  97707780.279 9
G01  20020601.015 8                  20020604.023 8  20020605.730 9 105208960.306 8                  81981024.988 8  78565153.865 9
G02  21035189.927 7  21035190.974 6                                 110540662.792 7  86135484.722 6                
G03  20471387.422 8                  20471393.627 7  20471391.730 8 107577857.672 8                  83827078.489 7  80334311.826 8
G04  23992516.371 6                  23992524.633 6  23992526.838 7 126081522.336 6                  98245374.502 6  94151832.566 7
G08  24156544.188 6                  24156554.595 6  24156552.560 7 126943488.583 6                  98917047.568 6  94795491.121 7
G17  22661197.098 8                  22661200.829 7                 119085389.504 8                  92793987.603 7
G28  23725546.230 7                  23725552.143 7  23725555.039 8 124678584.648 7                  97152344.112 7  93104338.992 8
G31  24325867.658 5                  24325875.225 6                 127833485.910 5                  99610392.681 6
G32  23006045.899 7                  23006053.151 7  23006049.700 7 120897587.847 7                  94205737.274 7  90280546.303 7
R02  20560347.901 8  20560350.346 7 109713949.481 8  85332903.469 7
R03  19208277.860 8  19208280.476 7 102823412.039 8  79973898.112 7
R04  22137249.059 7  22137253.384 7 118543960.896 7  92200881.824 7
R17  20961524.211 8  20961527.415 7 112169344.326 8  87242835.695 7
R18  18978301.042 8  18978301.843 7 101307452.958 8  78794716.953 7
R19  21211004.839 8  21211006.151 7 113464570.906 8  88250224.513 7
> 2025 06 15 12 56 30.0000000  0 35
C05  39053412.426 5  39053410.838 7 203361367.627 5 157251904.582 7
C06  39182014.716 6  39182012.064 7 204031037.688 6 157769741.927 7
C09  40045594.485 6  40045593.798 7 208527928.194 6 161247027.150 7
C12  22228075.745 7  22228072.711 8 115747425.828 7  89503350.120 8
C13  40415420.062 5  40415425.695 5 210453686.557 5 162736161.344 5
C16  39574324.994 7  39574327.540 7 206073899.889 7 159349413.270 7
C19  23390867.507 7                 121802382.953 7
C21  24721875.671 7                 128733286.739 7
C22  21402419.295 8                 111448009.802 8
C34  23730746.126 7                 123572221.540 7
C35  23632236.718 7                 123059254.189 7
C39  39081041.372 7                 203505230.136 7
C44  21506008.640 8                 111987429.148 8
E05  22766746.557 8  22766750.037 9 119640062.224 8  90506943.647 9
E06  25986234.954 7  25986239.158 8 136558585.970 7 103305696.683 8
E09  24726813.613 7  24726816.248 9 129940282.396 7  98298989.221 9
E15  26478151.445 7  26478155.822 8 139143621.290 7 105261265.582 8
E27  27659886.004 6  27659890.016 7 145353673.060 6 109959130.640 7
E34  23314067.179 8  23314069.574 9 122516250.766 8  92682756.234 9
E36  24583062.587 8  24583066.180 9 129184871.608 8  97727484.923 9
G01  20019229.279 8                  20019232.359 8  20019233.954 9 105201752.483 8                  81975408.507 8  78559771.398 9
G02  21039165.152 7  21039166.724 6                                 110561554.097 7  86151763.632 6                
G03  20466026.064 8                  20466032.457 7  20466030.835 8 107549684.448 8                  83805125.363 7  80313273.386 8
G04  23981400.177 6                  23981407.919 6  23981410.344 7 126023106.462 6                  98199855.722 6  94108210.438 7
G08  24166901.769 6                  24166911.467 6  24166909.612 7 126997913.068 6                  98959456.206 6  94836132.671 7
G17  22656142.763 7                  22656146.227 7                 119058828.793 7                  92773290.938 7
G28  23719571.362 7                  23719576.795 7  23719579.585 8 124647184.372 7                  97127876.442 7  93080890.793 8
G31  24316490.102 5                  24316497.872 6                 127784208.287 5                  99571994.566 6
G32  23013215.351 7                  23013222.333 7  23013219.285 7 120935261.477 7                  94235093.331 7  90308679.177 7
R02  20568439.052 8  20568441.595 7 109757126.582 8  85366485.645 7
R03  19204743.192 8  19204745.180 7 102804490.519 8  79959181.395 7
R04  22125864.399 8  22125867.963 7 118482995.347 8  92153464.193 7
R17  20970946.909 8  20970949.870 7 112219768.173 8  87282054.205 7
R18  18978360.261 8  18978361.768 7 101307770.783 8  78794964.160 7
R19  21200972.766 8  21200973.917 7 113410905.328 8  88208484.632 7
> 2025 06 15 12 56 45.0000000  0 35
C05  39053139.083 5  39053137.493 7 203359945.232 5 157250804.689 7
C06  39177757.347 6  39177754.261 7 204008865.646 6 157752597.108 7
C09  40040479.261 6  40040478.606 7 208501292.325 6 161226430.674 7
C12  22224271.532 7  22224269.104 8 115727618.856 7  89488034.133 8
C13  40417510.696 5  40417514.818 5 210464573.322 5 162744579.571 5
C16  39570505.544 7  39570508.052 7 206054009.996 7 159334033.145 7
C19  23397365.598 7                 121836220.098 7
C21  24712923.489 7                 128686670.340 7
C22  21400193.892 8                 111436420.855 8
C34  23723298.091 7                 123533436.690 7
C35  23640505.520 7                 123102310.790 7
C39  39078378.857 7                 203491365.192 7
C44  21507320.635 8                 111994259.912 8
E05  22760933.544 8  22760936.589 9 119609512.578 8  90483833.054 9
E06  25991989.799 7  25991993.751 8 136588826.734 7 103328573.614 8
E09  24729406.619 7  24729409.346 9 129953909.146 7  98309297.763 9
E15  26470601.711 7  26470606.294 8 139103948.240 7 105231253.187 8
E27  27663006.059 6  27663010.190 7 145370071.194 6 109971535.727 7
E34  23311806.282 8  23311808.613 9 122504369.136 8  92673767.854 9
E36  24588028.375 8  24588031.753 9 129210965.851 8  97747225.028 9
G01  20017877.626 8                  20017880.613 8  20017881.950 9 105194648.389 8                  81969872.856 8  78554466.396 9
G02  21043156.447 7  21043158.369 6                                 110582530.257 7  86168108.687 6                
G03  20460681.435 8                  20460687.164 7  20460685.422 8 107521595.610 8                  83783237.952 7  80292297.971 8
G04  23970286.609 6                  23970295.549 7  23970296.896 7 125964706.034 6                  98154348.998 7  94064599.830 7
G08  24177258.505 6                  24177268.494 6  24177266.870 8 127052339.482 6                  99001866.276 6  94876775.640 8
G17  22651109.266 7                  22651112.885 7                 119032377.379 7                  92752679.477 7
G28  23713614.320 7                  23713620.240 7  23713622.855 8 124615882.079 7                  97103485.092 7  93057515.763 8
G31  24307119.205 6                  24307126.580 6                 127734964.711 6                  99533623.027 6
G32  23020399.197 7                  23020406.262 7  23020403.050 7 120973012.885 7                  94264509.969 7  90336870.120 7
R02  20576548.840 8  20576551.331 7 109800400.712 8  85400143.249 7
R03  19201238.234 8  19201240.434 8 102785729.836 8  79944589.758 8
R04  22114491.432 7  22114495.539 7 118422094.084 7  92106096.693 7
R17  20980388.006 8  20980391.372 7 112270290.688 8  87321349.456 7
R18  18978450.844 8  18978452.201 7 101308253.485 8  78795339.591 7
R19  21190952.787 8  21190954.597 7 113357308.503 8  88166798.254 7
> 2025 06 15 12 57  0.0000000  0 35
C05  39052865.491 6  39052864.481 7 203358522.236 6 157249704.347 7
C06  39173505.592 6  39173502.464 7 203986727.062 6 157735478.172 7
C09  40035367.960 6  40035367.272 7 208474678.148 6 161205850.930 7
C12  22220488.350 7  22220485.267 8 115707916.723 7  89472799.193 8
C13  40419598.500 4  40419608.649 4 210475452.714 4 162752992.129 4
C16  39566692.971 7  39566695.133 7 206034155.220 7 159318680.164 7
C19  23403874.713 7                 121870116.191 7
C21  24703980.213 7                 128640099.583 7
C22  21397988.201 8                 111424935.077 8
C34  23715862.919 7                 123494721.544 7
C35  23648785.582 7                 123145427.451 7
C39  39075724.139 7                 203477542.112 7
C44  21508654.951 8                 112001208.533 8
E05  22755135.596 8  22755139.063 9 119579046.539 8  90460785.722 9
E06  25997757.682 7  25997761.548 8 136619136.504 7 103351502.760 8
E09  24732018.088 7  24732020.929 9 129967633.204 7  98319679.914 9
E15  26463054.508 7  26463059.052 8 139064287.048 7 105201249.784 8
E27  27666144.107 6  27666148.252 7 145386562.773 6 109984011.432 7
E34  23309556.851 8  23309559.400 9 122492549.649 8  92664826.489 9
E36  24593004.007 8  24593007.483 9 129237113.427 8  97767005.485 9
G01  20016546.293 8                  20016549.709 8  20016551.330 9 105187654.569 8                  81964423.121 8  78549243.745 9
G02  21047165.821 7  21047167.294 6                                 110603597.647 7  86184524.822 6                
G03  20455353.232 8                  20455359.235 7  20455357.653 8 107493597.685 8                  83761421.391 7  80271390.416 8
G04  23959177.981 6                  23959186.545 7  23959188.064 7 125906327.709 6                  98108859.519 7  94021005.804 7
G08  24187617.514 6                  24187627.624 6  24187625.282 7 127106773.895 6                  99044282.591 6  94917424.581 7
G17  22646097.744 7                  22646101.238 7                 119006041.904 7                  92732158.355 7
G28  23707677.902 7                  23707683.087 7  23707686.195 8 124584684.519 7                  97079175.329 7  93034218.914 8
G31  24297756.016 6                  24297763.453 6                 127685761.974 6                  99495283.354 6
G32  23027599.572 7                  23027605.675 7  23027603.166 7 121010848.153 7                  94293991.992 7  90365123.728 7
R02  20584677.520 8  20584679.961 7 109843777.659 8  85433880.889 7
R03  19197764.840 8  19197767.031 8 102767136.276 8  79930128.128 8
R04  22103131.545 8  22103135.340 7 118361263.825 8  92058784.303 7
R17  20989848.741 8  20989852.778 7 112320918.121 8  87360726.313 7
R18  18978573.310 8  18978574.454 7 101308907.595 8  78795848.331 7
R19  21180947.904 7  21180949.215 7 113303787.702 7  88125170.969 7
> 2025 06 15 12 57 15.0000000  0 34
C05  39052593.268 5  39052591.650 7 203357100.307 5 157248604.827 7
C06  39169260.781 6  39169257.473 7 203964623.505 6 157718386.328 7
C09  40030261.570 6  40030261.151 7 208448087.270 6 161185289.216 7
C12  22216724.935 7  22216722.293 8 115688321.217 7  89457646.721 8
C16  39562887.089 7  39562889.480 7 206014337.154 7 159303355.557 7
C19  23410396.111 7                 121904072.504 7
C21  24695045.642 7                 128593576.229 7
C22  21395802.695 8                 111413554.046 8
C34  23708441.884 7                 123456077.865 7
C35  23657077.225 7                 123188605.512 7
C39  39073077.710 7                 203463762.477 7
C44  21510012.221 8                 112008276.478 8
E05  22749354.546 8  22749357.779 9 119548665.806 8  90437802.929 9
E06  26003539.166 7  26003542.783 8 136649516.685 7 103374485.143 8
E09  24734648.458 7  24734651.348 9 129981456.018 7  98330136.788 9
E15  26455509.644 7  26455514.426 8 139024639.340 7 105171256.568 8
E27  27669299.761 6  27669304.365 7 145403149.131 6 109996558.898 7
E34  23307320.066 8  23307322.351 9 122480793.954 8  92655933.385 9
E36  24597990.419 8  24597993.655 9 129263315.841 8  97786827.424 9
G01  20015236.630 8                  20015240.089 8  20015241.889 9 105180772.697 8                  81959060.607 8  78544104.667 9
G02  21051192.044 7  21051193.946 6                                 110624757.687 7  86201013.159 6                
G03  20450043.201 8                  20450048.776 7  20450047.261 8 107465692.214 8                  83739676.874 7  80250551.942 8
G04  23948073.503 6                  23948081.949 7  23948083.604 7 125847973.406 6                  98063388.788 7  93977429.640 7
G08  24197977.212 6                  24197988.015 6  24197985.961 7 127161217.596 6                  99086706.115 6  94958080.457 7
G17  22641108.611 7                  22641112.498 7                 118979824.120 7                  92711728.922 7
G28  23701761.309 7                  23701766.729 7  23701769.860 8 124553593.554 7                  97054948.638 7  93011001.696 8
G31  24288400.926 6                  24288408.705 6                 127636602.160 6                  99456977.130 6
G32  23034815.395 7                  23034821.756 7  23034819.062 7 121048768.587 7                  94323540.382 7  90393440.911 7
R02  20592825.754 8  20592828.171 7 109887258.780 8  85467699.507 7
R03  19194322.986 8  19194325.481 7 102748711.508 8  79915797.752 7
R04  22091785.248 7  22091790.116 7 118300506.468 7  92011528.689 7
R17  20999330.126 8  20999333.451 7 112371651.583 8  87400185.633 7
R18  18978728.007 8  18978729.808 8 101309734.838 8  78796491.746 8
R19  21170957.263 8  21170958.967 7 113250344.971 8  88083604.411 7
> 2025 06 15 12 57 30.0000000  0 34
C05  39052318.879 6  39052317.792 7 203355675.316 6 157247502.930 7
C06  39165022.334 6  39165018.740 7 203942551.008 6 157701318.489 7
C09  40025158.943 6  40025158.314 7 208421515.656 6 161164742.396 7
C12  22212981.550 7  22212978.712 8 115668828.392 7  89442573.630 8
C16  39559087.573 6  39559089.357 7 205994551.754 6 159288056.238 7
C19  23416927.561 7                 121938084.777 7
C21  24686119.144 7                 128547096.337 7
C22  21393636.232 8                 111402273.601 8
C34  23701033.608 7                 123417501.840 7
C35  23665379.975 7                 123231840.719 7
C39  39070439.475 7                 203450022.136 7
C44  21511391.853 8                 112015459.688 8
E05  22743589.050 8  22743591.967 9 119518366.399 8  90414881.641 9
E06  26009332.809 7  26009336.510 8 136679962.936 7 103397517.528 8
E09  24737297.389 7  24737299.756 9 129995373.328 7  98340665.144 9
E15  26447966.835 7  26447971.779 8 138985001.078 7 105141270.533 8
E27  27672473.080 5  27672477.924 7 145419826.021 5 110009174.784 7
E34  23305094.276 8  23305096.712 9 122469098.046 8  92647085.516 9
E36  24602986.151 8  24602989.462 9 129289568.964 8  97806687.722 9
G01  20013947.753 8                  20013950.809 8  20013952.769 9 105173998.737 8                  81953782.212 8  78539046.189 9
G02  21055235.878 7  21055237.358 6                                 110646006.329 7  86217570.513 6                
G03  20444749.574 8                  20444755.494 7  20444753.751 8 107437875.210 8                  83718001.292 7  80229779.533 8
G04  23936972.487 6                  23936981.380 7  23936983.059 7 125789639.263 6                  98017933.718 7  93933868.595 7
G08  24208338.512 6                  24208349.018 6  24208347.450 8 127215666.102 6                  99129133.457 6  94998739.937 8
G17  22636141.299 7                  22636145.108 6                 118953720.184 7                  92691388.165 6
G28  23695864.327 7                  23695870.131 7  23695872.880 8 124522605.444 7                  97030802.096 7  92987861.266 8
G31  24279053.721 6                  24279061.793 6                 127587481.490 6                  99418701.329 6
G32  23042046.848 7                  23042053.552 7  23042050.373 7 121086769.801 7                  94353151.684 7  90421818.406 7
R02  20600992.735 8  20600995.274 7 109930839.523 8  85501595.627 7
R03  19190912.025 8  19190914.151 7 102730451.366 8  79901595.410 7
R04  22080453.044 8  22080456.902 7 118239818.054 8  91964326.645 7
R17  21008829.776 8  21008833.136 7 112422486.671 8  87439723.988 7
R18  18978914.957 8  18978916.203 7 101310731.245 8  78797266.730 7
R19  21160980.548 8  21160982.231 7 113196976.439 8  88042095.596 7
> 2025 06 15 12 57 45.0000000  0 35
C05  39052044.986 6  39052043.090 7 203354245.545 6 157246397.354 7
C06  39160788.710 6  39160785.367 7 203920507.858 6 157684273.328 7
C09  40020059.628 6  40020058.536 7 208394961.573 6 161144209.119 7
C12  22209257.807 8  22209254.449 8 115649436.742 8  89427578.789 8
C13  40425863.781 5                 210508033.73915
C16  39555293.240 6  39555295.931 7 205974797.286 6 159272780.866 7
C19  23423469.563 7                 121972151.068 7
C21  24677201.251 7                 128500658.284 7
C22  21391488.984 8                 111391092.030 8
C34  23693637.968 7                 123378991.942 7
C35  23673693.809 7                 123275131.123 7
C39  39067807.898 7                 203436319.517 7
C44  21512793.059 8                 112022756.461 8
E05  22737838.490 8  22737841.358 9 119488146.720 8  90392020.672 9
E06  26015138.471 7  26015142.536 8 136710473.330 7 103420598.429 8
E09  24739963.216 7  24739965.776 9 130009383.288 7  98351263.580 9
E15  26440425.171 7  26440430.261 8 138945370.722 7 105111290.445 8
E27  27675665.075 6  27675668.354 7 145436591.567 6 110021857.712 7
E34  23302879.889 8  23302882.091 9 122457460.296 8  92638281.636 9
E36  24607991.122 8  24607994.593 9 129315871.040 8  97826585.061 9
G01  20012678.933 8                  20012681.877 8  20012683.645 9 105167331.089 8                  81948586.628 8  78534067.098 9
G02  21059296.326 7  21059297.394 6                                 110667341.703 7  86234195.456 6                
G03  20439472.470 8                  20439478.722 7  20439476.657 8 107410145.028 8                  83696393.374 7  80209071.908 8
G04  23925875.449 6                  23925883.923 7  23925885.093 7 125731323.856 6                  97972493.245 7  93890321.474 7
G08  24218699.562 6                  24218710.639 6  24218709.549 8 127270117.480 6                  99171562.949 6  95039401.506 8
G17  22631195.192 7                  22631198.768 7                 118927728.544 7                  92671134.944 7
G28  23689986.842 7                  23689992.174 7  23689995.098 8 124491718.681 7                  97006734.541 7  92964796.534 8
G31  24269713.829 6                  24269721.245 6                 127538398.709 6                  99380455.072 6
G32  23049293.180 7                  23049299.698 7  23049296.782 7 121124849.736 7                  94382824.335 7  90450254.719 7
R02  20609178.107 8  20609180.634 7 109974517.569 8  85535567.422 7
R03  19187531.382 8  19187533.336 8 102712354.393 8  79887519.987 8
R04  22069131.654 7  22069136.295 7 118179197.293 7  91917177.236 7
R17  21018347.682 8  21018351.203 7 112473421.463 8  87479339.889 7
R18  18979132.924 8  18979134.357 8 101311895.104 8  78798171.950 8
R19  21151017.681 8  21151018.494 7 113143680.566 8  88000643.302 7
> 2025 06 15 12 58  0.0000000  0 35
C05  39051769.202 6  39051767.642 7 203352810.645 6 157245287.801 7
C06  39156561.519 6  39156558.039 7 203898493.731 6 157667250.627 7
C09  40014963.648 6  40014962.151 7 208368424.859 6 161123689.282 7
C12  22205553.154 7  22205550.132 8 115630146.091 7  89412662.036 8
C13  40427941.626 5  40427945.695 4 210518873.559 5 162786586.05414
C16  39551505.234 6  39551508.335 7 205955073.488 6 159257529.157 7
C19  23430022.160 8                 122006270.816 8
C21  24668291.637 7                 128454261.876 7
C22  21389360.466 8                 111380008.972 8
C34  23686255.581 7                 123340548.081 7
C35  23682017.468 7                 123318476.188 7
C39  39065183.644 7                 203422654.212 7
C44  21514215.865 8                 112030166.403 8
E05  22732102.802 8  22732105.849 9 119458006.543 8  90369219.849 9
E06  26020956.850 7  26020960.621 8 136741047.315 7 103443727.431 8
E09  24742646.972 7  24742649.397 9 130023485.410 7  98361931.734 9
E15  26432885.624 7  26432890.163 8 138905747.959 7 105081316.129 8
E27  27678870.221 6  27678875.850 7 145453445.112 6 110034607.299 7
E34  23300675.927 8  23300678.535 9 122445880.447 8  92629521.557 9
E36  24613005.801 8  24613008.969 9 129342221.716 8  97846519.149 9
G01  20011430.433 8                  20011433.483 8  20011434.979 9 105160769.517 8                  81943473.702 8  78529167.221 9
G02  21063372.060 7  21063373.766 6                                 110688763.445 7  86250887.709 6                
G03  20434212.260 8                  20434218.021 7  20434216.276 8 107382501.333 8                  83674852.870 7  80188428.923 8
G04  23914782.511 6                  23914789.874 7  23914791.726 7 125673027.075 6                  97927067.305 7  93846788.289 7
G08  24229062.862 6                  24229073.228 6  24229071.346 8 127324570.875 6                  99213994.067 6  95080064.652 8
G17  22626270.975 7                  22626273.867 6                 118901849.025 7                  92650969.162 6
G28  23684128.783 7                  23684134.100 7  23684137.054 8 124460933.307 7                  96982745.970 7  92941807.514 8
G31  24260380.882 6                  24260387.735 6                 127489353.904 6                  99342238.468 6
G32  23056554.863 7                  23056560.909 7  23056558.002 7 121163007.756 7                  94412557.843 7  90478749.338 7
R02  20617381.307 8  20617383.789 7 110018292.042 8  85569614.208 7
R03  19184181.007 8  19184182.901 7 102694420.077 8  79873571.081 7
R04  22057823.477 7  22057828.279 7 118118644.065 7  91870080.337 7
R17  21027885.220 8  21027887.952 7 112524455.280 8  87519032.830 7
R18  18979381.916 8  18979383.604 8 101313226.157 8  78799207.200 8
R19  21141068.048 8  21141069.127 7 113090457.529 8  87959247.579 7
> 2025 06 15 12 58 15.0000000  0 34
C05  39051492.133 6  39051490.447 7 203351368.156 6 157244172.374 7
C06  39152338.406 6  39152335.467 7 203876506.208 6 157650248.485 7
C09  40009869.956 6  40009868.892 7 208341903.068 6 161103180.996 7
C12  22201867.762 7  22201864.456 8 115610954.066 7  89397821.565 8
C16  39547722.904 6  39547725.916 7 205935377.982 6 159242299.334 7
C19  23436583.989 7                 122040441.325 7
C21  24659389.213 7                 128407904.780 7
C22  21387250.421 8                 111369021.899 8
C34  23678884.903 7                 123302168.047 7
C35  23690351.793 7                 123361873.251 7
C39  39062566.218 7                 203409023.774 7
C44  21515660.128 8                 112037687.102 8
E05  22726382.072 8  22726385.042 9 119427943.492 8  90346477.385 9
E06  26026786.316 7  26026790.178 8 136771682.186 7 103466902.502 8
E09  24745347.655 7  24745350.002 9 130037677.063 7  98372667.629 9
E15  26425346.405 7  26425351.161 8 138866130.453 7 105051345.765 8
E27  27682095.203 5  27682099.146 7 145470384.091 5 110047421.564 7
E34  23298483.038 8  23298485.536 9 122434356.126 8  92620803.479 9
E36  24618028.783 8  24618032.083 9 129368618.444 8  97866488.099 9
G01  20010201.726 7                  20010204.237 8  20010206.029 9 105154311.632 7                  81938441.585 8  78524344.770 9
G02  21067464.838 7  21067466.127 6                                 110710268.923 7  86267645.214 6                
G03  20428967.781 8                  20428973.603 7  20428972.023 8 107354941.778 8                  83653377.886 7  80167848.732 8
G04  23903692.322 6                  23903699.321 6  23903701.128 7 125614746.754 6                  97881654.145 6  93803267.409 7
G08  24239424.969 6                  24239435.533 6  24239433.217 8 127379023.620 6                  99256424.661 6  95120727.289 8
