     3.04           OBSERVATION DATA    Mixed(MIXED)        RINEX VERSION / TYPE
cnvtToRINEX 3.14.0  convertToRINEX OPR  20250615 162123 UTC PGM / RUN BY / DATE 
----------------------------------------------------------- COMMENT             
1003                                                        MARKER NAME         
1003                                                        MARKER NUMBER       
GEODETIC                                                    MARKER TYPE         
GNSS Observer       Trimble                                 OBSERVER / AGENCY   
6337S22116          Geo Explorer 3      6.26                REC # / TYPE / VERS 
                    UNKNOWN EXT     NONE                    ANT # / TYPE        
  3915165.3230  1191104.1990  4876592.5147                  APPROX POSITION XYZ 
        1.3030        0.0000        0.0000                  ANTENNA: DELTA H/E/N
R    4 C1C C2C L1C L2C                                      SYS / # / OBS TYPES 
C    4 C2I C7I L2I L7I                                      SYS / # / OBS TYPES 
G    8 C1C C2W C2X C5X L1C L2W L2X L5X                      SYS / # / OBS TYPES 
E    4 C1X C8X L1X L8X                                      SYS / # / OBS TYPES 
    15.000                                                  INTERVAL            
  2025     6    15     9    49    0.0000000     GPS         TIME OF FIRST OBS   
  2025     6    15    10    19    0.0000000     GPS         TIME OF LAST OBS    
     0                                                      RCV CLOCK OFFS APPL 
  7 R01  1 R02 -4 R08  6 R15  0 R16 -1 R17  4 R24  2        GLONASS SLOT / FRQ #
R L2C -0.25000                                              SYS / PHASE SHIFT   
G L2X -0.25000                                              SYS / PHASE SHIFT   
    18                                                      LEAP SECONDS        
    32                                                      # OF SATELLITES     
   C13    26    16    25    15                              PRN / # OF OBS      
   C19   121     0   121     0                              PRN / # OF OBS      
   C20   121     0   121     0                              PRN / # OF OBS      
   C24    51     0    50     0                              PRN / # OF OBS      
   C26     3     0     3     0                              PRN / # OF OBS      
   C29   112     0   112     0                              PRN / # OF OBS      
   C35   121     0   121     0                              PRN / # OF OBS      
   C44    90     0    88     0                              PRN / # OF OBS      
   C47    44     0    44     0                              PRN / # OF OBS      
   E02   121   121   121   121                              PRN / # OF OBS      
   E04    49    55    47    55                              PRN / # OF OBS      
   E10    28    55    26    52                              PRN / # OF OBS      
   E11   121   121   121   121                              PRN / # OF OBS      
   E25    85    80    84    80                              PRN / # OF OBS      
   E30   121   121   121   121                              PRN / # OF OBS      
   E34    79    77    78    77                              PRN / # OF OBS      
   E36   121   121   121   121                              PRN / # OF OBS      
   G01    17     0    15    15    15     0    15    13      PRN / # OF OBS      
   G02   121   121     0     0   121   121     0     0      PRN / # OF OBS      
   G08   121     0   121   121   121     0   121   121      PRN / # OF OBS      
   G10   121     0   121   121   121     0   121   121      PRN / # OF OBS      
   G16    44     0     0     0    35     0     0     0      PRN / # OF OBS      
   G23    31     0    26    39    29     0    26    38      PRN / # OF OBS      
   G27   121     0   121   121   121     0   121   121      PRN / # OF OBS      
   G32    19     0     6     2    14     0     6     2      PRN / # OF OBS      
   R01   121     0   121     0                              PRN / # OF OBS      
   R02   121   121   121   121                              PRN / # OF OBS      
   R08    57    17    48    16                              PRN / # OF OBS      
   R15   101    81    97    72                              PRN / # OF OBS      
   R16   103    96   102    94                              PRN / # OF OBS      
   R17   121   121   121   121                              PRN / # OF OBS      
   R24   121   121   121   121                              PRN / # OF OBS      
DBHZ                                                        SIGNAL STRENGTH UNIT
                                                            END OF HEADER       
>                              2  1
              *** Start of Kinematic Data ***               COMMENT             
> 2025 06 15 09 49  0.0000000  0 23
C13  38349186.437 5  38349185.077 4 199694297.54815 154416257.65014
C19  23755321.511 8                 123700189.37418
C20  22785278.725 7                 118648900.42817
C24  25298866.465 5                 131737788.00815
C29  22249778.203 7                 115860439.35417
C35  21997493.613 8                 114546720.37818
E02  24527714.905 7  24527717.424 9 128894012.77317  97507489.66519
E10  26190048.367 5  26190053.687 5 137629730.76015 104115912.33715
E11  24202127.904 7  24202126.614 8 127183037.55617  96213135.98518
E25  26410702.455 5  26410706.339 7 138789457.69215 104993122.70217
E30  26864402.127 6  26864406.021 7 141173381.79216 106796759.76517
E36  23605387.967 8  23605390.409 9 124047148.96418  93840873.08119
G02  22407600.263 7  22407602.281 5                                 117752729.99917  91755385.93615                
G08  20504337.324 8                  20504342.658 8  20504340.799 9 107751018.21618                  83961971.90918  80463584.22419
G10  20701451.539 8                  20701456.791 8  20701453.420 8 108786856.25718                  84769007.25618  81236990.56318
G16  23763027.599 6                                                 124875500.48516                                
G27  20216479.122 8                  20216484.832 8  20216481.519 8 106238311.67518                  82783124.15618  79333813.97918
R01  20101868.924 5                 107455976.47215
R02  22804284.633 7  22804292.130 6 121688045.19817  94646286.51316
R08  21476596.459 5  21476603.060 5 115006318.00615  89449280.12615
R15  21601020.587 6  21601026.395 7 115429321.72816  89778222.58117
R17  20494904.008 8  20494906.703 8 109672366.86818  85300736.16118
R24  19505458.236 8  19505460.091 7 104304450.33718  81125650.01317
> 2025 06 15 09 49 15.0000000  0 25
C13  38351823.099 5  38351824.616 4 199708019.932 5 154426868.774 4
C19  23746863.374 7                 123656149.417 7
C20  22784578.807 6                 118645274.646 6
C24  25299694.000 5                 131741948.466 5
C29  22254713.871 7                 115886138.721 7
C35  21993137.198 8                 114524037.128 8
E02  24530657.314 8  24530659.262 9 128909471.993 8  97519184.464 9
E10  26196461.489 5  26196461.927 5 137663412.118 5 104141392.035 5
E11  24206172.295 7  24206171.125 8 127204291.298 7  96229214.286 8
E25  26419339.593 5  26419339.837 7 138834823.210 5 105027441.235 7
E30  26859456.101 7  26859460.149 7 141147393.409 7 106777099.745 7
E36  23602703.909 8  23602706.627 9 124033045.291 8  93830203.727 9
G02  22400729.717 7  22400731.109 5                                 117716621.382 7  91727249.382 5                
G08  20500353.442 8                  20500359.060 7  20500356.825 9 107730083.552 8                  83945659.231 7  80447951.232 9
G10  20701653.262 8                  20701659.035 8  20701655.086 8 108787916.977 8                  84769833.779 8  81237782.649 8
G16  23773460.819 5                                                 124930332.313 5                                
G23  22186757.154 5                                  22186762.045 6 116592123.11015                                  87065632.902 6
G27  20219873.438 8                  20219878.061 8  20219875.314 8 106256144.491 8                  82797019.886 8  79347130.700 8
R01  20096268.426 6                 107426038.351 6
R02  22791524.550 7  22791530.191 6 121619946.611 7  94593321.056 6
R08  21483036.507 5                 115040791.910 5
R15  21606950.508 6  21606956.012 7 115461012.938 6  89802871.234 7
R16  22367047.188 5  22367018.954 4 119480566.51815
R17  20487773.243 7  20487775.390 8 109634209.168 7  85271057.974 8
R24  19507912.525 7  19507915.661 7 104317578.782 7  81135861.056 7
>                              3  5
              *** Start of Occupation ***                   COMMENT             
1003                                                        MARKER NAME         
1003                                                        MARKER NUMBER       
  3915165.3230  1191104.1990  4876592.5147                  APPROX POSITION XYZ 
        1.3030        0.0000        0.0000                  ANTENNA: DELTA H/E/N
> 2025 06 15 09 49 30.0000000  0 23
C13  38354455.024 4  38354465.045 4 199721734.45514 154437473.75814
C19  23738417.453 7                 123612169.251 7
C20  22783904.978 6                 118641767.430 6
C29  22259659.874 7                 115911890.072 7
C35  21988790.505 8                 114501405.238 8
E02  24533615.902 7  24533617.794 9 128925019.397 7  97530945.969 9
E10  26202870.054 6  26202880.454 6 137697094.236 6 104166872.74916
E11  24210221.228 7  24210220.018 8 127225569.448 7  96245311.063 8
E25  26427980.634 5  26427975.204 7 138880201.27515 105061769.345 7
E30  26854525.280 7  26854528.181 7 141121478.936 7 106757495.593 7
E36  23600027.447 8  23600029.933 9 124018978.377 8  93819562.203 9
G02  22393864.935 7  22393866.121 5                                 117680545.850 7  91699138.530 5                
G08  20496389.302 8                  20496395.475 8  20496391.937 9 107709251.981 8                  83929426.870 8  80432395.198 9
G10  20701877.527 8                  20701882.230 8  20701879.016 8 108789092.666 8                  84770749.902 8  81238660.603 8
G16  23783897.063 5                                                 124985174.53115                                
G23  22194375.390 4                  22194381.046 6  22194381.067 6 116632159.549 4                  90882256.72616  87095530.296 6
G27  20223288.159 8                  20223293.232 8  20223290.526 8 106274089.959 8                  82811003.352 8  79360531.531 8
R01  20090700.534 6                 107396274.572 6
R02  22778766.723 7  22778773.195 6 121551872.655 7  94540374.756 6
R08  21489521.584 4                                
R15  21612914.974 7  21612915.711 6 115492854.093 7  89827636.476 6
R17  20480651.290 8  20480653.643 7 109596098.743 8  85241416.578 7
R24  19510384.507 8  19510387.258 7 104330794.867 8  81146140.224 7
> 2025 06 15 09 49 45.0000000  0 21
C19  23729983.230 8                 123568248.491 8
C20  22783255.120 6                 118638378.441 6
C24  25301371.096 5                 131750850.41615
C29  22264613.935 7                 115937692.824 7
C35  21984454.032 8                 114478824.167 8
E02  24536590.507 8  24536592.755 9 128940654.293 8  97542773.652 9
E10  26209279.068 6  26209289.979 6 137730776.423 6 104192353.143 6
E11  24214274.723 7  24214273.584 8 127246871.406 7  96261425.827 8
E25  26436604.169 4  26436612.918 6 138925316.18314 105096106.438 6
E30  26849607.188 7  26849610.766 7 141095637.844 7 106737947.021 7
E36  23597357.431 8  23597359.985 9 124004947.635 8  93808948.031 9
G02  22387005.998 7  22387007.251 5                                 117644503.040 7  91671053.243 5                
G08  20492444.952 8                  20492450.960 8  20492447.195 9 107688523.088 8                  83913274.454 8  80416915.763 9
G10  20702122.651 8                  20702128.144 8  20702124.164 9 108790382.729 8                  84771755.149 8  81239623.963 9
G16  23794335.790 5                                                 125040026.714 5                                
G27  20226724.401 8                  20226729.570 8  20226726.527 8 106292147.447 8                  82825074.134 8  79374016.025 8
R01  20085165.247 6                 107366684.412 6
R02  22766012.580 7  22766019.641 6 121483823.233 7  94487447.668 6
R15  21618897.559 7  21618902.002 7 115524844.046 7  89852517.495 7
R17  20473537.991 8  20473540.678 8 109558035.465 8  85211811.765 8
R24  19512872.270 8  19512874.428 7 104344097.636 8  81156486.792 7
> 2025 06 15 09 50  0.0000000  0 24
C13  38359725.048 5                 199749141.05215
C19  23721559.877 7                 123524389.056 7
C20  22782626.407 6                 118635109.001 6
C24  25302180.263 6                 131755325.83116
C29  22269579.372 7                 115963548.427 7
C35  21980127.562 8                 114456295.633 8
E02  24539583.384 7  24539584.838 9 128956378.153 7  97554668.660 9
E10  26215689.565 6  26215690.994 5 137764460.358 6 104217834.27615
E11  24218333.056 7  24218332.013 7 127268198.667 7  96277559.769 7
E25  26445252.268 5  26445252.786 6 138970719.34815 105130453.467 6
E30  26844703.509 6  26844707.859 7 141069871.958 6 106718455.260 7
E36  23594694.217 8  23594697.323 9 123990954.651 8  93798362.418 9
G02  22380153.729 7  22380154.957 5                                 117608494.451 7  91642994.661 5                
G08  20488519.768 7                  20488525.882 8  20488523.090 9 107667898.570 7                  83897203.385 8  80401514.344 9
G10  20702390.361 8                  20702395.516 8  20702391.856 8 108791788.611 8                  84772850.667 8  81240673.802 8
G16  23804776.166 5                                                 125094889.94715                                
G27  20230181.883 8                  20230187.347 8  20230184.333 8 106310318.488 8                  82839233.346 8  79387585.293 8
R01  20079662.555 6                 107337269.998 6
R02  22753265.888 7  22753272.403 6 121415800.358 7  94434541.054 6
R08  21502521.895 5  21502529.841 5 115145131.38615  89557249.73815
R15  21624914.156 6  21624916.321 7 115556983.890 6  89877515.235 7
R16  22353315.098 6  22353311.017 5 119407311.93816  92872397.927 5
R17  20466434.180 8  20466436.586 7 109520020.995 8  85182244.987 7
R24  19515376.329 8  19515378.654 7 104357488.676 8  81166902.025 7
> 2025 06 15 09 50 15.0000000  0 22
C13  38362344.069 4                 199762830.60714
C19  23713147.827 7                 123480589.168 7
C20  22782021.833 7                 118631957.248 7
C24  25303057.122 6                 131759901.630 6
C29  22274554.811 7                 115989454.850 7
C35  21975811.525 8                 114433817.844 8
E02  24542592.373 8  24542593.694 9 128972188.854 8  97566629.352 9
E10  26222099.010 6  26222101.600 5 137798143.861 6 104243315.680 5
E11  24222396.483 7  24222394.738 7 127289549.079 7  96293711.226 7
E30  26839813.538 6  26839819.050 7 141044179.378 6 106699018.953 7
E36  23592038.351 8  23592041.289 9 123976997.364 8  93787803.839 9
G02  22373306.859 7  22373309.523 5                                 117572518.263 7  91614961.292 5                
G08  20484615.106 7                  20484620.598 8  20484618.390 9 107647376.646 7                  83881212.251 8  80386189.561 9
G10  20702679.549 8                  20702684.841 8  20702681.333 8 108793308.220 8                  84774034.765 8  81241808.577 8
G16  23815218.155 6                                                 125149761.534 6                                
G27  20233660.852 8                  20233666.492 8  20233663.732 8 106328600.923 8                  82853479.414 8  79401237.760 8
R01  20074192.421 7                 107308029.704 7
R02  22740522.834 7  22740529.405 6 121347802.727 7  94381654.112 6
R15  21630954.241 5  21630959.048 6 115589271.255 5  89902627.534 6
R16  22348805.361 5                 119383233.46115
R17  20459338.849 8  20459341.111 7 109482053.278 8  85152714.561 7
R24  19517896.912 8  19517899.089 7 104370965.985 8  81177384.347 7
> 2025 06 15 09 50 30.0000000  0 23
C19  23704749.707 7                 123436850.792 7
C20  22781439.305 7                 118628924.970 7
C24  25303949.765 6                 131764582.073 6
C29  22279540.045 7                 116015413.822 7
C35  21971504.987 8                 114411392.571 8
C47  24056933.006 5                 125270980.35515
E02  24545617.545 8  24545619.275 9 128988088.088 8  97578656.998 9
E10  26228508.626 6  26228512.348 6 137831828.760 6 104268797.985 6
E11  24226463.771 7  24226462.288 7 127310924.382 7  96309881.488 7
E30  26834938.957 6  26834944.787 6 141018562.051 6 106679639.601 6
E36  23589389.811 8  23589392.336 9 123963077.551 8  93777273.594 9
G02  22366467.512 7  22366469.887 5                                 117536576.226 7  91586954.542 5                
G08  20480728.996 8                  20480735.290 7  20480732.904 9 107626959.224 8                  83865302.598 7  80370942.815 9
G10  20702990.235 8                  20702996.140 8  20702992.135 8 108794943.229 8                  84775308.807 8  81243029.518 8
G16  23825662.034 5                                                 125204643.300 5                                
G27  20237161.300 8                  20237167.113 8  20237164.410 9 106346996.475 8                  82867813.581 8  79414974.680 9
R01  20068755.461 6                 107278965.453 6
R02  22727786.715 7  22727792.144 6 121279832.270 7  94328788.228 6
R08  21515684.313 5                 115215433.42915
R15  21637023.575 6  21637029.772 7 115621707.774 6  89927855.809 7
R16  22344333.949 5  22344326.469 5                  92835074.05815
R17  20452253.219 8  20452255.734 8 109444134.468 8  85123222.103 8
R24  19520434.029 8  19520435.829 7 104384531.335 8  81187935.200 7
> 2025 06 15 09 50 45.0000000  0 22
C19  23696360.788 7                 123393171.761 7
C20  22780878.946 7                 118626009.556 7
C24  25304869.238 6                 131769364.397 6
C29  22284534.615 7                 116041422.794 7
C35  21967208.002 8                 114389017.487 8
E02  24548658.843 8  24548661.181 9 129004073.213 8  97590749.637 9
E10  26234917.678 6  26234922.361 6 137865512.332 6 104294279.328 6
E11  24230535.661 7  24230534.361 8 127332322.024 7  96326068.676 8
E30  26830080.211 6  26830083.580 6 140993017.589 6 106660315.412 6
E36  23586747.817 8  23586749.974 9 123949192.714 8  93766769.800 9
G02  22359634.454 7  22359636.289 5                                 117500665.796 7  91558972.482 5                
G08  20476862.973 7                  20476869.307 8  20476866.636 9 107606644.084 7                  83849472.621 8  80355772.402 9
G10  20703322.832 8                  20703328.631 8  20703324.803 8 108796690.996 8                  84776670.720 8  81244334.703 8
G16  23836107.479 5                                                 125259532.01715                                
G23                                                  22232655.304 5                                                  87245730.453 5
G27  20240683.022 8                  20240688.224 8  20240686.139 9 106365502.508 8                  82882233.861 8  79428794.091 9
R01  20063351.291 6                 107250075.144 6
R02  22715054.011 7  22715059.863 6 121211887.248 7  94275942.234 6
R15  21643124.965 6  21643126.657 7 115654289.921 6  89953197.425 7
R16  22339881.706 5  22339890.656 5 119335598.94915  92816613.953 5
R17  20445175.621 8  20445178.418 8 109406262.066 8  85093765.854 8
R24  19522986.756 8  19522988.864 7 104398182.168 8  81198552.526 7
> 2025 06 15 09 51  0.0000000  0 23
C19  23687985.247 7                 123349556.533 7
C20  22780342.637 7                 118623215.267 7
C24  25305809.299 5                 131774252.707 5
C29  22289539.807 7                 116067485.941 7
C35  21962921.400 8                 114366696.923 8
E02  24551717.596 7  24551720.233 9 129020148.383 7  97602910.376 9
E10  26241329.602 6  26241332.278 5 137899198.843 6 104319762.960 5
E11  24234612.319 7  24234611.393 8 127353746.153 7  96342275.859 8
E30  26825233.849 6  26825236.067 6 140967550.441 6 106641049.766 6
E36  23584112.631 8  23584115.118 9 123935347.056 8  93756295.656 9
G02  22352806.301 7  22352809.682 5                                 117464791.494 7  91531018.542 5                
G08  20473017.762 7                  20473023.312 7  20473020.921 9 107586435.554 7                  83833725.704 7  80340681.634 9
G10  20703678.304 8                  20703683.707 8  20703680.165 9 108798555.730 8                  84778123.770 8  81245727.194 9
G16  23846555.697 5                                                                                                
G23                                  22240371.663 5  22240347.797 5                                  91070492.25515  87275912.974 5
G27  20244226.639 8                  20244231.804 8  20244229.356 9 106384123.192 8                  82896743.494 8  79442699.141 9
R01  20057979.617 7                 107221363.267 7
R02  22702326.537 7  22702330.996 6 121143972.422 7  94223119.682 6
R08  21528898.673 5  21528902.366 4 115286349.76315
R15  21649247.508 6  21649252.389 7 115687021.713 6  89978655.555 7
R16  22335468.783 6  22335475.047 5 119312039.640 6  92798290.115 5
R17  20438108.029 8  20438110.498 8 109368440.656 8  85064349.205 8
R24  19525556.031 8  19525558.557 7 104411922.610 8  81209239.522 7
> 2025 06 15 09 51 15.0000000  0 23
C19  23679620.598 7                 123306002.868 7
C20  22779828.667 7                 118620539.541 7
C24  25306764.461 4                 131779244.430 4
C29  22294554.933 7                 116093600.612 7
C35  21958645.025 8                 114344428.473 8
E02  24554793.538 7  24554795.965 9 129036310.925 7  97615137.206 9
E10  26247739.165 6  26247741.974 5 137932885.637 6 104345246.831 5
E11  24238693.743 7  24238693.058 8 127375194.139 7  96358501.115 8
E25  26488509.228 4  26488484.577 6 139198163.39514 105302318.938 6
E30  26820402.270 6  26820403.578 6 140942158.150 6 106621840.704 6
E36  23581484.756 8  23581487.362 9 123921538.016 8  93745849.213 9
G02  22345985.645 7  22345988.801 6                                 117428950.881 7  91503090.794 6                
G08  20469192.308 8                  20469198.046 7  20469195.103 9 107566331.303 8                  83818060.087 7  80325668.732 9
G10  20704054.852 8                  20704060.252 8  20704056.525 8 108800534.749 8                  84779665.883 8  81247205.031 8
G23  22248046.905 4                  22248059.276 5  22248051.916 5 116914284.87214                  91102035.727 5  87306142.066 5
G27  20247791.077 8                  20247796.786 8  20247793.946 8 106402855.917 8                  82911340.412 8  79456687.845 8
R01  20052641.716 7                 107192827.664 7
R02  22689604.286 7  22689607.968 6 121076085.721 7  94170318.962 6
R08  21535564.550 5                 115322036.236 5
R15  21655402.713 6  21655404.942 7 115719900.320 6  90004227.757 7
R16  22331089.492 5  22331092.761 5 119288652.720 5  92780100.50615
R17  20431048.846 8  20431051.769 7 109330667.803 8  85034970.354 7
R24  19528141.912 8  19528144.368 7 104425750.396 8  81219994.500 7
> 2025 06 15 09 51 30.0000000  0 22
C19  23671268.504 7                 123262510.140 7
C20  22779337.486 7                 118617981.470 7
C29  22299580.571 7                 116119765.951 7
C35  21954378.565 8                 114322211.406 8
E02  24557886.202 8  24557888.154 9 129052559.864 8  97627429.367 9
E10  26254150.401 5  26254151.780 5 137966571.858 5 104370730.27015
E11  24242779.979 7  24242778.758 8 127396665.073 7  96374743.720 8
E30  26815583.601 7  26815585.846 6 140916840.144 7 106602687.826 6
E36  23578863.812 8  23578866.457 9 123907764.738 8  93735429.818 9
G02  22339174.520 7  22339174.303 5                                 117393142.944 7  91475188.516 5                
G08  20465386.029 8                  20465392.395 7  20465389.178 9 107546330.689 8                  83802475.176 7  80310733.190 9
G10  20704452.949 8                  20704457.836 8  20704454.215 8 108802627.090 8                  84781296.256 8  81248767.491 8
G16  23867450.892 5                                                                                                
G23  22255762.039 3                  22255765.951 5  22255765.525 5                                  91133626.702 5  87336416.799 5
G27  20251377.078 8                  20251382.697 8  20251380.163 8 106421699.701 8                  82926023.861 8  79470759.489 8
R01  20047336.029 7                 107164467.568 7
R02  22676886.903 7  22676892.566 6 121008226.662 7  94117539.843 6
R08  21542258.028 5                 115357870.974 5
R15  21661580.760 5  21661584.381 7 115752924.282 5  90029913.070 7
R16  22326743.549 6  22326750.655 6 119265438.225 6  92762044.498 6
R17  20423999.069 8  20424000.985 7 109292942.686 8  85005628.599 7
R24  19530744.199 8  19530746.142 7 104439664.364 8  81230816.421 7
> 2025 06 15 09 51 45.0000000  0 24
C19  23662928.907 7                 123219083.023 7
C20  22778870.220 7                 118615545.443 7
C26  25792314.558 5                 134307244.72315
C29  22304615.259 7                 116145986.431 7
C35  21950122.247 8                 114300050.286 8
C47  24093281.257 5                 125460063.95015
E02  24560995.540 8  24560997.604 9 129068899.547 8  97639790.211 9
E10  26260560.837 5  26260563.471 6 138000261.880 5 104396216.54316
E11  24246870.770 7  24246869.663 8 127418163.310 7  96391006.984 8
E30  26810780.368 6  26810783.189 7 140891600.955 6 106583594.597 7
E36  23576250.483 8  23576253.233 9 123894031.645 8  93725040.833 9
G02  22332365.938 7  22332367.523 5                                 117357372.309 7  91447315.313 5                
G08  20461600.545 8                  20461607.139 8  20461603.945 9 107526438.333 8                  83786974.642 8  80295878.511 9
G10  20704873.548 8                  20704878.587 8  20704874.293 8 108804837.150 8                  84783018.330 8  81250417.840 8
G16  23877904.642 4                                                 125479189.00414                                
G23  22263494.830 5                  22263494.393 6  22263487.960 5 116995434.90915                  91165268.777 6  87366740.301 5
G27  20254985.041 8                  20254990.341 8  20254987.690 8 106440658.933 8                  82940797.298 8  79484917.337 8
R01  20042064.453 7                 107136288.011 7
R02  22664176.282 7  22664182.831 6 120940400.271 7  94064786.061 6
R08  21548975.903 5                 115393858.906 5
R15  21667791.585 5  21667791.918 6 115786098.062 5  90055714.675 6
R16  22322432.019 6  22322434.800 5 119242400.338 6  92744126.382 5
R17  20416960.065 8  20416961.529 7 109255270.244 8  84976327.785 7
R24  19533363.147 8  19533364.912 7 104453669.139 8  81241709.032 7
> 2025 06 15 09 52  0.0000000  0 23
C19  23654602.213 7                 123175724.960 7
C20  22778426.248 7                 118613234.665 7
C24  25309782.855 5                 131794846.09715
C29  22309660.747 7                 116172264.982 7
C35  21945878.046 8                 114277948.276 8
E02  24564122.575 8  24564124.724 9 129085332.962 8  97652221.979 9
E10  26266975.334 5  26266977.045 6 138033958.673 5 104421708.03616
E11  24250967.259 7  24250966.412 8 127439691.984 7  96407293.263 8
E25  26514448.755 5  26514451.432 5 139334604.37415 105405548.01415
E30  26805994.128 6  26805996.249 7 140866443.961 6 106564563.477 7
E36  23573645.729 8  23573648.314 9 123880341.884 8  93714684.619 9
G02  22325566.649 7  22325568.075 5                                 117321642.174 7  91419473.639 5                
G08  20457836.364 8                  20457843.152 8  20457839.872 9 107506657.512 8                  83771561.041 8  80281107.143 9
G10  20705317.001 8                  20705322.170 8  20705318.788 8 108807167.882 8                  84784834.506 8  81252158.333 8
G16  23888365.512 4                                                                                                
G23  22271238.947 4                  22271233.436 5  22271233.035 5 117036110.774 4                  91196963.982 5  87397114.844 5
G27  20258615.115 8                  20258620.835 8  20258617.617 8 106459736.664 8                  82955663.019 8  79499163.666 8
R01  20036827.056 7                 107108292.502 7
R02  22651472.894 7  22651478.441 7 120872610.478 7  94012060.752 7
R08  21555721.193 5                 115430002.091 5
R15  21674026.093 7  21674028.395 7 115819423.693 7  90081634.771 7
R17  20409929.796 8  20409932.106 8 109217653.531 8  84947070.385 8
R24  19535999.110 8  19536001.265 7 104467768.037 8  81252674.836 7
> 2025 06 15 09 52 15.0000000  0 22
C19  23646288.841 7                 123132433.955 7
C20  22778006.070 8                 118611046.850 8
C24  25310802.481 4                 131800001.57614
C29  22314718.727 7                 116198599.388 7
C35  21941644.479 8                 114255903.349 8
E02  24567267.542 8  24567269.077 9 129101857.866 8  97664722.942 9
E10  26273391.057 5  26273391.541 6 138067660.062 5 104447203.00516
E11  24255069.663 7  24255068.543 8 127461248.786 7  96423600.814 8
E25  26523107.103 5  26523112.596 4 139380120.927 5 105439980.849 4
E30  26801221.864 6  26801224.594 7 140841366.979 6 106545592.937 7
E36  23571048.308 8  23571051.126 9 123866693.245 8  93704359.509 9
G02  22318774.726 7  22318776.235 5                                 117285950.255 7  91391661.775 5                
G08  20454092.980 8                  20454099.434 7  20454096.232 9 107486986.223 8                  83756232.772 7  80266417.553 9
G10  20705782.869 8                  20705788.202 7  20705785.005 9 108809617.061 8                  84786742.956 7  81253987.256 9
G23  22278989.371 3                                  22278984.577 6 117076852.006 3                                  87427538.467 6
G27  20262267.735 8                  20262273.468 7  20262270.245 8 106478930.529 8                  82970619.271 7  79513496.752 8
R01  20031624.363 7                 107080479.123 7
R02  22638774.580 7  22638781.030 6 120804855.382 7  93959362.396 6
R15  21680291.316 7  21680293.970 6 115852899.057 7  90107671.197 6
R16  22313911.769 6                 119197050.61616
R17  20402910.449 8  20402912.514 8 109180090.711 8  84917854.844 8
R24  19538652.726 8  19538655.560 7 104481958.743 8  81263712.050 7
> 2025 06 15 09 52 30.0000000  0 21
C19  23637987.533 8                 123089206.743 8
C20  22777608.838 7                 118608978.522 7
C24  25311864.050 4                 131805523.90814
C29  22319786.580 7                 116224986.097 7
C35  21937421.223 8                 114233912.110 8
E02  24570428.771 8  24570430.082 9 129118470.565 8  97677290.320 9
E11  24259176.417 7  24259175.287 8 127482830.047 7  96439926.887 8
E30  26796465.219 6  26796467.452 7 140816366.823 6 106526680.430 7
E36  23568458.411 8  23568460.855 9 123853082.138 8  93694062.796 9
G02  22311989.182 7  22311990.885 6                                 117250293.210 7  91363877.123 6                
G08  20450369.859 8                  20450376.006 7  20450372.688 8 107467421.133 8                  83740987.234 7  80251807.251 8
G10  20706270.890 8                  20706276.373 8  20706272.555 8 108812181.010 8                  84788740.845 8  81255901.884 8
G23                                  22286759.108 5  22286750.238 6                                  91260499.85415  87458008.296 6
G27  20265941.566 8                  20265947.460 8  20265944.475 9 106498236.972 8                  82985663.237 8  79527913.901 9
R01  20026454.297 7                 107052844.372 7
R02  22626082.712 6  22626089.616 6 120737132.103 6  93906688.806 6
R08  21569315.247 5                                
R15  21686582.096 6  21686584.570 5 115886520.085 6  90133820.921 5
R16  22309697.003 6  22309723.059 5 119174546.276 6  92691339.35515
R17  20395900.091 8  20395902.980 8 109142578.165 8  84888678.469 8
R24  19541323.332 8  19541325.924 7 104496237.373 8  81274817.620 7
> 2025 06 15 09 52 45.0000000  0 22
C19  23629698.071 8                 123046043.493 8
C20  22777234.545 7                 118607029.479 7
C29  22324863.265 7                 116251424.905 7
C35  21933208.497 8                 114211974.571 8
C47  24122472.200 5                 125612010.67715
E02  24573606.181 8  24573608.006 9 129135170.797 8  97689923.903 9
E10                  26286218.543 6                 104498194.852 6
E11  24263287.769 7  24263286.680 8 127504435.550 7  96456271.288 8
E30  26791722.105 6  26791724.711 7 140791443.272 6 106507825.917 7
E36  23565875.004 8  23565877.622 9 123839508.418 8  93683794.345 9
G02  22305210.485 7  22305212.516 6                                 117214671.083 7  91336119.621 6                
G08  20446667.379 7                  20446673.012 7  20446669.908 9 107447962.206 7                  83725824.480 7  80237276.224 9
G10  20706780.196 8                  20706786.125 8  20706782.010 8 108814859.443 8                  84790827.907 8  81257902.014 8
G16  23919733.211 5                                                 125698823.61915                                
G23                                  22294527.991 4  22294526.779 6                                  91292342.39614  87488523.948 6
G27  20269637.161 8                  20269642.274 8  20269639.694 9 106517655.687 8                  83000794.674 8  79542414.854 9
R01  20021318.132 7                 107025388.458 7
R02  22613398.079 7  22613404.000 6 120669440.805 7  93854040.118 6
R15  21692903.168 7                 115920285.873 7
R16  22305516.334 6  22305516.817 5 119152216.813 6  92673972.08215
R17  20388899.969 8  20388901.925 8 109105116.217 8  84859541.382 8
R24  19544010.038 8  19544011.924 7 104510604.147 8  81285991.764 7
> 2025 06 15 09 53  0.0000000  0 24
C19  23621422.107 8                 123002946.915 8
C20  22776883.331 7                 118605202.119 7
C24  25314045.945 5                 131816887.11315
C29  22329951.837 7                 116277918.161 7
C35  21929006.414 8                 114190093.259 8
C47  24129776.400 5                 125650076.56315
E02  24576801.280 7  24576803.133 9 129151960.953 7  97702625.532 9
E10  26292634.855 5  26292632.384 6 138168786.44715 104523693.49216
E11  24267404.451 7  24267403.139 8 127526067.796 7  96472635.925 8
E25  26549104.380 6  26549119.110 4 139516444.94116 105543327.64414
E30  26787014.483 5  26786996.916 7 140766599.083 5 106489031.443 7
E36  23563299.459 8  23563302.233 9 123825974.535 8  93673556.078 9
G02  22298439.018 7  22298440.784 6                                 117179086.166 7  91308391.119 6                
G08  20442985.551 8                  20442991.270 7  20442988.087 9 107428612.186 8                  83710746.537 7  80222826.558 9
G10  20707312.550 8                  20707317.777 8  20707314.301 8 108817654.807 8                  84793006.084 8  81259989.458 8
G16  23930194.348 4                                                                                                
G27  20273354.392 8                  20273359.441 8  20273356.668 8 106537189.088 8                  83016015.533 8  79557001.490 8
R01  20016216.032 7                 106998114.101 7
R02  22600719.974 7  22600725.768 6 120601784.336 7  93801418.510 6
R08  21583019.676 4                                
R15  21699248.849 6  21699254.664 5 115954199.021 6  90186612.01115
R16  22301368.529 6  22301372.478 6 119130064.911 6  92656742.876 6
R17  20381909.184 8  20381911.371 8 109067707.406 8  84830445.690 8
R24  19546713.572 8  19546716.064 7 104525061.365 8  81297236.288 7
> 2025 06 15 09 53 15.0000000  0 23
C19  23613157.606 7                 122959912.587 7
C20  22776555.612 7                 118603491.775 7
C24  25315164.899 5                 131822720.352 5
C29  22335049.787 7                 116304461.352 7
C35  21924814.337 8                 114168263.649 8
C47  24137085.859 4                 125688160.884 4
E02  24580012.572 8  24580014.464 8 129168836.199 8  97715391.549 8
E10  26299043.432 5  26299045.094 5 138202491.336 5 104549190.92715
E11  24271525.473 7  24271523.753 8 127547721.984 7  96489017.137 8
E25  26557775.328 6                 139562002.995 6
E30  26782288.873 5  26782283.323 8 140741829.59615 106470293.584 8
E36  23560730.393 8  23560733.629 9 123812475.852 8  93663344.416 9
G02  22291674.066 7  22291675.549 5                                 117143533.846 7  91280688.034 5                
G08  20439323.123 7                  20439328.981 8  20439326.186 9 107409366.569 7                  83695749.916 8  80208454.816 9
G10  20707865.682 8                  20707870.946 8  20707867.893 9 108820562.271 8                  84795271.635 8  81262160.616 9
G23  22310119.304 5                                  22310112.869 6 117240452.19715                                  87549694.073 6
G27  20277092.420 8                  20277097.782 8  20277094.796 8 106556832.438 8                  83031322.036 8  79571670.215 8
R01  20011147.125 7                 106971017.049 7
R02  22588047.188 7  22588051.645 6 120534158.547 7  93748820.799 6
R15  21705618.604 6  21705624.761 4 115988253.472 6  90213098.729 4
R16  22297251.883 5  22297256.870 6 119108086.168 5  92639648.361 6
R17  20374927.426 8  20374929.391 8 109030347.025 8  84801387.639 8
R24  19549433.263 8  19549435.380 7 104539604.359 8  81308547.506 7
> 2025 06 15 09 53 30.0000000  0 24
C19  23604906.286 8                 122916943.315 8
C20  22776249.201 6                 118601901.057 6
C24  25316306.934 5                 131828657.386 5
C29  22340155.939 7                 116331056.731 7
C35  21920632.597 8                 114146488.478 8
E02  24583240.593 8  24583242.470 9 129185798.947 8  97728223.761 9
E10  26305456.604 5  26305457.419 5 138236197.298 5 104574689.102 5
E11  24275650.886 7  24275649.079 8 127569400.517 7  96505416.806 8
E25  26566444.780 6  26566465.722 5 139607571.002 6 105612261.93315
E30  26777580.068 5  26777584.533 8 140717137.740 5 106451614.354 8
E36  23558169.566 8  23558172.139 9 123799014.836 8  93653161.251 9
G02  22284915.222 7  22284916.821 5                                 117108016.868 7  91253012.461 5                
G08  20435681.255 7                  20435686.792 8  20435683.937 9 107390227.974 7                  83680836.719 8  80194163.013 9
G10  20708440.868 8                  20708445.501 8  20708442.690 9 108823584.200 8                  84797626.420 8  81264417.255 9
G16  23951119.889 5                                                 125863759.71215                                
G23  22317928.939 4                                  22317926.678 6 117281499.827 4                                  87580346.377 6
G27  20280851.793 8                  20280857.375 8  20280853.830 8 106576588.113 8                  83046716.047 8  79586422.820 8
R01  20006111.468 7                 106944100.000 7
R02  22575379.858 7  22575385.431 6 120466566.750 7  93696249.561 6
R08  21596806.598 5  21596813.371 5 115650013.24115  89949991.00115
R15  21712020.193 6                 116022452.063 6
R16  22293172.269 6  22293173.914 5 119086283.587 6  92622690.705 5
R17  20367955.474 8  20367957.039 8 108993037.993 8  84772369.463 8
R24  19552169.225 8  19552171.539 7 104554235.485 8  81319927.245 7
> 2025 06 15 09 53 45.0000000  0 24
C19  23596666.706 7                 122874039.368 7
C20  22775966.128 6                 118600429.785 6
C24  25317503.901 5                 131834698.32715
C29  22345273.024 7                 116357704.361 7
C35  21916461.241 8                 114124767.823 8
E02  24586485.279 8  24586487.200 9 129202849.111 8  97741122.082 9
E10  26311869.733 5  26311871.624 6 138269904.104 5 104600187.978 6
E11  24279780.509 8  24279779.044 8 127591103.432 8  96521834.912 8
E25  26575119.289 6  26575138.824 4 139653148.915 6 105646741.20214
E30  26772895.760 6  26772900.648 8 140692523.591 6 106432993.882 8
E36  23555615.102 8  23555617.775 9 123785591.531 8  93643006.601 9
G02  22278163.460 7  22278164.880 5                                 117072535.258 7  91225364.456 5                
G08  20432059.315 8                  20432065.271 7  20432062.218 9 107371196.682 8                  83666007.133 7  80179951.317 9
G10  20709037.661 8                  20709043.015 8  20709039.488 9 108826720.613 8                  84800070.389 8  81266759.374 9
G16  23961583.895 5                                                 125918748.679 5                                
G23  22325754.395 4                                  22325749.336 6 117322607.972 4                                  87611043.923 6
G27  20284632.091 8                  20284638.356 8  20284634.920 8 106596456.053 8                  83062197.541 8  79601259.280 8
R01  20001110.148 7                 106917363.282 7
R02  22562720.130 7  22562724.617 6 120399009.223 7  93643704.942 6
R08  21603750.370 5                 115687196.278 5
R15  21718448.465 6  21718485.492 5 116056794.155 6  90266403.94515
R16  22289123.333 6                 119064657.237 6
R17  20360992.246 8  20360994.434 7 108955780.407 8  84743391.363 7
R24  19554921.668 8  19554923.703 7 104568954.957 8  81331375.698 7
> 2025 06 15 09 54  0.0000000  0 24
C13  38401615.729 5                 199967307.73715
C19  23588440.491 7                 122831202.820 7
C20  22775707.725 7                 118599079.860 7
C24  25318672.583 5                 131840844.659 5
C29  22350401.238 7                 116384405.997 7
C35  21912301.195 8                 114103103.540 8
E02  24589746.260 7  24589748.857 9 129219988.475 7  97754087.855 9
E10  26318285.609 5  26318287.052 6 138303613.601 5 104625688.953 6
E11  24283915.595 8  24283913.972 8 127612832.431 8  96538272.751 8
E25  26583793.755 6                 139698738.225 6
E30  26768228.173 6  26768231.961 8 140667989.139 6 106414433.706 8
E36  23553068.454 8  23553071.032 9 123772207.738 8  93632881.844 9
G02  22271418.029 7  22271420.539 5                                 117037090.899 7  91197745.494 5                
G08  20428458.263 8                  20428464.834 8  20428461.555 9 107352274.630 8                  83651262.700 8  80165821.236 9
G10  20709656.379 8                  20709661.706 7  20709658.110 8 108829973.188 8                  84802604.852 7  81269188.233 8
G16  23972048.684 4                                                                                                
G23  22333590.108 3                                  22333583.119 5 117363778.31313                                  87641787.852 5
G27  20288434.498 8                  20288440.475 8  20288437.313 8 106616438.001 8                  83077767.862 8  79616180.842 8
R01  19996142.270 7                 106890809.047 7
R02  22550064.568 6  22550071.022 6 120331488.682 6  93591189.026 6
R15  21724912.267 5  21724927.180 5 116091280.69015  90293227.24015
R16  22285109.722 6  22285109.237 5 119043208.983 6  92589187.20815
R17  20354039.931 8  20354042.454 7 108918576.495 8  84714454.951 7
R24  19557691.667 8  19557693.602 7 104583764.631 8  81342894.305 7
> 2025 06 15 09 54 15.0000000  0 25
C13  38404222.891 5  38404223.827 4 199980886.846 5 154637891.14714
C19  23580227.619 7                 122788434.981 7
C20  22775471.615 6                 118597852.367 6
C24  25319854.257 4                 131847097.16614
C29  22355539.650 7                 116411162.691 7
C35  21908151.846 8                 114081496.954 8
C44  25040163.207 5                 130390695.98915
E02  24593025.299 8  24593027.747 9 129237217.925 8  97767121.822 9
E10  26324701.306 4  26324703.685 6 138337326.91914 104651192.729 6
E11  24288055.557 8  24288054.194 8 127634588.650 8  96554731.168 8
E25  26592472.330 6                 139744339.883 6
E30  26763575.567 6  26763578.612 8 140643535.585 6 106395934.781 8
E36  23550528.942 8  23550531.973 9 123758864.566 8  93622787.818 9
G02  22264680.686 7  22264683.105 6                                 117001685.139 7  91170156.571 6                
G08  20424878.545 8                  20424885.127 8  20424882.506 9 107333463.168 8                  83636604.462 8  80151773.731 9
G10  20710297.870 8                  20710302.788 7  20710299.932 8 108833342.933 8                  84805230.615 7  81271704.613 8
G16  23982514.885 4                                                 126028748.83814                                
G23                                  22341429.215 5  22341431.618 5                                  91484426.99515  87672578.615 5
G27  20292258.799 8                  20292264.402 8  20292261.613 8 106636534.964 8                  83093427.836 8  79631188.308 8
R01  19991209.714 7                 106864438.782 7
R02  22537419.812 7  22537425.352 6 120264006.419 7  93538702.889 6
R08  21617728.687 5                 115761996.15315
R15  21731383.348 5                 116125898.63515
R17  20347098.300 8  20347100.331 8 108881427.331 8  84685561.193 8
R24  19560477.859 8  19560480.547 7 104598665.487 8  81354483.842 7
> 2025 06 15 09 54 30.0000000  0 24
C13  38406827.555 5  38406831.355 4 199994461.811 5 154648388.254 4
C19  23572028.117 8                 122745737.287 8
C20  22775258.694 5                 118596748.435 5
C24  25321081.364 4                 131853456.93214
C29  22360688.700 7                 116437975.475 7
C35  21904013.659 8                 114059949.264 8
C44  25031460.995 5                 130345397.033 5
E02  24596321.600 8  24596323.811 9 129254538.546 8  97780224.746 9
E10  26331131.242 4  26331120.937 6                 104676700.24116
E11  24292200.854 8  24292199.713 8 127656373.075 8  96571210.924 8
E25  26601152.492 7                 139789954.733 7
E30  26758938.554 6  26758940.868 8 140619164.265 6 106377498.047 8
E36  23547997.580 8  23548000.700 9 123745563.112 8  93612725.367 9
G02  22257950.579 7  22257953.069 6                                 116966318.929 7  91142598.518 6                
G08  20421320.609 8                  20421326.700 8  20421323.770 9 107314763.584 8                  83622033.329 8  80137809.775 9
G10  20710961.473 8                  20710966.427 7  20710963.760 9 108836830.850 8                  84807948.489 7  81274309.218 9
G16  23992981.536 5                                                 126083761.517 5                                
G23                                  22349290.708 5  22349288.844 5                                  91516606.372 5  87703417.026 5
G27  20296105.272 8                  20296110.438 7  20296108.121 8 106656747.948 8                  83109178.215 7  79646282.402 8
R01  19986310.436 7                 106838253.677 7
R02  22524781.326 7  22524786.043 6 120196564.036 7  93486247.757 6
R15  21737891.400 6  21737895.158 6 116160677.192 6  90347248.31316
R17  20340166.477 8  20340168.241 8 108844334.457 8  84656711.207 8
R24  19563281.405 8  19563284.131 7 104613658.604 8  81366145.152 7
> 2025 06 15 09 54 45.0000000  0 23
C13  38409433.725 5  38409438.535 4 200008032.783 5 154658882.104 4
C19  23563841.440 7                 122703109.918 7
C20  22775074.497 6                 118595767.912 6
C29  22365848.609 7                 116464844.230 7
C35  21899887.230 8                 114038460.521 8
C44  25022764.943 5                 130300099.519 5
E02  24599634.787 7  24599637.005 9 129271950.077 7  97793396.425 9
E11  24296351.368 8  24296350.270 8 127678185.486 8  96587711.889 8
E25  26609835.031 6  26609842.228 6 139835582.355 6 105784750.47416
E30  26754316.260 7  26754318.765 8 140594875.095 7 106359123.554 8
E36  23545474.391 8  23545477.350 9 123732303.255 8  93602694.384 9
G02  22251228.435 7  22251230.450 6                                 116930992.467 7  91115071.414 6                
G08  20417783.686 8                  20417789.661 8  20417786.241 8 107296175.982 8                  83607549.458 8  80123929.408 8
G10  20711647.631 8                  20711652.506 7  20711650.179 9 108840436.755 8                  84810758.282 7  81277001.924 9
G16  24003454.096 4                                                                                                
G23                                  22357157.320 4  22357158.924 6                                  91548835.019 4  87734302.751 6
G27  20299973.964 8                  20299979.573 7  20299976.752 9 106677076.788 8                  83125018.857 7  79661463.005 9
R01  19981446.632 7                 106812254.190 7
R02  22512149.156 6  22512154.854 6 120129162.191 6  93433824.185 6
R08  21631799.922 5  21631803.621 5 115837404.08115  90095758.25715
R15  21744426.704 6  21744425.563 4 116195601.380 6  90374411.40314
R17  20333245.282 8  20333246.908 8 108807297.788 8  84627904.918 8
R24  19566102.781 8  19566105.087 7 104628744.139 8  81377878.320 7
> 2025 06 15 09 55  0.0000000  0 23
C13  38412041.884 5  38412044.763 3 200021606.626 5 154669378.190 3
C19  23555670.547 7                 122660560.186 7
C20  22774906.269 5                 118594917.655 5
C29  22371020.076 7                 116491776.021 7
C35  21895773.436 8                 114017037.941 8
C44  25014062.735 4                 130254810.833 4
C47  24188435.909 5                 125955603.25015
E02  24602966.861 8  24602968.764 9 129289459.630 8  97806642.243 9
E11  24300509.025 8  24300507.743 8 127700033.136 8  96604239.477 8
E25  26618520.682 6  26618528.082 6 139881229.863 6 105819282.485 6
E30  26749710.028 6  26749713.600 8 140570675.629 6 106340816.862 8
E36  23542960.922 8  23542963.458 9 123719092.218 8  93592700.315 9
G02  22244514.857 7  22244516.773 6                                 116895712.705 7  91087580.765 6                
G08  20414269.344 8                  20414274.981 8  20414272.012 8 107277707.620 8                  83593158.549 8  80110138.113 8
G10  20712357.799 8                  20712362.562 7  20712359.704 9 108844167.688 8                  84813665.490 7  81279788.001 9
G16  24013927.100 5                                                 126193818.47515                                
G27  20303865.884 8                  20303871.603 8  20303868.633 9 106697528.512 8                  83140955.271 8  79676735.398 9
R01  19976618.662 7                 106786447.846 7
R02  22499527.160 7  22499532.809 6 120061808.469 7  93381438.042 6
R15  21750988.709 5                 116230677.932 5
R16  22269403.644 5  22269390.250 5 118959199.96515  92523869.57115
R17  20326336.105 7  20326337.559 8 108770324.801 7  84599148.149 8
R24  19568942.398 8  19568944.055 7 104643929.222 8  81389688.973 7
> 2025 06 15 09 55 15.0000000  0 24
C13  38414652.796 5  38414649.378 3 200035181.987 5 154679877.40813
C19  23547514.405 8                 122618086.939 8
C20  22774769.465 5                 118594196.455 5
C29  22376203.977 7                 116518769.383 7
C35  21891671.504 8                 113995680.262 8
C44  25005371.245 5                 130209529.66715
C47  24195792.416 6                 125993930.854 6
E02  24606316.807 8  24606318.888 9 129307065.602 8  97819961.041 9
E11  24304672.918 7  24304671.327 8 127721914.458 7  96620792.539 8
E25  26627212.914 6  26627217.827 6 139926895.579 6 105853828.260 6
E30  26745122.370 7  26745125.361 8 140546564.572 7 106322577.025 8
E36  23540455.988 8  23540458.490 9 123705928.579 8  93582742.097 9
G02  22237809.783 7  22237811.505 5                                 116860478.456 7  91060125.540 5                
G08  20410777.633 8                  20410783.241 8  20410780.677 9 107259357.363 8                  83578859.659 8  80096435.003 9
G10  20713091.061 8                  20713096.251 7  20713092.910 9 108848022.113 8                  84816668.960 7  81282666.331 9
G16  24024402.456 4                                                 126248867.90614                                
G23                                  22372937.225 6  22372940.284 5                                  91613448.21116  87796230.110 5
G27  20307780.612 8                  20307786.647 8  20307783.568 9 106718101.656 8                  83156986.274 8  79692098.443 9
R01  19971827.529 7                 106760833.403 7
R02  22486914.531 7  22486920.582 6 119994502.314 7  93329088.891 6
R15  21757589.697 5  21757587.610 6 116265905.399 5  90428919.27016
R16  22265541.707 6                 118938669.561 6
R17  20319438.226 8  20319440.458 8 108733414.236 8  84570439.984 8
R24  19571800.653 8  19571802.923 7 104659212.302 8  81401575.860 7
> 2025 06 15 09 55 30.0000000  0 23
C13  38417257.978 5                 200048757.415 5
C19  23539371.579 7                 122575689.138 7
C20  22774655.555 6                 118593603.013 6
C29  22381399.763 7                 116545822.884 7
C35  21887582.660 8                 113974386.218 8
C44  24996676.228 5                 130164254.711 5
C47  24203156.697 6                 126032292.717 6
E02  24609685.507 7  24609687.357 9 129324766.516 7  97833351.681 9
E11  24308843.004 8  24308841.645 8 127743827.997 8  96637370.009 8
E25  26635905.567 6  26635910.685 6 139972577.828 6 105888386.503 6
E30  26740549.365 7  26740553.906 8 140522540.657 7 106304403.104 8
E36  23537959.720 8  23537962.186 9 123692810.890 8  93572818.659 9
G02  22231113.309 7  22231114.484 5                                 116825288.287 7  91032704.662 5                
G08  20407307.512 8                  20407313.614 8  20407310.430 9 107241123.971 8                  83564651.796 8  80082819.154 9
G10  20713847.784 8                  20713852.642 7  20713849.641 9 108851998.594 8                  84819767.537 7  81285635.781 9
G23                                  22380848.795 6  22380854.734 5                                  91645837.027 6  87827269.199 5
G27  20311718.362 8                  20311724.328 8  20311721.074 8 106738794.755 8                  83173110.739 8  79707551.046 8
R01  19967071.106 7                 106735409.520 7
R02  22474310.383 8  22474316.009 6 119927242.580 8  93276775.880 6
R15  21764223.409 5  21764209.581 6 116301289.06815  90456434.129 6
R16  22261734.678 6  22261766.953 6 118918325.372 6  92491930.48816
R17  20312552.494 8  20312554.007 8 108696565.159 8  84541779.558 8
R24  19574676.425 8  19574678.998 8 104674592.187 8  81413537.951 8
> 2025 06 15 09 55 45.0000000  0 23
C19  23531243.714 7                 122533363.298 7
C20  22774565.425 6                 118593133.475 6
C24  25327550.784 4                 131887182.81514
C29  22386606.239 7                 116572932.868 7
C35  21883504.475 8                 113953152.316 8
C44  24987979.732 5                 130118982.510 5
C47  24210529.143 5                 126070684.971 5
E02  24613070.940 7  24613073.273 9 129342558.562 7  97846811.245 9
E10                  26363226.239 5                 104804331.47815
E11  24313018.089 7  24313017.314 8 127765770.022 7  96653969.004 8
E25  26644600.661 6  26644606.454 6 140018272.744 6 105922954.329 6
E30  26735995.436 7  26735998.386 8 140498600.323 7 106286292.407 8
E36  23535471.139 8  23535473.959 9 123679735.481 8  93562927.181 9
G02  22224424.919 7  22224425.345 5                                 116790138.672 7  91005315.388 5                
G08  20403859.022 7                  20403865.806 8  20403862.523 9 107223003.885 7                  83550532.288 8  80069287.938 9
G10  20714626.906 8                  20714632.186 7  20714629.245 9 108856093.279 8                  84822958.165 7  81288693.492 9
G23  22388765.206 4                  22388768.757 5  22388787.661 4                                  91678274.859 5
G27  20315678.312 8                  20315683.982 8  20315680.719 8 106759603.896 8                  83189325.662 8  79723090.342 8
R01  19962350.326 7                 106710173.035 7
R02  22461713.926 7  22461718.842 6 119860026.017 7  93224496.332 6
R15  21770852.158 6                 116336809.867 6
R17  20305676.893 8  20305677.926 7 108659773.646 8  84513163.952 7
R24  19577570.352 8  19577572.154 8 104690064.809 8  81425572.156 8
> 2025 06 15 09 56  0.0000000  0 26
C13  38422474.685 4                 200075895.81314
C19  23523130.714 8                 122491114.502 8
C20  22774501.613 7                 118592792.525 7
C29  22391823.467 7                 116600104.002 7
C35  21879439.513 8                 113931983.368 8
C44  24979289.865 6                 130073717.813 6
C47  24217907.479 5                 126109112.208 5
E02  24616475.169 8  24616477.376 9 129360446.429 8  97860343.296 9
E10  26369651.671 5  26369651.159 5 138573482.17015 104829877.20615
E11  24317199.920 7  24317199.310 7 127787745.245 7  96670593.085 7
E25  26653298.921 6  26653305.859 6 140063984.832 6 105957535.147 6
E30  26731455.920 7  26731459.505 8 140474748.533 7 106268248.690 8
E36  23532992.150 8  23532994.692 9 123666707.115 8  93553071.319 9
G02  22217744.687 7  22217745.261 5                                 116755034.556 7  90977961.528 5                
G08  20400433.016 8                  20400439.908 7  20400436.524 9 107205002.071 8                  83536504.929 7  80055845.054 9
G10  20715429.609 8                  20715435.146 8  20715431.602 9 108860310.854 8                  84826244.587 8  81291842.971 9
G16  24055841.758 5                                                 126414069.91015                                
G23                                  22396706.019 5                                                  91710765.101 5
G27  20319661.729 8                  20319667.062 8  20319663.355 8 106780533.857 8                  83205634.715 8  79738719.855 8
R01  19957665.523 7                 106685128.908 7
R02  22449126.631 7  22449131.456 6 119792857.963 7  93172254.624 6
R08  21667511.581 5                 116028603.50115
R15  21777536.497 5                 116372479.478 5
R16  22254220.629 6  22254251.645 5 118878194.93416  92460713.27915
R17  20298812.751 8  20298815.112 8 108623044.866 8  84484597.126 8
R24  19580482.131 8  19580484.173 7 104705635.398 8  81437682.609 7
> 2025 06 15 09 56 15.0000000  0 26
C19  23515032.464 8                 122448945.110 8
C20  22774459.754 7                 118592582.201 7
C24  25330220.351 5                 131901067.84015
C26  25917596.263 5                 134959569.76715
C29  22397053.917 7                 116627338.333 7
C35  21875387.425 8                 113910881.657 8
C44  24970600.224 6                 130028462.956 6
C47  24225298.130 6                 126147576.802 6
E02  24619898.062 7  24619899.858 9 129378432.171 7  97873949.372 9
E11  24321388.440 7  24321387.649 7 127809755.774 7  96687243.905 7
E25  26662001.929 6  26662007.955 6 140109716.121 6 105992130.456 6
E30  26726934.154 6  26726937.762 8 140450987.603 6 106250273.699 8
E34  26888164.224 5  26888180.120 5 141298333.45315 106891263.06215
E36  23530522.090 8  23530524.821 9 123653727.970 8  93543252.685 9
G02  22211073.984 7  22211074.683 5                                 116719978.053 7  90950644.804 5                
G08  20397030.590 7                  20397037.126 7  20397033.505 8 107187120.972 7                  83522571.583 7  80042492.256 8
