     3.04           OBSERVATION DATA    Mixed(MIXED)        RINEX VERSION / TYPE
cnvtToRINEX 3.14.0  convertToRINEX OPR  20250615 162126 UTC PGM / RUN BY / DATE 
----------------------------------------------------------- COMMENT             
1004                                                        MARKER NAME         
1004                                                        MARKER NUMBER       
GEODETIC                                                    MARKER TYPE         
GNSS Observer       Trimble                                 OBSERVER / AGENCY   
6337S22116          Geo Explorer 3      6.26                REC # / TYPE / VERS 
                    UNKNOWN EXT     NONE                    ANT # / TYPE        
  3915574.5636  1191537.0569  4876138.0140                  APPROX POSITION XYZ 
        1.1720        0.0000        0.0000                  ANTENNA: DELTA H/E/N
R    4 C1C C2C L1C L2C                                      SYS / # / OBS TYPES 
G    8 C1C C2W C2X C5X L1C L2W L2X L5X                      SYS / # / OBS TYPES 
C    4 C2I C7I L2I L7I                                      SYS / # / OBS TYPES 
E    4 C1X C8X L1X L8X                                      SYS / # / OBS TYPES 
    15.000                                                  INTERVAL            
  2025     6    15    11    12   30.0000000     GPS         TIME OF FIRST OBS   
  2025     6    15    11    39   45.0000000     GPS         TIME OF LAST OBS    
     0                                                      RCV CLOCK OFFS APPL 
  7 R01  1 R02 -4 R03  5 R16 -1 R17  4 R18 -3 R24  2        GLONASS SLOT / FRQ #
R L2C -0.25000                                              SYS / PHASE SHIFT   
G L2X -0.25000                                              SYS / PHASE SHIFT   
    18                                                      LEAP SECONDS        
    33                                                      # OF SATELLITES     
   C05     1     0     1     0                              PRN / # OF OBS      
   C12     7     6     6     5                              PRN / # OF OBS      
   C13     5     0     4     0                              PRN / # OF OBS      
   C19   110     0   110     0                              PRN / # OF OBS      
   C20    96     0    96     0                              PRN / # OF OBS      
   C22   110     0   110     0                              PRN / # OF OBS      
   C29    61     0    60     0                              PRN / # OF OBS      
   C35   110     0   110     0                              PRN / # OF OBS      
   C39    61     0    61     0                              PRN / # OF OBS      
   C44   110     0   110     0                              PRN / # OF OBS      
   E02   103   102   101   102                              PRN / # OF OBS      
   E04    91    97    90    97                              PRN / # OF OBS      
   E05    25    25    25    25                              PRN / # OF OBS      
   E06   110   110   110   110                              PRN / # OF OBS      
   E09   110   110   110   110                              PRN / # OF OBS      
   E11   110   110   110   110                              PRN / # OF OBS      
   E30   110   110   110   110                              PRN / # OF OBS      
   E34   110   110   110   110                              PRN / # OF OBS      
   E36   110   110   110   110                              PRN / # OF OBS      
   G01   110     0   110   110   110     0   110   110      PRN / # OF OBS      
   G02   110   110     0     0   110   110     0     0      PRN / # OF OBS      
   G03    93     0    84    93    90     0    84    93      PRN / # OF OBS      
   G08   110     0   110   110   110     0   110   110      PRN / # OF OBS      
   G10   110     0   110   110   110     0   110   110      PRN / # OF OBS      
   G27   110     0   110   110   110     0   110   110      PRN / # OF OBS      
   G32   110     0   110   110   110     0   110   110      PRN / # OF OBS      
   R01   110     0   110     0                              PRN / # OF OBS      
   R02   110   110   110   110                              PRN / # OF OBS      
   R03   110   110   110   110                              PRN / # OF OBS      
   R16    72    72    72    72                              PRN / # OF OBS      
   R17   110   110   110   110                              PRN / # OF OBS      
   R18   103   100   101    99                              PRN / # OF OBS      
   R24   107   106   103   106                              PRN / # OF OBS      
DBHZ                                                        SIGNAL STRENGTH UNIT
                                                            END OF HEADER       
>                              2  1
              *** Start of Kinematic Data ***               COMMENT             
> 2025 06 15 11 12 30.0000000  0 27
C13  39500757.397 4                                
C19  22239860.573 8                 115808781.73918
C20  24123699.923 7                 125618435.44517
C22  24030027.462 7                 125130669.66517
C35  21643084.170 8                 112701223.26018
C44  22831970.788 7                 118892064.00217
E02  26673578.656 5  26673562.693 7 140170414.74015 106038046.34217
E04  25957158.388 7  25957160.058 7 136405785.77517 103190055.58817
E06  25190141.424 8  25190144.820 8 132375084.21818 100140906.46818
E09  25480446.906 7  25480450.375 8 133900653.23017 101294988.50518
E11  26159178.219 7  26159178.409 7 137467412.65117 103993170.00417
E30  26543372.680 7  26543375.931 8 139486356.84417 105520538.32518
E34  25155028.579 8  25155031.784 9 132190565.34218 100001316.17319
E36  23504563.669 8  23504566.008 9 123517312.87818  93440055.58119
G01  22165822.551 7                  22165827.153 8  22165828.724 8 116482180.32917                  90765356.69118  86983475.78618
G02  20959822.656 7  20959823.373 6                                 110144608.59917  85826971.22016                
G03  24039737.262 5                                  24039746.314 5 126329609.23415                                  94337131.84115
G08  20815042.128 8                  20815048.161 7  20815045.361 9 109383778.62818                  85234142.20817  81682706.14319
G10  22217463.669 8                  22217470.098 7  22217465.890 8 116753559.84818                  90976824.13017  87186106.70118
G27  22777837.141 7                  22777844.510 7  22777842.966 8 119698338.66517                  93271462.83817  89385143.92718
G32  22041319.955 8                  22041326.240 8  22041323.157 8 115827915.55018                  90255547.13018  86494886.10018
R01  20583429.305 7                 110030203.93017
R02  19788116.529 8  19788118.475 7 105593178.87418  82128188.87317
R03  23034534.639 7  23034542.855 7 123305673.69017  95904442.42817
R16  23082305.519 7  23082310.964 7 123301533.97117  95901020.04817
R17  19245738.518 8  19245739.682 7 102987835.94018  80101704.22017
R24  21607113.738 7  21607116.682 7 115542944.74417  89866738.04617
> 2025 06 15 11 12 45.0000000  0 26
C19  22238391.822 8                 115801135.724 8
C20  24130412.228 6                 125653383.296 6
C22  24020686.548 7                 125082027.612 7
C35  21644271.325 8                 112707406.635 8
C44  22825489.404 7                 118858313.448 7
E02  26681368.524 4  26681355.522 6                 106069025.213 6
E04  25959148.393 7  25959149.656 7 136416240.448 7 103197964.479 7
E06  25188094.556 8  25188098.476 8 132364330.402 8 100132771.311 8
E09  25474794.375 7  25474798.575 8 133870951.487 7 101272519.347 8
E11  26165281.309 7  26165282.117 7 137499488.876 7 104017435.398 7
E30  26545182.371 7  26545185.498 8 139495867.121 7 105527732.793 8
E34  25149301.351 7  25149304.525 9 132160468.309 7  99978547.965 9
E36  23505226.815 8  23505229.518 9 123520799.417 8  93442693.114 9
G01  22158120.648 7                  22158125.125 8  22158126.785 8 116441706.722 7                  90733818.850 8  86953251.998 8
G02  20956882.167 8  20956882.848 6                                 110129155.116 8  85814929.559 6                
G03  24029071.525 5                  24029081.878 5  24029077.836 5 126273560.57415                  98395064.99815  94295276.65315
G08  20819593.319 8                  20819599.560 8  20819596.341 9 109407695.259 8                  85252778.499 8  81700565.935 9
G10  22224225.697 7                  22224232.105 8  22224227.717 8 116789093.106 7                  91004512.394 8  87212641.288 8
G27  22787636.570 7                  22787644.116 7  22787642.296 8 119749835.426 7                  93311590.171 7  89423599.246 8
G32  22038477.732 8                  22038483.588 7  22038480.543 8 115812979.773 8                  90243908.898 7  86483732.788 8
R01  20590171.128 7                 110066242.250 7
R02  19783001.657 8  19783003.682 7 105565884.352 8  82106959.806 7
R03  23021755.627 7  23021763.547 7 123237263.500 7  95851234.668 7
R16  23089281.666 7  23089286.415 7 123338800.090 7  95930004.771 7
R17  19244700.682 8  19244702.067 7 102982281.479 8  80097384.090 7
R24  21615605.635 7  21615608.698 7 115588354.316 7  89902056.513 7
>                              3  5
              *** Start of Occupation ***                   COMMENT             
1004                                                        MARKER NAME         
1004                                                        MARKER NUMBER       
  3915574.5636  1191537.0569  4876138.0140                  APPROX POSITION XYZ 
        1.1720        0.0000        0.0000                  ANTENNA: DELTA H/E/N
> 2025 06 15 11 13  0.0000000  0 27
C19  22236946.495 8                 115793607.899 8
C20  24137137.959 7                 125688404.560 7
C22  24011354.580 8                 125033435.109 8
C35  21645476.948 8                 112713682.435 8
C44  22819017.880 7                 118824618.513 7
E02  26689143.355 5  26689154.284 6 140252347.70315 106100027.914 6
E04  25961157.306 7  25961158.240 7 136426795.181 7 103205949.061 7
E06  25186067.995 8  25186071.289 8 132353678.042 8 100124712.896 8
E09  25469157.556 7  25469161.740 8 133841330.009 7 101250110.979 8
E11  26171389.032 6  26171389.614 7 137531583.497 6 104041714.742 7
E30  26547010.835 7  26547014.134 8 139505477.322 7 105535002.816 8
E34  25143577.202 7  25143581.215 9 132130392.919 7  99955796.138 9
E36  23505898.547 8  23505901.661 9 123524331.284 8  93445364.964 9
G01  22150427.064 7                  22150430.924 7  22150432.809 8 116401274.529 7                  90702313.213 7  86923059.121 8
G02  20953954.165 8  20953955.237 6                                 110113769.102 8  85802940.424 6                
G03  24018410.906 5                  24018425.404 6  24018417.198 6 126217539.256 5                  98351412.139 6  94253442.603 6
G08  20824167.599 7                  20824173.864 8  20824171.028 9 109431732.440 7                  85271508.802 8  81718515.781 9
G10  22230998.384 8                  22231004.618 7  22231001.061 8 116824685.380 8                  91032246.620 7  87239219.902 8
G27  22797446.333 7                  22797453.900 7  22797452.123 8 119801384.928 7                  93351758.603 7  89462093.980 8
G32  22035660.655 8                  22035666.686 7  22035663.370 8 115798174.950 8                  90232372.715 7  86472677.261 8
R01  20596940.875 7                 110102431.556 7
R02  19777920.060 8  19777922.779 8 105538769.771 8  82085870.712 8
R03  23008982.055 7  23008990.817 7 123168888.789 7  95798054.461 7
R16  23096282.727 7  23096287.686 7 123376197.916 7  95959091.901 7
R17  19243685.617 8  19243687.216 7 102976850.163 8  80093159.714 7
R18  21249384.517 6                 113430647.60716
R24  21624110.774 7  21624114.698 7 115633837.080 7  89937432.002 7
> 2025 06 15 11 13 15.0000000  0 28
C19  22235523.917 8                 115786200.003 8
C20  24143876.628 6                 125723500.762 6
C22  24002032.821 8                 124984894.063 8
C29  24814023.631 6                 129213145.042 6
C35  21646700.162 8                 112720052.475 8
C44  22812559.057 7                 118790981.214 7
E02  26696948.387 4  26696958.172 6 140293362.84614 106131055.43816
E04  25963184.885 7  25963186.088 7 136437451.620 7 103214010.600 7
E06  25184060.166 7  25184063.702 8 132343128.961 7 100116732.584 8
E09  25463536.647 7  25463540.496 8 133811790.864 7 101227764.848 8
E11  26177500.500 7  26177500.535 7 137563698.123 7 104066009.246 7
E30  26548858.825 7  26548862.223 8 139515189.026 7 105542349.649 8
E34  25137859.213 8  25137862.318 8 132100340.908 8  99933062.009 8
E36  23506580.291 8  23506582.795 9 123527910.300 8  93448072.463 9
G01  22142741.204 7                  22142745.489 8  22142746.929 8 116360885.511 7                  90670841.328 8  86892898.570 8
G02  20951039.188 8  20951040.848 6                                 110098452.396 8  85791005.335 6                
G03  24007756.584 5                  24007768.923 5  24007765.170 6 126161547.298 5                  98307782.126 5  94211630.535 6
G08  20828764.754 7                  20828770.992 7  20828768.434 9 109455891.841 7                  85290334.300 7  81736556.867 9
G10  22237782.568 8                  22237788.922 7  22237785.964 8 116860338.148 8                  91060027.946 7  87265843.663 8
G27  22807265.934 7                  22807273.759 7  22807271.988 8 119852988.715 7                  93391969.285 7  89500629.209 8
G32  22032868.738 8                  22032874.848 7  22032872.104 8 115783502.914 8                  90220939.998 7  86461720.911 8
R01  20603739.037 7                 110138773.301 7
R02  19772872.952 8  19772874.999 7 105511836.892 8  82064922.952 7
R03  22996215.888 7  22996224.309 7 123100551.922 7  95744903.639 7
R16  23103308.067 7  23103313.521 7 123413728.484 7  95988282.322 7
R17  19242693.691 8  19242695.394 7 102971543.961 8  80089032.678 7
R18  21240389.231 5                 113382627.282 5
R24  21632629.834 7  21632634.618 7 115679394.661 7  89972865.646 7
> 2025 06 15 11 13 30.0000000  0 27
C19  22234125.232 8                 115778916.356 8
C20  24150631.900 6                 125758675.931 6
C22  23992721.559 7                 124936408.976 7
C29  24822588.264 5                 129257764.771 5
C35  21647942.358 8                 112726521.080 8
C44  22806111.253 7                 118757405.967 7
E02  26704766.926 5  26704769.726 6 140334414.93815 106162111.04416
E04  25965232.684 7  25965234.185 7 136448214.064 7 103222152.293 7
E06  25182073.424 7  25182076.817 8 132332687.536 7 100108833.734 8
E09  25457932.916 7  25457935.910 8 133782338.503 7 101205484.374 8
E11  26183616.080 7  26183616.550 7 137595837.230 7 104090322.234 7
E30  26550726.967 7  26550730.481 8 139525006.548 7 105549776.537 8
E34  25132145.899 8  25132148.844 8 132070316.707 8  99910348.912 8
E36  23507271.197 8  23507273.717 9 123531540.792 8  93450818.905 9
G01  22135064.494 7                  22135068.563 8  22135070.801 8 116320544.335 7                  90639406.626 8  86862773.681 8
G02  20948138.884 8  20948140.210 6                                 110083209.387 8  85779127.676 6                
G03  23997108.025 5                  23997119.156 5  23997117.791 6 126105589.236 5                  98264178.549 5  94169843.765 6
G08  20833386.179 8                  20833392.947 8  20833389.189 9 109480177.597 8                  85309258.258 8  81754692.338 9
G10  22244579.494 7                  22244585.095 7  22244582.778 8 116896055.540 7                  91087859.666 7  87292515.698 8
G27  22817097.051 7                  22817104.597 7  22817103.030 8 119904650.845 7                  93432225.434 7  89539207.992 8
G32  22030102.746 8                  22030109.069 8  22030105.737 8 115768968.188 8                  90209614.241 8  86450867.086 8
R01  20610566.467 7                 110175271.164 7
R02  19767860.862 8  19767862.499 7 105485090.501 8  82044120.220 7
R03  22983457.526 7  22983466.226 6 123032257.544 7  95691785.976 6
R16  23110359.797 7  23110364.500 6 123451395.891 7  96017579.157 6
R17  19241726.759 8  19241727.984 7 102966367.666 8  80085006.662 7
R24  21641163.852 7  21641168.500 7 115725031.231 7  90008360.706 7
> 2025 06 15 11 13 45.0000000  0 28
C19  22232749.384 8                 115771752.201 8
C20  24157401.844 7                 125793925.106 7
C22  23983420.360 7                 124887975.396 7
C29  24831164.627 6                 129302417.308 6
C35  21649202.675 8                 112733083.638 8
C44  22799674.300 7                 118723888.285 7
E02  26712591.564 5  26712588.513 5 140375499.364 5 106193191.02415
E04  25967299.548 7  25967301.394 7 136459077.601 7 103230370.523 7
E06  25180106.051 8  25180109.346 8 132322349.044 8 100101012.750 8
E09  25452343.442 7  25452346.871 8 133752968.406 7 101183266.109 8
E11  26189735.972 7  26189736.427 7 137627996.045 7 104114650.107 7
E30  26552614.089 7  26552617.884 8 139534925.004 7 105557279.779 8
E34  25126437.065 8  25126439.701 9 132040315.634 8  99887653.312 9
E36  23507970.960 8  23507973.503 9 123535218.026 8  93453600.712 9
G01  22127396.066 7                  22127399.671 7  22127402.329 8 116280246.271 7                  90608005.553 7  86832681.011 8
G02  20945251.298 8  20945252.436 6                                 110068035.348 8  85767303.781 6                
G03  23986466.421 4                                  23986475.245 6 126049660.498 4                                  94128078.900 6
G08  20838030.498 8                  20838037.330 8  20838033.485 8 109504584.803 8                  85328276.866 8  81772918.504 8
G10  22251387.875 7                  22251393.745 7  22251390.467 8 116931832.547 7                  91115737.839 7  87319232.280 8
G27  22826937.806 7                  22826946.056 7  22826943.830 8 119956366.207 7                  93472523.060 7  89577826.569 8
G32  22027362.077 8                  22027368.342 8  22027365.043 8 115754566.118 8                  90198391.870 8  86440112.321 8
R01  20617422.592 7                 110211920.118 7
R02  19762882.373 8  19762884.803 7 105458526.080 8  82023459.021 7
R03  22970707.083 7  22970715.482 7 122964001.247 7  95638697.860 7
R16  23117436.322 7  23117440.807 7 123489194.788 7  96046978.305 7
R17  19240782.688 8  19240784.179 7 102961316.422 8  80081077.920 7
R18  21222439.868 5  21222449.000 5 113286730.91715  88111907.33815
R24  21649712.488 7  21649716.911 7 115770742.203 7  90043913.598 7
> 2025 06 15 11 14  0.0000000  0 27
C19  22231396.765 8                 115764709.732 8
C20  24164185.107 7                 125829250.226 7
C22  23974129.831 8                 124839595.791 8
C29  24839746.602 6                 129347104.729 6
C35  21650481.606 8                 112739742.350 8
C44  22793248.499 7                 118690430.586 7
E02  26720412.101 6                 140416617.710 6
E04  25969385.661 6  25969388.263 7 136470044.554 6 103238666.882 7
E06  25178159.202 8  25178162.064 8 132312115.865 8 100093271.430 8
E09  25446770.713 7  25446774.049 8 133723682.942 7 101161111.881 8
E11  26195859.942 7  26195860.398 7 137660176.615 7 104138994.505 7
E30  26554521.811 7  26554524.838 8 139544946.576 7 105564861.029 8
E34  25120732.970 8  25120735.715 9 132010339.962 8  99864976.939 9
E36  23508679.965 8  23508682.600 9 123538944.284 8  93456419.593 9
G01  22119735.822 7                  22119740.222 8  22119742.758 8 116239993.754 7                  90576639.981 8  86802622.348 8
G02  20942377.367 8  20942378.183 6                                 110052932.698 8  85755535.474 6                
G08  20842698.715 8                  20842705.599 8  20842702.157 8 109529115.548 8                  85347391.723 8  81791236.923 8
G10  22258207.853 7                  22258213.755 7  22258210.596 8 116967671.200 7                  91143664.064 7  87345994.919 8
G27  22836789.971 7                  22836797.403 7  22836795.576 8 120008136.811 7                  93512863.735 7  89616486.415 8
G32  22024647.390 8                  22024653.215 7  22024650.154 8 115740299.070 8                  90187274.713 7  86429458.392 8
R01  20624307.962 7                 110248722.025 7
R02  19757938.640 8  19757940.612 7 105432145.878 8  82002941.129 7
R03  22957963.700 7  22957971.552 7 122895785.673 7  95585641.398 7
R16  23124536.715 7  23124541.541 7 123527127.028 7  96076481.111 7
R17  19239862.820 8  19239864.031 7 102956392.932 8  80077248.546 7
R18  21213483.718 5  21213469.647 4 113238866.04215
R24  21658275.142 7  21658278.989 7 115816529.269 7  90079525.669 7
> 2025 06 15 11 14 15.0000000  0 26
C19  22230067.470 8                 115757787.947 8
C20  24170983.261 7                 125864649.998 7
C22  23964849.125 8                 124791269.368 8
C29  24848336.047 6                 129391825.872 6
C35  21651778.260 8                 112746496.200 8
C44  22786834.867 8                 118657032.060 8
E02  26728243.226 6  26728244.107 5 140457768.785 6 106255425.14215
E04  25971491.534 6  25971494.550 7 136481113.578 6 103247040.556 7
E06  25176230.838 7  25176234.714 8 132301986.963 7 100085609.007 8
E09  25441214.354 7  25441217.159 8 133694481.291 7 101139021.050 8
E11  26201987.597 7  26201988.121 7 137692378.030 7 104163354.594 7
E30  26556448.219 7  26556451.135 8 139555070.168 7 105572519.451 8
E34  25115033.395 8  25115036.237 9 131980388.738 8  99842319.047 9
E36  23509398.243 8  23509400.782 9 123542718.492 8  93459274.749 9
G01  22112084.451 7                  22112089.052 7  22112091.016 8 116199785.813 7                  90545309.144 7  86772596.984 8
G02  20939516.909 8  20939517.208 6                                 110037900.398 8  85743822.018 6                
G08  20847390.049 8                  20847396.744 8  20847393.304 8 109553768.594 8                  85366601.849 8  81809646.634 8
G10  22265039.319 7                  22265045.192 7  22265041.544 8 117003570.221 7                  91171637.306 7  87372802.623 8
G27  22846651.491 7                  22846659.851 7  22846657.866 8 120059961.336 7                  93553246.444 7  89655186.505 8
G32  22021958.050 8                  22021963.556 7  22021960.703 8 115726166.125 8                  90176262.065 7  86418904.594 8
R01  20631220.682 7                 110285675.186 7
R02  19753029.585 8  19753031.495 8 105405949.049 8  81982565.823 8
R03  22945227.711 7  22945235.133 7 122827610.433 7  95532616.339 7
R16  23131662.930 7  23131667.374 7 123565190.944 7  96106086.349 7
R17  19238966.214 8  19238967.419 7 102951595.850 8  80073517.489 7
R24  21666851.879 8  21666855.439 7 115862391.263 8  90115196.085 7
> 2025 06 15 11 14 30.0000000  0 27
C19  22228761.302 8                 115750985.288 8
C20  24177795.287 7                 125900122.693 7
C22  23955579.192 8                 124742994.773 8
C29  24856929.535 6                 129436579.099 6
C35  21653093.292 8                 112753343.712 8
C44  22780432.460 8                 118623691.340 8
E02  26736076.115 6  26736080.243 6 140498950.929 6 106286579.089 6
E04  25973617.496 6  25973620.162 7 136492283.161 6 103255490.279 7
E06  25174322.758 7  25174326.925 8 132291960.881 7 100078024.377 8
E09  25435672.290 7  25435675.881 8 133665362.063 7 101116992.596 8
E11  26208118.942 7  26208119.533 7 137724598.628 7 104187729.222 7
E30  26558393.326 7  26558396.763 8 139565294.114 7 105580253.788 8
E34  25109337.867 8  25109341.117 8 131950460.426 8  99819678.513 8
E36  23510125.208 8  23510127.835 9 123546539.131 8  93462165.044 9
G01  22104441.599 7                  22104446.019 7  22104447.555 8 116159621.127 7                  90514012.042 7  86742603.907 8
G02  20936669.536 8  20936669.440 6                                 110022936.979 8  85732162.198 6                
G08  20852104.133 7                  20852111.139 8  20852107.342 9 109578542.258 7                  85385905.995 8  81828146.452 9
G10  22271882.040 7                  22271887.520 7  22271884.144 8 117039527.896 7                  91199656.262 7  87399654.118 8
G27  22856523.663 7                  22856531.011 7  22856529.921 8 120111837.939 7                  93593669.720 7  89693925.464 8
G32  22019293.400 8                  22019299.547 7  22019296.246 8 115712165.881 8                  90165352.817 7  86408449.887 8
R01  20638161.398 7                 110322777.625 7
R02  19748154.428 8  19748156.984 8 105379934.572 8  81962332.327 8
R03  22932499.102 7  22932505.918 7 122759474.197 7  95479621.601 7
R16  23138812.817 8  23138817.907 7 123603384.439 8  96135792.361 7
R17  19238093.050 8  19238094.665 7 102946923.958 8  80069883.778 7
R18  21195560.705 4  21195557.748 5 113143250.08214  88000318.51315
R24  21675442.262 8  21675445.945 7 115908326.856 8  90150923.729 7
> 2025 06 15 11 14 45.0000000  0 28
C19  22227478.172 8                 115744304.224 8
C20  24184622.274 7                 125935670.491 7
C22  23946319.036 8                 124694774.711 8
C29  24865529.471 4                                
C35  21654426.897 8                 112760287.409 8
C44  22774041.142 8                 118590411.084 8
E02  26743919.483 5  26743923.040 5 140540166.258 5 106317758.156 5
E04  25975763.625 7  25975765.227 8 136503555.643 7 103264017.865 8
E06  25172434.869 7  25172439.203 8 132282040.118 7 100070519.430 8
E09  25430147.383 7  25430150.837 8 133636327.985 7 101095028.520 8
E11  26214254.829 7  26214255.049 7 137756840.879 7 104212120.260 7
E30  26560358.292 7  26560362.088 8 139575620.860 7 105588065.842 8
E34  25103646.835 7  25103650.724 8 131920557.590 7  99797057.232 8
E36  23510861.471 8  23510864.115 9 123550408.710 8  93465092.363 9
G01  22096807.207 7                  22096811.281 8  22096813.117 8 116119502.289 7                  90482750.632 8  86712645.067 8
G02  20933835.716 8  20933835.376 6                                 110008045.116 8  85720558.140 6                
G03  23943950.404 5                  23943961.436 5  23943960.343 6 125826259.28115                  98046511.88415  93961252.267 6
G08  20856841.977 7                  20856848.704 8  20856845.447 8 109603438.849 7                  85405305.917 8  81846738.047 8
G10  22278735.742 8                  22278741.779 7  22278738.574 8 117075546.436 8                  91227722.636 7  87426551.056 8
G27  22866405.641 7                  22866413.122 7  22866411.728 8 120163768.825 7                  93634135.281 7  89732704.965 8
G32  22016655.030 8                  22016661.026 7  22016658.294 8 115698300.945 8                  90154548.962 7  86398096.217 8
R01  20645131.073 7                 110360031.565 7
R02  19743314.250 8  19743316.435 7 105354104.871 8  81942242.574 7
R03  22919779.175 7  22919785.087 7 122691380.172 7  95426659.718 7
R16  23145986.847 7  23145992.729 7 123641709.616 7  96165600.780 7
R17  19237244.315 8  19237245.227 7 102942380.285 8  80066349.811 7
R18  21186613.372 5  21186608.910 4 113095523.559 5  87963198.11914
R24  21684046.461 7  21684050.966 7 115954338.003 7  90186710.183 7
> 2025 06 15 11 15  0.0000000  0 27
C19  22226216.800 8                 115737735.808 8
C20  24191461.063 7                 125971284.179 7
C22  23937066.696 7                 124646600.437 7
C35  21655777.035 8                 112767318.380 8
C44  22767659.800 8                 118557182.619 8
E02  26751766.167 6  26751770.921 5 140581405.497 6 106348955.381 5
E04  25977926.388 7  25977928.259 7 136514922.022 7 103272616.440 7
E06  25170565.481 7  25170569.649 8 132272215.843 7 100063087.423 8
E09  25424636.374 7  25424640.292 8 133607370.151 7 101073122.147 8
E11  26220392.930 7  26220393.076 7 137789095.789 7 104236520.878 7
E30  26562342.122 8  26562345.109 8 139586041.236 8 105595948.771 8
E34  25097959.791 7  25097963.519 8 131890671.271 7  99774448.438 8
E36  23511605.547 8  23511608.022 9 123554318.239 8  93468049.878 9
G01  22089179.989 7                  22089183.943 7  22089186.125 8 116079420.453 7                  90451518.022 7  86682713.855 8
G02  20931013.683 8  20931014.328 6                                 109993215.809 8  85709002.868 6                
G03  23933335.359 5                  23933346.302 6  23933344.198 6 125770478.652 5                  98003046.505 6  93919597.967 6
G08  20861601.492 7                  20861607.754 7  20861604.845 8 109628449.202 7                  85424794.517 7  81865414.577 8
G10  22285600.117 8                  22285605.721 7  22285602.518 8 117111616.670 8                  91255829.267 7  87453486.584 8
G27  22876296.442 7                  22876303.801 7  22876302.046 8 120215744.718 7                  93674635.958 7  89771518.075 8
G32  22014040.739 8                  22014046.535 7  22014043.932 8 115684562.388 8                  90143843.635 7  86387836.959 8
R01  20652125.857 7                 110397427.372 7
R02  19738506.510 8  19738508.621 7 105328451.017 8  81922289.597 7
R03  22907064.767 7  22907070.501 7 122623319.244 7  95373723.545 7
R16  23153184.356 7  23153189.339 7 123680156.917 7  96195504.168 7
R17  19236417.218 8  19236418.384 8 102937955.408 8  80062908.224 8
R18  21177681.443 4  21177677.293 4                  87926109.886 4
R24  21692663.321 8  21692667.492 7 116000415.770 8  90222548.418 7
> 2025 06 15 11 15 15.0000000  0 26
C19  22224976.105 8                 115731274.697 8
C20  24198311.588 7                 126006958.286 7
C22  23927823.087 7                 124598466.946 7
C35  21657143.188 8                 112774431.364 8
C44  22761287.440 7                 118524000.799 7
E02  26759616.768 6  26759623.087 6 140622663.271 6 106380166.44216
E04  25980106.542 7  25980108.330 8 136526376.756 7 103281281.885 8
E06  25168713.952 7  25168717.330 8 132262482.668 7 100055724.365 8
E09  25419139.468 7  25419143.287 8 133578483.427 7 101051269.571 8
E11  26226531.955 7  26226532.478 7 137821358.022 7 104260927.025 7
E30  26564342.427 8  26564344.868 8 139596549.829 8 105603898.427 8
E34  25092274.547 7  25092278.497 8 131860796.222 7  99751848.171 8
E36  23512356.016 8  23512358.577 9 123558262.394 8  93471033.604 9
G01  22081558.795 7                  22081562.544 7  22081564.686 8 116039370.401 7                  90420310.214 7  86652806.369 8
G02  20928202.523 8  20928203.644 6                                 109978443.803 8  85697492.210 6                
G03  23922727.045 4                  23922735.024 5  23922732.765 6 125714716.18714                  97959595.354 5  93877957.408 6
G08  20866381.593 7                  20866387.463 8  20866384.688 9 109653567.774 7                  85444367.427 8  81884171.954 9
G10  22292472.527 8                  22292479.051 7  22292475.482 8 117147732.907 8                  91283971.781 7  87480456.497 8
G27  22886195.150 7                  22886202.422 7  22886200.331 8 120267760.026 7                  93715167.332 7  89810360.613 8
G32  22011449.192 8                  22011455.036 7  22011452.521 8 115670945.068 8                  90133232.742 7  86377668.198 8
R01  20659146.681 7                 110434958.994 7
R02  19733730.898 8  19733733.041 7 105302967.937 8  81902469.456 7
R03  22894355.549 7  22894362.175 7 122555286.888 7  95320809.662 7
R16  23160403.696 7  23160408.205 7 123718720.335 7  96225497.946 7
R17  19235611.271 8  19235612.868 7 102933644.210 8  80059555.106 7
R24  21701291.080 7  21701295.325 7 116046554.317 7  90258433.813 7
> 2025 06 15 11 15 30.0000000  0 25
C19  22223755.909 8                 115724922.399 8
C20  24205174.222 6                 126042693.984 6
C22  23918588.032 7                 124550375.962 7
C35  21658526.374 8                 112781627.872 8
C44  22754924.865 8                 118490867.330 8
E02  26767472.965 6  26767478.245 6 140663940.639 6 106411392.441 6
E04  25982302.914 7  25982305.348 8 136537921.355 7 103290015.290 8
E06  25166879.776 8  25166882.677 8 132252842.163 8 100048431.416 8
E09  25413656.423 7  25413660.106 8 133549669.545 7 101029472.073 8
E11  26232673.123 7  26232673.358 7 137853629.013 7 104285339.759 7
E30  26566358.790 8  26566361.633 8 139607148.021 8 105611915.906 8
E34  25086592.089 7  25086595.823 8 131830933.966 7  99729257.577 8
E36  23513113.256 8  23513115.997 9 123562242.659 8  93474044.650 9
G01  22073943.392 7                  22073947.838 8  22073949.806 8 115999353.773 7                  90389128.463 8  86622923.849 8
G02  20925402.940 8  20925403.342 6                                 109963730.783 8  85686027.522 6                
G08  20871182.687 7                  20871188.313 8  20871185.314 8 109678795.931 7                  85464025.690 8  81903011.132 8
G10  22299354.032 8                  22299360.453 7  22299357.403 8 117183896.527 8                  91312151.219 7  87507461.775 8
G27  22896100.819 7                  22896108.325 7  22896106.251 8 120319815.858 7                  93755730.288 7  89849233.449 8
G32  22008881.466 8                  22008887.140 7  22008884.786 8 115657450.595 8                  90122717.544 7  86367591.149 8
R01  20666193.648 7                 110472627.693 7
R02  19728987.356 8  19728990.249 8 105277657.446 8  81882783.553 8
R03  22881652.508 7  22881658.868 7 122487284.718 7  95267919.212 7
R16  23167644.865 7  23167649.350 7 123757401.021 7  96255582.927 7
R17  19234827.353 8  19234829.174 8 102929448.344 8  80056291.645 8
R24  21709930.744 7  21709934.844 7 116092755.027 7  90294367.679 7
> 2025 06 15 11 15 45.0000000  0 26
C19  22222556.773 8                 115718678.391 8
C20  24212047.476 6                 126078490.643 6
C22  23909360.790 7                 124502327.212 7
C35  21659922.823 8                 112788907.481 8
C44  22748571.302 8                 118457781.927 8
E02  26775331.335 6  26775336.912 6 140705236.858 6 106442632.700 6
E04  25984516.780 7  25984519.123 7 136549555.220 7 103298816.212 7
E06  25165062.544 8  25165065.722 8 132243293.937 8 100041208.259 8
E09  25408187.418 7  25408190.757 8 133520928.127 7 101007729.440 8
E11  26238815.505 7  26238815.971 7 137885908.226 7 104309758.764 7
E30  26568391.891 7  26568395.414 8 139617835.285 7 105620000.753 8
E34  25080912.208 7  25080915.546 8 131801084.017 7  99706676.329 8
E36  23513877.390 8  23513880.217 9 123566258.618 8  93477082.698 9
G01  22066334.315 7                  22066339.548 7  22066341.344 8 115959370.226 7                  90357972.508 7  86593066.058 8
G02  20922614.050 8  20922614.390 6                                 109949076.259 8  85674608.411 6                
G03  23901514.309 5                  23901524.111 6  23901523.123 6 125603256.22315                  97872739.699 6  93794720.668 6
G08  20876003.452 8                  20876009.843 8  20876006.829 8 109704132.999 8                  85483768.825 8  81921931.640 8
G10  22306244.594 8                  22306250.534 7  22306247.607 8 117220106.801 8                  91340366.995 7  87534501.888 8
G27  22906014.608 7                  22906021.516 7  22906019.853 8 120371911.530 7                  93796324.267 7  89888136.029 8
G32  22006336.776 8                  22006342.946 7  22006340.091 8 115644078.526 8                  90112297.764 7  86357605.527 8
R01  20673265.731 7                 110510432.573 7
R02  19724276.606 8  19724278.551 7 105252519.063 8  81863231.469 7
R03  22868954.998 7  22868961.006 7 122419312.446 7  95215052.084 7
R16  23174907.421 7  23174912.582 7 123796197.713 7  96285758.112 7
R17  19234064.500 8  19234066.785 8 102925367.546 8  80053117.733 8
R24  21718582.377 7  21718586.719 7 116139017.315 7  90330349.459 7
> 2025 06 15 11 16  0.0000000  0 28
C19  22221377.923 7                 115712540.578 7
C20  24218933.540 6                 126114345.822 6
C22  23900141.367 8                 124454318.765 8
C29  24908606.318 5                 129705628.43415
C35  21661336.119 8                 112796268.065 8
C44  22742226.407 8                 118424742.683 8
E02  26783194.303 6  26783198.907 7 140746549.479 6 106473885.476 7
E04  25986747.749 7  25986749.526 7 136561276.082 7 103307682.926 7
E06  25163263.261 7  25163265.894 8 132233835.893 7 100034053.347 8
E09  25402731.329 7  25402734.739 8 133492257.292 7 100986040.172 8
E11  26244958.850 7  26244959.633 7 137918193.568 7 104334182.369 7
E30  26570441.197 7  26570445.900 8 139628609.430 7 105628151.322 8
E34  25075233.754 8  25075237.194 8 131771244.400 8  99684102.854 8
E36  23514648.305 8  23514650.824 9 123570308.123 8  93480146.109 9
G01  22058731.885 7                  22058736.967 7  22058739.191 8 115919417.793 7                  90326840.763 7  86563231.495 8
G02  20919836.131 8  20919836.299 6                                 109934478.276 8  85663233.361 6                
G03  23890918.490 5                  23890923.703 6  23890922.826 7 125547551.291 5                  97829333.342 6  93753122.946 7
G08  20880845.676 7                  20880851.724 8  20880848.529 8 109729576.679 7                  85503595.068 8  81940931.786 8
G10  22313143.871 8                  22313150.086 7  22313146.573 8 117256361.350 8                  91368617.303 7  87561575.095 8
G27  22915934.665 7                  22915942.317 7  22915940.498 8 120424044.614 7                  93836947.425 7  89927066.558 8
G32  22003815.166 8                  22003821.507 7  22003817.213 8 115630826.885 8                  90101971.839 7  86347709.839 8
R01  20680363.092 7                 110548370.780 7
R02  19719597.592 8  19719599.064 7 105227550.736 8  81843811.643 7
R03  22856261.828 7  22856268.423 7 122351368.805 7  95162207.129 7
R16  23182191.873 8  23182196.696 7 123835108.069 8  96316021.651 7
R17  19233323.028 8  19233324.722 7 102921399.776 8  80050031.643 7
R18  21142021.478 5                 112857516.81515
R24  21727244.948 7  21727248.559 7 116185339.018 7  90366377.398 7
> 2025 06 15 11 16 15.0000000  0 28
C19  22220219.862 7                 115706511.190 7
C20  24225830.933 6                 126150261.426 6
C22  23890929.275 8                 124406353.138 8
C29  24917226.929 5                 129750542.423 5
C35  21662766.338 8                 112803711.969 8
C44  22735891.158 8                 118391752.116 8
E02  26791057.952 6  26791064.164 7 140787880.832 6 106505152.305 7
E04  25988995.064 7  25988997.064 7 136573086.215 7 103316617.199 7
E06  25161480.677 7  25161483.760 8 132224470.445 7 100026968.434 8
E09  25397289.384 7  25397292.661 8 133463659.474 7 100964406.141 8
E11  26251104.205 7  26251104.966 7 137950487.298 7 104358612.343 7
E30  26572508.687 7  26572513.349 8 139639472.604 7 105636369.236 8
E34  25069558.081 8  25069561.206 9 131741417.433 8  99661538.968 9
E36  23515425.884 8  23515428.281 9 123574393.464 8  93483236.654 9
G01  22051135.475 7                  22051140.326 7  22051142.609 8 115879498.959 7                  90295735.163 7  86533421.977 8
G02  20917069.790 7  20917069.645 6                                 109919939.131 7  85651904.154 6                
G03  23880320.857 5                  23880326.530 5  23880326.069 7 125491866.593 5                  97785942.762 5  93711540.313 7
G08  20885707.506 8                  20885714.298 8  20885711.095 8 109755129.090 8                  85523506.049 8  81960013.144 8
G10  22320051.721 7                  22320058.188 7  22320054.550 8 117292662.262 7                  91396903.705 7  87588682.897 8
G27  22925863.485 7                  22925870.642 7  22925867.922 8 120476217.138 7                  93877601.298 7  89966026.506 8
G32  22001316.481 8                  22001323.064 7  22001319.296 8 115617698.095 8                  90091741.644 7  86337905.913 8
R01  20687485.467 7                 110586444.335 7
R02  19714950.981 8  19714952.906 7 105202755.159 8  81824526.256 7
R03  22843576.304 7  22843581.016 7 122283456.348 7  95109386.458 7
R16  23189497.380 7  23189502.779 7 123874133.526 7  96346374.778 7
R17  19232603.103 8  19232604.540 7 102917547.521 8  80047035.479 7
R18  21133117.709 5  21133115.576 5 112810018.461 5  87741199.13315
R24  21735918.515 7  21735922.186 7 116231722.149 7  90402453.092 7
> 2025 06 15 11 16 30.0000000  0 28
C19  22219084.208 8                 115700593.837 8
C20  24232740.927 7                 126186240.933 7
C22  23881726.925 7                 124358434.165 7
C29  24925859.024 5                 129795480.614 5
C35  21664213.012 8                 112811242.861 8
C44  22729565.369 8                 118358813.983 8
E02  26798923.495 5  26798933.096 7 140829234.286 5 106536435.733 7
E04  25991260.428 7  25991261.770 7 136584989.098 7 103325621.645 7
E06  25159716.095 8  25159719.792 8 132215201.199 8 100019956.330 8
E09  25391861.912 7  25391865.117 8 133435138.530 7 100942830.256 8
E11  26257251.235 7  26257252.534 7 137982793.034 7 104383051.387 7
E30  26574593.862 7  26574598.248 8 139650428.423 7 105644657.232 8
E34  25063885.532 8  25063888.408 9 131711606.794 8  99638987.446 9
E36  23516210.463 8  23516213.282 9 123578518.343 8  93486357.101 9
G01  22043546.670 7                  22043551.088 7  22043552.513 8 115839617.386 7                  90264658.663 7  86503640.306 8
G02  20914315.030 8  20914314.986 6                                 109905462.563 8  85640623.742 6                
G03  23869732.232 5                  23869733.700 5  23869733.406 7 125436205.959 5                  97742571.054 5  93669975.647 7
G08  20890591.416 7                  20890598.083 7  20890595.012 8 109780793.717 7                  85543504.462 7  81979178.283 8
G10  22326969.210 7                  22326975.249 7  22326971.703 8 117329012.971 7                  91425228.904 7  87615827.844 8
G27  22935800.160 7                  22935807.085 7  22935803.887 8 120528432.502 7                  93918288.537 7  90005018.439 8
G32  21998842.505 8                  21998848.591 7  21998846.292 8 115604695.947 8                  90081610.112 7  86328196.533 8
R01  20694634.128 7                 110624656.522 7
R02  19710337.564 8  19710339.923 7 105178136.372 8  81805378.329 7
R03  22830894.728 7  22830900.524 7 122215579.453 7  95056593.440 7
R16  23196825.450 7  23196830.584 7 123913277.681 7  96376820.196 7
R17  19231905.525 8  19231907.452 7 102913814.685 8  80044132.151 7
R18  21124222.946 4  21124225.307 6 112762562.75714  87704289.050 6
R24  21744604.991 7  21744608.987 7 116278170.342 7  90438579.417 7
> 2025 06 15 11 16 45.0000000  0 27
C19  22217968.918 8                 115694787.615 8
C20  24239662.046 6                 126222283.130 6
C22  23872533.893 7                 124310561.196 7
C29  24934486.102 5                 129840442.030 5
C35  21665675.007 8                 112818859.841 8
C44  22723250.093 7                 118325927.584 7
E02  26806798.887 5  26806806.198 7 140870608.37915 106567734.962 7
E04  25993542.666 7  25993543.928 7 136596983.735 7 103334695.536 7
E06  25157970.107 7  25157973.903 8 132206027.362 7 100013016.404 8
E09  25386448.946 7  25386452.244 8 133406693.697 7 100921311.950 8
E11  26263401.867 6  26263402.433 7 138015109.854 6 104407498.795 7
E30  26576696.737 7  26576700.479 8 139661475.820 7 105653014.503 8
E34  25058215.505 8  25058218.601 8 131681811.666 8  99616447.634 8
E36  23517002.866 8  23517005.529 9 123582681.875 8  93489506.786 9
G01  22035964.066 7                  22035968.766 7  22035970.675 8 115799772.462 7                  90233610.640 7  86473885.979 8
G02  20911571.642 7  20911571.924 6                                 109891047.850 7  85629391.520 6                
G08  20895496.818 7                  20895503.372 8  20895500.080 9 109806569.482 7                  85563589.457 8  81998426.393 9
G10  22333895.410 7                  22333901.902 7  22333897.885 8 117365412.328 7                  91453592.007 7  87643009.172 8
G27  22945743.469 7                  22945751.500 7  22945748.417 8 120580689.503 7                  93959008.200 7  90044041.440 8
G32  21996392.423 8                  21996398.539 8  21996395.945 8 115591819.612 8                  90071576.632 8  86318581.088 8
R01  20701808.292 7                 110663005.956 7
R02  19705756.564 8  19705758.894 7 105153693.489 8  81786367.204 7
R03  22818222.881 7  22818227.389 7 122147737.238 7  95003827.407 7
R16  23204175.686 7  23204179.981 7 123952539.067 7  96407356.754 7
R17  19231230.487 8  19231231.933 7 102910200.538 8  80041321.160 7
R18  21115340.371 4  21115341.836 5 112715149.141 4  87667411.832 5
R24  21753302.971 7  21753306.862 7 116324682.557 7  90474755.508 7
> 2025 06 15 11 17  0.0000000  0 28
C19  22216876.010 8                 115689097.817 8
C20  24246596.459 6                 126258393.209 6
C22  23863350.188 8                 124262739.763 8
C29  24943130.580 5                 129885431.60515
C35  21667155.053 8                 112826568.253 8
C44  22716945.596 8                 118293098.499 8
E02  26814677.676 5  26814683.481 7 140912008.409 5 106599053.729 7
E04  25995843.810 7  25995844.498 7 136609075.468 7 103343842.837 7
E06  25156243.890 7  25156247.378 8 132196954.348 7 100006152.746 8
E09  25381051.649 7  25381054.941 8 133378330.543 7 100899855.447 8
E11  26269554.648 7  26269555.296 7 138047443.063 7 104431958.671 7
E30  26578817.497 7  26578820.980 8 139672620.080 7 105661445.058 8
E34  25052550.075 8  25052552.894 9 131652037.459 8  99593923.653 9
E36  23517803.214 8  23517806.172 9 123586889.419 8  93492689.757 9
G01  22028390.244 7                  22028393.528 7  22028396.296 8 115759969.587 7                  90202595.435 7  86444163.075 8
G02  20908841.264 8  20908841.599 6                                 109876700.438 8  85618211.712 6                
G03  23848559.425 6                  23848566.137 5  23848563.023 6 125324956.59816                  97655886.41515  93586902.900 6
G08  20900423.890 7                  20900430.366 8  20900427.246 8 109832461.581 7                  85583765.088 8  82017761.375 8
G10  22340831.932 8                  22340838.391 7  22340834.864 8 117401865.513 8                  91481997.047 7  87670230.664 8
G27  22955696.826 7                  22955704.495 7  22955701.959 8 120632993.101 7                  93999764.209 7  90083099.286 8
G32  21993967.193 7                  21993973.321 7  21993970.399 8 115579074.574 7                  90061645.449 7  86309063.707 8
R01  20709008.447 7                 110701497.622 7
R02  19701210.332 8  19701212.488 8 105129431.923 8  81767497.089 8
R03  22805555.558 7  22805561.255 7 122079936.222 7  94951093.356 7
R16  23211547.922 7  23211552.914 7 123991922.230 7  96437988.079 7
R17  19230578.179 8  19230579.950 8 102906710.532 8  80038606.702 8
R18  21106467.616 6  21106470.151 6 112667782.895 6  87630571.516 6
R24  21762013.738 7  21762018.040 7 116371264.031 7  90510985.527 7
> 2025 06 15 11 17 15.0000000  0 28
C19  22215805.282 8                 115683522.660 8
C20  24253543.611 6                 126294569.061 6
C22  23854175.236 7                 124214968.342 7
C29  24951772.648 5                 129930447.399 5
C35  21668653.266 8                 112834366.422 8
C44  22710651.827 8                 118260325.151 8
E02  26822561.287 6  26822565.911 7 140953432.426 6 106630390.632 7
E04  25998162.457 7  25998163.556 7 136621262.422 7 103353062.144 7
E06  25154536.994 7  25154539.733 8 132187980.487 7  99999364.080 8
E09  25375669.722 7  25375672.930 8 133350047.468 7 100878459.553 8
E11  26275709.950 7  26275710.839 7 138079790.949 7 104456429.571 7
E30  26580956.235 7  26580959.512 8 139683859.388 7 105669947.511 8
E34  25046887.827 8  25046890.711 9 131622282.474 8  99571414.209 9
E36  23518612.100 8  23518614.887 9 123591139.236 8  93495904.721 9
G01  22020823.655 7                  22020827.064 7  22020829.783 8 115720207.178 7                  90171611.775 7  86414470.390 8
G02  20906123.464 8  20906124.583 6                                 109862418.546 8  85607082.979 6                
G03  23837980.758 6                  23837988.983 5  23837986.588 6 125269375.675 6                  97612576.655 5  93545397.778 6
G08  20905372.878 7                  20905378.988 8  20905376.000 8 109858468.076 7                  85604029.858 8  82037181.779 8
G10  22347779.031 8                  22347784.675 7  22347781.546 8 117438370.508 8                  91510442.490 7  87697490.873 8
G27  22965658.302 7                  22965665.933 7  22965664.021 8 120685341.421 7                  94040555.047 7  90122190.503 8
G32  21991565.993 8                  21991572.418 8  21991569.499 8 115566459.219 8                  90051815.339 8  86299643.194 8
R01  20716235.349 7                 110740129.307 7
R02  19696697.245 8  19696699.023 7 105105350.560 8  81748767.129 7
R03  22792899.280 7  22792902.982 7 122012174.631 7  94898390.050 7
R16  23218942.789 7  23218947.315 7 124031425.411 7  96468712.786 7
R17  19229948.537 8  19229950.305 8 102903343.200 8  80035987.681 8
R18  21097605.103 5  21097605.405 5 112620463.188 5  87593767.337 5
R24  21770737.422 7  21770741.471 7 116417912.863 7  90547267.942 7
> 2025 06 15 11 17 30.0000000  0 28
C19  22214756.997 8                 115678063.926 8
C20  24260504.896 6                 126330812.356 6
C22  23845012.093 8                 124167249.060 8
C29  24960424.507 5                 129975491.517 5
C35  21670167.647 7                 112842256.150 7
C44  22704368.955 8                 118227609.563 8
E02  26830456.357 6  26830453.419 7 140994881.965 6 106661746.880 7
E04  26000501.284 7  26000501.156 7 136633546.308 7 103362354.853 7
E06  25152847.342 7  25152851.235 8 132179107.589 7  99992651.813 8
E09  25370303.516 7  25370306.434 8 133321846.467 7 100857125.737 8
E11  26281869.249 7  26281869.447 7 138112155.289 7 104480912.968 7
E30  26583113.414 7  26583116.583 8 139695195.482 7 105678523.166 8
E34  25041228.875 8  25041232.546 8 131592548.584 8  99548920.738 8
E36  23519429.464 8  23519431.976 9 123595433.199 8  93499153.071 9
G01  22013265.609 7                  22013268.791 7  22013271.370 8 115680487.200 7                  90140661.204 7  86384809.402 8
G02  20903418.601 8  20903420.193 6                                 109848204.112 8  85596006.809 6                
G03  23827409.326 5                  23827417.460 5  23827417.589 6 125213824.10815                  97569289.701 5  93503914.573 6
G08  20910343.433 7                  20910350.136 7  20910347.099 8 109884590.613 7                  85624385.078 7  82056688.855 8
G10  22354735.985 8                  22354741.682 7  22354738.444 8 117474928.975 8                  91538929.597 7  87724790.990 8
G27  22975628.851 7                  22975636.421 7  22975634.445 8 120737735.944 7                  94081381.923 7  90161316.219 8
G32  21989190.240 8                  21989196.514 7  21989193.662 8 115553975.457 8                  90042087.751 7  86290320.941 8
R01  20723488.566 7                 110778902.536 7
R02  19692218.508 8  19692220.418 7 105081450.992 8  81730178.639 7
R03  22780245.243 7  22780252.152 7 121944454.523 7  94845718.964 7
R16  23226360.324 7  23226365.872 7 124071049.928 7  96499531.783 7
R17  19229342.851 8  19229344.842 8 102900100.501 8  80033465.571 8
R18  21088748.645 5  21088749.620 6 112573191.816 5  87557000.691 6
R24  21779473.592 7  21779478.154 7 116464630.763 7  90583603.944 7
> 2025 06 15 11 17 45.0000000  0 27
C19  22213730.631 8                 115672719.777 8
C20  24267476.805 6                 126367120.945 6
C22  23835857.882 8                 124119580.151 8
C35  21671700.113 7                 112850235.651 7
C44  22698096.823 8                 118194950.104 8
E02  26838348.669 6  26838345.394 7 141036354.906 6 106693120.795 7
E04  26002855.663 7  26002857.005 7 136645925.179 7 103371719.428 7
E06  25151177.950 7  25151181.625 8 132170333.889 7  99986014.597 8
E09  25364951.952 7  25364955.219 8 133293725.943 7 100835852.768 8
E11  26288031.320 7  26288030.842 7 138144534.191 7 104505407.383 7
E30  26585288.805 7  26585291.724 8 139706626.416 7 105687170.562 8
E34  25035574.434 7  25035577.983 9 131562834.009 7  99526441.900 9
E36  23520254.055 8  23520257.147 9 123599769.451 8  93502433.422 9
G01  22005714.561 7                  22005718.672 7  22005720.720 8 115640807.983 7                  90109742.365 7  86355178.873 8
G02  20900726.266 8  20900726.915 6                                 109834055.386 8  85584981.839 6                
G03  23816843.165 6                  23816851.920 5  23816851.435 5 125158300.363 6                  97526024.428 5  93462452.063 5
G08  20915336.064 7                  20915342.653 8  20915339.551 8 109910827.189 7                  85644829.147 8  82076281.076 8
G10  22361702.594 8                  22361708.492 7  22361705.309 8 117511538.750 8                  91567456.688 7  87752129.487 8
G27  22985607.691 7                  22985615.190 7  22985613.168 8 120790174.529 7                  94122243.120 7  90200474.840 8
G32  21986839.617 8                  21986845.726 7  21986843.177 8 115541621.576 8                  90032461.349 7  86281095.633 8
R01  20730768.383 7                 110817814.823 7
R02  19687773.369 8  19687775.819 7 105057731.878 8  81711730.444 7
R03  22767603.935 7  22767609.389 7 121876774.822 7  94793079.291 7
R16  23233800.708 7  23233805.659 7 124110793.160 7  96530443.108 7
R17  19228760.018 8  19228761.826 7 102896980.812 8  80031039.128 7
R18  21079902.134 5  21079903.256 5 112525967.203 5  87520270.526 5
R24  21788222.754 7  21788227.238 7 116511415.544 7  90619992.075 7
> 2025 06 15 11 18  0.0000000  0 28
C19  22212727.475 8                 115667493.352 8
C20  24274464.753 6                 126403497.672 6
C22  23826713.475 7                 124071965.063 7
C29  24977737.073 5                 130065659.02715
C35  21673250.764 8                 112858308.143 8
C44  22691836.252 8                 118162350.114 8
E02  26846260.904 5  26846242.801 7 141077854.338 5 106724514.687 7
E04  26005229.879 7  26005231.620 7 136658402.219 7 103381158.229 7
E06  25149527.724 7  25149531.540 8 132161662.629 7  99979454.882 8
E09  25359616.807 7  25359620.035 8 133265689.199 7 100814643.214 8
E11  26294195.692 7  26294195.671 7 138176930.858 7 104529915.201 7
E30  26587482.451 7  26587485.724 8 139718155.173 7 105695892.003 8
E34  25029924.564 8  25029927.732 9 131533142.019 8  99503980.138 9
E36  23521088.220 8  23521090.953 9 123604151.215 8  93505748.198 9
G01  21998172.331 7                  21998176.762 8  21998178.824 8 115601172.844 7                  90078857.903 8  86325581.260 8
G02  20898047.075 8  20898047.546 6                                 109819975.731 8  85574010.686 6                
G03  23806282.518 5                  23806292.222 5  23806287.490 4 125102807.606 5                  97482783.49415  93421012.81414
G08  20920350.846 8                  20920357.516 8  20920354.249 8 109937180.783 8                  85665364.396 8  82095960.686 8
G10  22368679.834 7                  22368685.538 7  22368681.715 8 117548202.875 7                  91596026.108 7  87779508.517 8
G27  22995595.098 7                  22995603.182 7  22995601.031 8 120842660.100 7                  94163140.904 7  90239668.535 8
G32  21984514.162 8                  21984520.223 7  21984516.669 8 115529400.818 8                  90022938.707 7  86271969.748 8
R01  20738074.780 7                 110856868.985 7
R02  19683363.058 8  19683365.316 8 105034196.488 8  81693425.151 8
R03  22754969.748 7  22754974.282 7 121809139.435 7  94740474.093 7
R16  23241263.483 6  23241268.488 7 124150657.883 6  96561448.969 7
R17  19228200.524 8  19228201.751 7 102893987.387 8  80028710.934 7
R18  21071065.186 5  21071065.734 6 112478792.893 5  87483579.476 6
R24  21796985.609 7  21796988.603 7 116558270.581 7  90656434.892 7
> 2025 06 15 11 18 15.0000000  0 29
C05  39248583.195 5                 204377603.51415
C19  22211745.695 8                 115662382.185 8
C20  24281463.617 6                 126439939.988 6
C22  23817578.938 7                 124024401.572 7
C29  24986405.157 6                 130110785.071 6
C35  21674817.770 8                 112866471.129 8
C44  22685587.086 8                 118129807.361 8
E02  26854148.887 5  26854144.083 7 141119377.241 5 106755926.503 7
E04  26007621.193 6  26007624.434 7 136670974.737 6 103390669.256 7
E06  25147897.716 7  25147900.570 8 132153091.417 7  99972970.844 8
E09  25354297.312 7  25354300.320 8 133237733.997 7 100793495.312 8
E11  26300363.712 7  26300363.568 7 138209342.788 7 104554434.596 7
E30  26589694.946 7  26589698.029 8 139729779.326 7 105704685.586 8
E34  25024277.974 8  25024281.459 9 131503470.220 8  99481533.633 9
E36  23521930.508 8  23521933.028 9 123608576.028 8  93509095.534 9
G01  21990638.119 7                  21990642.376 8  21990644.376 8 115561579.517 7                  90048005.979 8  86296014.838 8
G02  20895380.287 8  20895381.228 6                                 109805962.732 8  85563091.440 6                
G03  23795726.970 5                  23795738.065 6  23795730.551 5                                  97439565.025 6  93379595.14615
G08  20925387.775 8                  20925394.237 7  20925390.936 8 109963648.752 8                  85685988.798 7  82115725.729 8
G10  22375666.688 7                  22375672.841 7  22375668.411 8 117584918.672 7                  91624635.802 7  87806926.120 8
G27  23005591.464 7                  23005599.542 7  23005596.663 8 120895189.884 7                  94204073.208 7  90278895.288 8
G32  21982213.623 8                  21982219.629 7  21982216.192 8 115517310.869 8                  90013518.000 7  86262941.568 8
R01  20745406.544 7                 110896062.093 7
R02  19678986.506 8  19678988.489 8 105010842.661 8  81675261.091 8
R03  22742342.517 7  22742347.239 7 121741545.800 7  94687901.430 7
R16  23248748.639 6  23248753.952 7 124190641.155 6  96592547.053 7
R17  19227664.253 8  19227665.714 7 102891117.904 8  80026479.079 7
R18  21062236.485 6  21062237.685 6 112431666.479 6  87446925.714 6
R24  21805759.806 7  21805763.585 7 116605193.121 7  90692930.117 7
> 2025 06 15 11 18 30.0000000  0 28
C19  22210786.987 8                 115657391.283 8
C20  24288474.277 6                 126476452.521 6
C22  23808455.741 7                 123976894.975 7
C29  24995076.572 6                 130155942.540 6
C35  21676404.245 8                 112874729.756 8
C44  22679349.188 8                 118097327.105 8
E02  26862046.308 5  26862051.646 7 141160928.473 5 106787359.808 7
E04  26010034.053 6  26010035.683 7 136683647.792 6 103400256.335 7
E06  25146286.218 8  25146289.587 8 132144625.405 8  99966566.354 8
E09  25348994.049 7  25348997.107 8 133209865.568 7 100772413.041 8
E11  26306534.302 7  26306535.040 7 138241775.002 7 104578969.351 7
E30  26591925.822 8  26591928.888 8 139741503.809 8 105713555.047 8
E34  25018636.869 8  25018639.724 8 131473823.709 8  99459106.255 8
E36  23522781.657 8  23522784.272 9 123613049.012 8  93512479.323 9
G01  21983112.189 7                  21983116.924 8  21983118.622 8 115522033.196 7                  90017190.671 8  86266483.512 8
G02  20892727.345 8  20892728.772 6                                 109792021.466 8  85552228.155 6                
