     3.04           OBSERVATION DATA    Mixed(MIXED)        RINEX VERSION / TYPE
cnvtToRINEX 3.14.0  convertToRINEX OPR  20250615 162114 UTC PGM / RUN BY / DATE 
----------------------------------------------------------- COMMENT             
2116                                                        MARKER NAME         
2116                                                        MARKER NUMBER       
GEODETIC                                                    MARKER TYPE         
GNSS Observer       Trimble                                 OBSERVER / AGENCY   
6337S22116          Geo Explorer 3      6.26                REC # / TYPE / VERS 
                    UNKNOWN EXT     NONE                    ANT # / TYPE        
  3916453.0842  1193364.3623  4874939.0837                  APPROX POSITION XYZ 
        1.5177        0.0000        0.0000                  ANTENNA: DELTA H/E/N
R    4 C1C C2C L1C L2C                                      SYS / # / OBS TYPES 
G    8 C1C C2W C2X C5X L1C L2W L2X L5X                      SYS / # / OBS TYPES 
C    4 C2I C7I L2I L7I                                      SYS / # / OBS TYPES 
E    4 C1X C8X L1X L8X                                      SYS / # / OBS TYPES 
    15.000                                                  INTERVAL            
  2025     6    15    14    37   45.0000000     GPS         TIME OF FIRST OBS   
  2025     6    15    15     0   45.0000000     GPS         TIME OF LAST OBS    
     0                                                      RCV CLOCK OFFS APPL 
  8 R03  5 R04  6 R05  1 R12 -1 R13 -2 R18 -3 R19  3 R20  2 GLONASS SLOT / FRQ #
R L2C -0.25000                                              SYS / PHASE SHIFT   
G L2X -0.25000                                              SYS / PHASE SHIFT   
    18                                                      LEAP SECONDS        
    38                                                      # OF SATELLITES     
   C05    93    93    93    93                              PRN / # OF OBS      
   C06    93    93    93    93                              PRN / # OF OBS      
   C09    93    93    93    93                              PRN / # OF OBS      
   C11    93    93    93    93                              PRN / # OF OBS      
   C12    93    93    93    93                              PRN / # OF OBS      
   C16    93    93    93    93                              PRN / # OF OBS      
   C21    93     0    93     0                              PRN / # OF OBS      
   C22    93     0    93     0                              PRN / # OF OBS      
   C34    93     0    93     0                              PRN / # OF OBS      
   C36    93     0    93     0                              PRN / # OF OBS      
   C39    93     0    93     0                              PRN / # OF OBS      
   C42    93     0    93     0                              PRN / # OF OBS      
   C43    93     0    93     0                              PRN / # OF OBS      
   C44    93     0    93     0                              PRN / # OF OBS      
   E03    93    93    93    93                              PRN / # OF OBS      
   E05    93    93    93    93                              PRN / # OF OBS      
   E09    93    93    93    93                              PRN / # OF OBS      
   E13    37    37    37    37                              PRN / # OF OBS      
   E15    93    93    93    93                              PRN / # OF OBS      
   E34    93    93    93    93                              PRN / # OF OBS      
   G01    93     0    93    93    93     0    93    93      PRN / # OF OBS      
   G02    27     0     0     0    20     0     0     0      PRN / # OF OBS      
   G03    93     0    93    93    93     0    93    93      PRN / # OF OBS      
   G04    93     0    93    93    93     0    93    93      PRN / # OF OBS      
   G06    93     0    93    93    93     0    93    93      PRN / # OF OBS      
   G09    93     0    93    93    93     0    93    93      PRN / # OF OBS      
   G17    93     0    93     0    93     0    93     0      PRN / # OF OBS      
   G19    93    93     0     0    93    93     0     0      PRN / # OF OBS      
   G28    93     0    93    93    92     0    93    93      PRN / # OF OBS      
   G31    93     0    93     0    93     0    93     0      PRN / # OF OBS      
   R03    93    93    93    93                              PRN / # OF OBS      
   R04    93    93    93    93                              PRN / # OF OBS      
   R05    93    93    93    93                              PRN / # OF OBS      
   R12    92    92    92    92                              PRN / # OF OBS      
   R13    93     0    93     0                              PRN / # OF OBS      
   R18    90    86    90    83                              PRN / # OF OBS      
   R19    93    93    93    93                              PRN / # OF OBS      
   R20    93    93    93    93                              PRN / # OF OBS      
DBHZ                                                        SIGNAL STRENGTH UNIT
                                                            END OF HEADER       
> 2025 06 15 14 37 45.0000000  0 37
C05  39188818.563 6  39188816.524 6 204066435.09016 157797127.42416
C06  38300384.462 6  38300379.890 6 199440158.69916 154219758.98316
C09  38665270.503 7  38665267.977 7 201340201.66817 155689017.33217
C11  23415760.926 7  23415758.667 8 121931982.70917  94285652.07018
C12  22798504.259 7  22798501.333 8 118717770.51117  91799954.07918
C16  38881037.980 7  38881039.425 7 202463751.07917 156557816.86017
C21  22291567.502 8                 116078023.73018
C22  22215881.073 8                 115683908.94318
C34  22510820.712 7                 117219737.40717
C36  25399864.694 7                 132263755.89917
C39  38918508.167 7                 202658885.22217
C42  25815821.815 6                 134429756.83916
C43  24926752.980 7                 129800114.52117
C44  23944973.744 7                 124687753.15117
E03  24562634.458 8  24562637.653 9 129077512.81418  97646313.23019
E05  22114058.769 8  22114060.435 9 116210170.12318  87912204.03119
E09  27197592.708 7  27197595.412 8 142924317.70617 108121287.83018
E15  24134338.894 8  24134342.268 9 126826805.05218  95943668.44319
E34  23796093.036 8  23796095.412 9 125049309.79518  94599000.82719
G01  21524379.673 7                  21524383.998 8  21524385.152 8 113111371.68017                  88138753.68918  84466307.38818
G02  24130023.392 4                                                 126804132.35514                                
G03  20051104.340 8                  20051109.529 8  20051107.888 9 105369256.56518                  82105939.64618  78684852.60419
G04  20639860.780 7                  20639864.837 8  20639865.888 8 108463194.71817                  84516795.30118  80995264.44818
G06  23580494.592 6                  23580502.130 7  23580500.832 8 123916335.56916                  96558210.14317  92534946.23018
G09  22873470.875 6                  22873477.814 7  22873477.067 8 120200895.93416                  93663341.69517  89760435.31818
G17  22888015.745 7                  22888020.645 7                 120277330.48117                  93722480.72417
G19  22192671.228 7  22192673.575 6                                 116623268.37017  90875286.79816                
G28  23625839.203 6                  23625844.529 7  23625847.282 8 124154613.95616                  96743883.10717  92712899.67218
G31  22230232.129 7                  22230235.730 7                 116820655.56117                  91029101.19317
R03  20345011.234 8  20345013.726 7 108908433.78718  84706415.32117
R04  19355815.534 8  19355816.766 7 103649504.47318  80616381.72617
R05  22408851.657 7  22408855.425 7 119788149.84317  93168580.39317
R12  22990599.841 6  22990602.054 6 122811717.50216  95520200.19216
R13  23178532.635 6                 123772068.94816
R18  21764560.950 7  21764564.424 7 116180699.56517  90362778.28717
R19  19412685.013 8  19412684.318 7 103844773.32418  80768133.69217
R20  21612952.949 6  21612958.110 7 115574179.53316  89891043.94517
> 2025 06 15 14 38  0.0000000  0 36
C05  39188772.167 6  39188769.668 6 204066192.843 6 157796940.138 6
C06  38299378.599 6  38299373.661 6 199434921.639 6 154215709.363 6
C09  38662760.813 7  38662757.774 7 201327132.032 7 155678911.072 7
C11  23412042.203 7  23412039.703 8 121912616.348 7  94270676.779 8
C12  22804164.251 7  22804161.399 8 118747243.823 7  91822744.693 8
C16  38880483.921 7  38880485.965 7 202460867.085 7 156555586.765 7
C21  22287915.031 8                 116059003.579 8
C22  22220551.119 8                 115708226.285 8
C34  22512058.392 7                 117226180.744 7
C36  25393941.653 7                 132232911.406 7
C39  38919305.148 7                 202663035.066 7
C42  25807374.330 6                 134385770.032 6
C43  24920058.031 7                 129765250.864 7
C44  23953834.369 7                 124733893.888 7
E03  24556476.660 8  24556479.636 9 129045152.959 8  97621833.236 9
E05  22115693.554 8  22115695.202 9 116218760.771 8  87918702.791 9
E09  27205253.413 7  27205255.497 8 142964572.271 7 108151740.138 8
E15  24130114.165 8  24130117.425 9 126804603.497 8  95926873.123 9
E34  23800040.669 8  23800043.229 9 125070055.651 8  94614694.919 9
G01  21531974.166 7                  21531978.040 8  21531979.604 8 113151280.110 7                  88169851.109 8  84496109.099 8
G03  20053458.280 8                  20053463.828 7  20053462.019 9 105381627.467 8                  82115579.308 7  78694090.626 9
G04  20634708.199 7                  20634712.472 8  20634713.494 8 108436118.992 7                  84495697.321 8  80975045.563 8
G06  23571160.399 6                  23571168.025 7  23571166.338 8 123867282.986 6                  96519987.391 7  92498316.101 8
G09  22863674.020 7                  22863680.816 7  22863679.906 8 120149412.539 7                  93623224.786 7  89721989.980 8
G17  22893089.546 7                  22893094.479 7                 120303993.568 7                  93743257.129 7
G19  22193117.217 7  22193119.933 6                                 116625612.344 7  90877113.248 6                
G28  23630702.624 6                  23630707.426 7  23630710.461 8 124180171.322 6                  96763797.940 7  92731984.688 8
G31  22229977.842 6                  22229979.656 6                 116819316.851 6                  91028058.020 6
R03  20351990.462 8  20351992.798 7 108945795.772 8  84735474.610 7
R04  19353323.569 8  19353324.504 7 103636159.822 8  80606002.554 7
R05  22399010.325 7  22399013.935 7 119735543.287 7  93127664.272 7
R12  22990458.948 5  22990460.460 5 122810964.62915  95519614.634 5
R13  23170633.785 6                 123729889.031 6
R18  21776084.279 7  21776087.994 7 116242211.002 7  90410620.447 7
R19  19414610.538 8  19414610.895 7 103855075.256 8  80776146.298 7
R20  21603175.355 6  21603180.990 7 115521894.845 6  89850378.099 7
> 2025 06 15 14 38 15.0000000  0 36
C05  39188725.147 6  39188722.790 6 204065948.161 6 157796750.938 6
C06  38298379.904 6  38298375.589 6 199429721.904 6 154211688.620 6
C09  38660256.619 6  38660254.155 7 201314095.619 6 155668830.510 7
C11  23408345.482 7  23408342.740 8 121893365.334 7  94255790.673 8
C12  22809844.154 7  22809841.391 8 118776819.954 7  91845614.789 8
C16  38879937.040 7  38879939.267 7 202458019.130 7 156553384.557 7
C21  22284276.448 8                 116040056.282 8
C22  22225231.932 8                 115732601.320 8
C34  22513319.786 8                 117232749.115 8
C36  25388033.119 7                 132202143.384 7
C39  38920108.552 7                 202667219.171 7
C42  25798931.594 7                 134341806.364 7
C43  24913379.265 7                 129730472.612 7
C44  23962704.831 7                 124780083.370 7
E03  24550330.864 8  24550334.179 9 129012858.637 8  97597402.803 9
E05  22117344.089 8  22117345.824 9 116227434.884 8  87925264.703 9
E09  27212917.399 7  27212920.261 8 143004849.503 7 108182209.617 8
E15  24125902.834 8  24125905.949 9 126782472.269 8  95910131.010 9
E34  23804004.005 8  23804006.443 9 125090882.382 8  94630450.187 9
G01  21539585.737 7                  21539589.519 7  21539591.605 8 113191279.388 7                  88201019.357 7  84525978.660 8
G03  20055829.491 8                  20055835.214 7  20055833.594 8 105394090.359 8                  82125290.664 7  78703397.320 8
G04  20629577.356 7                  20629581.203 8  20629582.396 8 108409155.040 7                  84474686.498 8  80954910.183 8
G06  23561836.039 6                  23561842.815 7  23561841.570 8 123818281.177 6                  96481804.197 7  92461723.860 8
G09  22853887.145 6                  22853893.466 7  22853892.747 8 120097980.930 6                  93583148.279 7  89683583.341 8
G17  22898183.391 7                  22898187.596 7                 120330759.975 7                  93764114.032 7
G19  22193593.346 7  22193595.866 6                                 116628113.884 7  90879062.498 6                
G28  23635590.749 6                  23635594.872 7  23635597.617 8 124205856.540 6                  96783812.331 7  92751165.178 8
G31  22229752.016 6                  22229755.015 6                 116818138.627 6                  91027139.975 6
R03  20358984.714 8  20358987.372 7 108983235.550 8  84764594.440 7
R04  19350856.042 8  19350857.044 7 103622944.694 8  80595724.141 7
R05  22389179.909 8  22389184.172 7 119682996.379 8  93086794.502 7
R12  22990353.845 5  22990356.075 6 122810401.52015  95519176.621 6
R13  23162757.520 6                 123687832.843 6
R18  21787622.332 7  21787626.611 7 116303803.125 7  90458525.370 7
R19  19416574.227 8  19416574.772 8 103865575.742 8  80784313.341 8
R20  21593418.529 6  21593423.931 7 115469720.337 6  89809797.930 7
> 2025 06 15 14 38 30.0000000  0 36
C05  39188676.657 6  39188674.266 6 204065696.431 6 157796556.275 6
C06  38297387.740 6  38297383.184 6 199424554.997 6 154207693.276 6
C09  38657758.696 7  38657756.377 7 201301087.911 7 155658772.143 7
C11  23404670.186 7  23404666.994 8 121874225.190 7  94240990.313 8
C12  22815542.539 7  22815540.236 8 118806494.123 7  91868560.730 8
C16  38879396.412 7  38879398.013 7 202455202.595 7 156551206.630 7
C21  22280650.905 8                 116021177.288 8
C22  22229923.127 8                 115757029.321 8
C34  22514604.194 8                 117239437.974 8
C36  25382138.321 7                 132171447.586 7
C39  38920918.056 7                 202671432.884 7
C42  25790492.210 6                 134297861.172 6
C43  24906715.443 7                 129695775.396 7
C44  23971583.216 7                 124826316.836 7
E03  24544197.221 8  24544200.397 9 128980625.303 8  97573018.501 9
E05  22119009.722 8  22119011.435 9 116236187.724 8  87931886.174 9
E09  27220585.555 7  27220589.014 8 143045144.579 7 108212692.598 8
E15  24121703.876 8  24121707.029 9 126760406.884 8  95893438.682 9
E34  23807982.050 8  23807984.144 9 125111785.307 8  94646263.106 9
G01  21547213.420 7                  21547217.681 8  21547219.633 8 113231364.697 7                  88232254.637 8  84555912.466 8
G03  20058218.101 7                  20058223.607 7  20058221.788 8 105406640.578 7                  82135070.030 7  78712769.229 8
G04  20624466.852 7                  20624470.755 8  20624471.819 8 108382298.383 7                  84453759.234 8  80934854.905 8
G06  23552519.730 6                  23552527.269 7  23552526.008 8 123769325.777 6                  96443657.186 7  92425166.306 8
G09  22844108.860 6                  22844115.312 7  22844114.822 8 120046596.723 6                  93543108.725 7  89645212.082 8
G17  22903295.433 7                  22903299.821 7                 120357625.003 7                  93785047.801 7
G19  22194098.414 7  22194100.636 6                                 116630768.284 7  90881130.857 6                
G28  23640501.550 6                  23640505.894 7  23640508.616 8 124231664.696 6                  96803922.563 7  92770437.483 8
G31  22229558.054 7                  22229561.617 7                 116817116.313 7                  91026343.373 7
R03  20365992.571 8  20365994.985 7 109020748.319 8  84793771.001 7
R04  19348411.343 8  19348412.414 7 103609854.152 8  80585542.633 7
R05  22379360.615 7  22379363.750 7 119630504.621 7  93045967.632 7
R12  22990282.749 5  22990282.824 5 122810023.404 5  95518882.542 5
R13  23154903.856 6                 123645895.841 6
R18  21799174.998 8  21799178.945 7 116365470.831 8  90506489.059 7
R19  19418573.185 8  19418573.763 8 103876270.114 8  80792631.195 8
R20  21583682.205 6  21583686.941 7 115417651.655 6  89769300.126 7
> 2025 06 15 14 38 45.0000000  0 36
C05  39188627.515 6  39188624.687 6 204065437.607 6 157796356.138 6
C06  38296401.792 6  38296397.137 7 199419420.785 6 154203723.191 7
C09  38655266.408 7  38655263.959 7 201288108.897 7 155648735.956 7
C11  23401015.510 7  23401012.884 8 121855196.125 7  94226275.846 8
C12  22821260.319 7  22821257.577 8 118836266.107 7  91891582.283 8
C16  38878861.918 7  38878863.491 7 202452417.434 7 156549052.979 7
C21  22277038.198 8                 116002366.564 8
C22  22234624.603 8                 115781510.163 8
C34  22515912.221 8                 117246247.220 8
C36  25376257.184 7                 132140824.265 7
C39  38921732.720 7                 202675676.153 7
C42  25782055.982 6                 134253934.612 6
C43  24900068.237 7                 129661159.374 7
C44  23980470.348 7                 124872593.937 7
E03  24538075.321 7  24538078.159 9 128948453.020 7  97548680.404 9
E05  22120690.266 8  22120692.035 8 116245019.160 8  87938567.108 8
E09  27228255.849 7  27228260.305 8 143085457.334 7 108243188.894 8
E15  24117517.460 8  24117520.636 9 126738407.450 8  95876796.280 9
E34  23811974.226 8  23811976.376 9 125132764.413 8  94662133.644 9
G01  21554858.097 7                  21554861.895 7  21554864.262 8 113271535.816 7                  88263556.799 7  84585910.314 8
G03  20060623.230 7                  20060628.429 7  20060626.542 8 105419278.016 7                  82144917.375 7  78722206.276 8
G04  20619376.657 7                  20619380.606 8  20619381.397 8 108355549.105 7                  84432915.640 8  80914879.795 8
G06  23543212.242 6                  23543219.874 7  23543219.151 8 123720417.057 6                  96405546.528 7  92388643.620 8
G09  22834339.635 6                  22834346.305 7  22834345.635 8 119995260.127 6                  93503106.211 7  89606876.367 8
G17  22908426.513 7                  22908430.331 7                 120384588.148 7                  93806057.982 7
G19  22194632.663 7  22194635.082 5                                 116633575.493 7  90883318.301 5                
G28  23645435.944 6                  23645440.734 7  23645443.128 8 124257595.563 6                  96824128.371 7  92789801.413 8
G31  22229393.326 7                  22229397.576 7                 116816250.085 7                  91025668.388 7
R03  20373013.785 8  20373016.007 7 109058333.344 8  84823003.813 7
R04  19345990.012 8  19345991.263 7 103596888.372 8  80575458.137 7
R05  22369551.113 7  22369555.220 7 119578067.878 7  93005183.578 7
R12  22990246.817 6  22990248.135 6 122809830.211 6  95518732.378 6
R13  23147073.391 6                 123604078.758 6
R18  21810741.462 8  21810745.529 7 116427213.650 8  90554511.200 7
R19  19420607.930 8  19420608.215 7 103887158.263 8  80801099.739 7
R20  21573963.744 5  21573969.571 7 115365688.610 5  89728884.448 7
> 2025 06 15 14 39  0.0000000  0 37
C05  39188575.771 6  39188573.882 6 204065170.199 6 157796149.367 6
C06  38295421.690 6  38295417.312 6 199414317.789 6 154199777.244 6
C09  38652779.281 7  38652776.546 7 201275157.040 7 155638720.772 7
C11  23397382.350 7  23397379.534 8 121836276.777 7  94211646.226 8
C12  22826995.490 7  22826993.471 8 118866134.191 7  91914678.164 8
C16  38878332.648 7  38878334.275 7 202449662.156 7 156546922.423 7
C21  22273438.889 8                 115983622.633 8
C22  22239335.654 8                 115806042.167 8
C34  22517242.453 7                 117253175.309 7
C36  25370389.992 7                 132110272.172 7
C39  38922553.256 7                 202679947.474 7
C42  25773624.151 7                 134210025.169 7
C43  24893435.547 8                 129626623.329 8
C44  23989365.568 7                 124918912.905 7
E03  24531964.750 8  24531967.308 9 128916340.357 8  97524387.419 9
E05  22122385.512 8  22122387.247 9 116253927.578 8  87945306.256 9
E09  27235929.613 6  27235934.909 8 143125786.070 6 108273697.303 8
E15  24113343.697 7  24113346.558 9 126716472.657 7  95860202.746 9
E34  23815980.677 8  23815982.718 9 125153818.083 8  94678060.608 9
G01  21562518.537 7                  21562522.205 7  21562524.141 8 113311790.998 7                  88294924.454 7  84615970.982 8
G02  24177780.120 5                                                 127055070.65215                                
G03  20063044.245 7                  20063049.534 8  20063047.723 8 105432001.111 7                  82154831.491 8  78731707.295 8
G04  20614306.415 7                  20614310.538 8  20614311.112 8 108328905.744 7                  84412154.620 8  80894983.796 8
G06  23533914.390 6                  23533921.510 7  23533920.461 8 123671553.847 6                  96367471.346 7  92352154.910 8
G09  22824579.439 6                  22824585.940 7  22824585.385 8 119943969.745 6                  93463139.723 7  89568575.175 8
G17  22913575.552 7                  22913579.751 7                 120411647.515 7                  93827143.198 7
G19  22195195.872 7  22195197.864 6                                 116636533.944 7  90885623.598 6                
G28  23650393.818 6                  23650397.946 7  23650401.118 8 124283647.397 6                  96844428.540 7  92809255.699 8
G31  22229258.293 8                  22229262.842 7                 116815538.308 8                  91025113.765 7
R03  20380048.006 8  20380050.543 7 109095989.544 8  84852291.944 7
R04  19343591.901 8  19343593.297 7 103584045.676 8  80565469.394 7
R05  22359751.546 7  22359755.492 7 119525684.953 7  92964441.382 7
R12  22990244.389 7  22990246.389 5 122809820.493 7  95518724.896 5
R13  23139264.587 6                 123562380.597 6
R18  21822321.676 8  21822325.793 7 116489029.494 8  90602590.170 7
R19  19422679.648 8  19422679.737 7 103898238.803 8  80809717.934 7
R20  21564266.850 6  21564271.648 7 115313830.910 6  89688550.751 7
> 2025 06 15 14 39 15.0000000  0 37
C05  39188522.616 6  39188520.434 6 204064894.301 6 157795936.042 6
C06  38294448.137 7  38294443.299 6 199409246.003 7 154195855.423 6
C09  38650297.284 7  38650294.690 7 201262232.468 7 155628726.674 7
C11  23393770.214 7  23393767.242 8 121817467.396 7  94197101.622 8
C12  22832750.253 7  22832747.960 8 118896098.267 7  91937848.286 8
C16  38877809.421 7  38877810.688 7 202446936.764 7 156544814.971 7
C21  22269852.256 8                 115964945.525 8
C22  22244056.683 8                 115830625.274 8
C34  22518595.509 7                 117260222.290 7
C36  25364536.566 7                 132079791.603 7
C39  38923379.000 7                 202684246.809 7
C42  25765194.857 7                 134166132.970 7
C43  24886818.711 7                 129592167.526 7
C44  23998268.398 7                 124965273.496 7
E03  24525865.122 8  24525867.857 9 128884287.460 8  97500139.631 9
E05  22124095.581 8  22124097.101 9 116262912.901 8  87952103.607 9
E09  27243606.065 6  27243612.255 8 143166130.736 6 108304217.700 8
E15  24109182.027 8  24109184.789 9 126694602.686 8  95843658.264 9
E34  23820000.954 8  23820003.282 9 125174946.387 8  94694044.023 9
G01  21570194.653 7                  21570198.337 7  21570200.536 8 113352130.164 7                  88326357.510 7  84646094.344 8
G02  24187344.857 5                                                 127105336.066 5                                
G03  20065481.576 7                  20065486.688 7  20065485.002 8 105444809.903 7                  82164812.380 7  78741272.285 8
G04  20609256.678 7                  20609260.586 8  20609261.505 8 108302368.501 7                  84391476.266 8  80875167.041 8
G06  23524624.236 6                  23524631.740 7  23524630.884 8 123622736.467 6                  96329431.897 7  92315700.430 8
G09  22814828.043 6                  22814834.564 7  22814833.733 8 119892725.856 6                  93423209.470 7  89530308.701 8
G17  22918743.312 7                  22918747.523 7                 120438802.844 7                  93848303.206 7
G19  22195787.565 7  22195789.301 6                                 116639643.643 7  90888046.711 6                
G28  23655374.133 6                  23655378.610 7  23655381.420 8 124309820.035 6                  96864822.792 7  92828800.182 8
G31  22229152.255 8                  22229156.850 7                 116814981.153 8                  91024679.615 7
R03  20387095.740 8  20387098.655 7 109133715.861 8  84881634.620 7
R04  19341216.161 8  19341217.903 7 103571325.872 8  80555576.222 7
R05  22349962.315 7  22349966.684 7 119473355.988 7  92923741.111 7
R12  22990276.823 6  22990279.828 6 122809994.464 6  95518860.192 6
R13  23131478.156 6                 123520801.865 6
R18  21833915.587 8  21833919.585 7 116550918.118 8  90650725.729 7
R19  19424787.384 8  19424786.924 7 103909511.430 8  80818485.521 7
R20  21554588.799 6  21554593.069 7 115262079.233 6  89648299.496 7
> 2025 06 15 14 39 30.0000000  0 37
C05  39188467.825 6  39188465.326 6 204064607.931 6 157795714.616 6
C06  38293479.407 6  38293475.069 6 199404203.565 6 154191956.289 6
C09  38647820.302 7  38647817.447 7 201249333.196 7 155618752.126 7
C11  23390179.225 7  23390176.023 8 121798766.098 7  94182640.609 8
C12  22838522.378 7  22838520.065 8 118926156.216 7  91961090.980 8
C16  38877291.483 7  38877292.586 7 202444239.280 7 156542729.104 7
C21  22266278.071 8                 115946333.359 8
C22  22248786.763 8                 115855257.386 8
C34  22519971.234 7                 117267386.128 7
C36  25358696.753 7                 132049380.946 7
C39  38924209.506 7                 202688572.205 7
C42  25756769.095 7                 134122256.189 7
C43  24880217.396 7                 129557790.307 7
C44  24007178.964 7                 125011673.561 7
E03  24519776.769 8  24519779.419 9 128852292.458 8  97475935.654 9
E05  22125819.393 8  22125821.210 9 116271973.071 8  87958957.568 9
E09  27251287.150 7  27251292.121 8 143206489.201 7 108334748.491 8
E15  24105032.266 8  24105035.067 9 126672795.792 8  95827161.491 9
E34  23824035.284 8  23824037.728 9 125196147.341 8  94710082.405 9
G01  21577885.893 7                  21577890.460 7  21577892.352 8 113392551.065 7                  88357854.313 7  84676278.773 8
G02  24196913.645 5                                                 127155623.504 5                                
G03  20067934.518 8                  20067940.448 7  20067938.213 8 105457702.335 8                  82174858.424 7  78750899.762 8
G04  20604226.654 7                  20604230.488 8  20604231.326 8 108275935.508 7                  84370879.175 8  80855428.152 8
G06  23515343.126 6                  23515350.451 7  23515349.600 8 123573963.291 6                  96291426.826 7  92279278.954 8
G09  22805084.779 6                  22805091.632 7  22805090.630 8 119841526.789 6                  93383314.111 7  89492075.681 8
G17  22923928.609 7                  22923933.068 7                 120466052.252 7                  93869536.476 7
G19  22196407.785 7  22196409.602 5                                 116642902.424 7  90890586.005 5                
G28  23660377.459 6                  23660381.909 7  23660384.679 8 124336111.290 6                  96885309.475 7  92848433.248 8
G31  22229075.466 7                  22229080.062 7                 116814576.518 7                  91024364.316 7
R03  20394156.240 8  20394158.713 7 109171510.725 8  84911030.607 7
R04  19338863.772 8  19338865.196 7 103558727.052 8  80545777.147 7
R05  22340182.387 7  22340187.489 7 119421079.507 7  92883081.721 7
R12  22990342.362 6  22990345.318 5 122810350.190 6  95519136.862 5
R13  23123714.193 6                 123479341.108 6
R18  21845522.572 8  21845526.540 7 116612877.033 8  90698915.936 7
R19  19426929.748 8  19426930.693 8 103920974.223 8  80827401.055 8
R20  21544929.999 6  21544934.796 7 115210431.461 6  89608128.985 7
> 2025 06 15 14 39 45.0000000  0 37
C05  39188410.877 6  39188407.862 6 204064310.412 6 157795484.552 6
C06  38292516.592 6  38292512.014 7 199399189.694 6 154188079.253 7
C09  38645347.819 7  38645345.513 7 201236458.572 7 155608796.659 7
C11  23386608.269 7  23386605.380 8 121780172.374 7  94168262.765 8
C12  22844312.530 7  22844309.968 8 118956307.058 7  91984405.497 8
C16  38876779.406 7  38876779.994 7 202441569.015 7 156540664.292 7
C21  22262715.993 8                 115927785.415 8
C22  22253526.431 8                 115879937.714 8
C34  22521369.560 8                 117274666.073 8
C36  25352869.650 7                 132019039.766 7
C39  38925044.945 7                 202692922.920 7
C42  25748345.541 7                 134078394.200 7
C43  24873630.170 7                 129523491.209 7
C44  24016096.769 7                 125058112.131 7
E03  24513699.109 8  24513701.866 9 128820354.755 8  97451775.008 9
E05  22127557.847 8  22127559.385 9 116281107.271 8  87965867.512 9
E09  27258970.019 7  27258974.570 8 143246860.406 7 108365289.021 8
E15  24100894.483 8  24100897.211 9 126651051.390 8  95810712.012 9
E34  23828083.580 8  23828085.756 9 125217420.175 8  94726175.152 9
G01  21585593.557 7                  21585597.766 8  21585599.726 8 113433052.855 7                  88389414.126 8  84706523.582 8
G02  24206487.615 5                                                 127205932.104 5                                
G03  20070403.699 8                  20070409.448 8  20070407.484 8 105470677.723 8                  82184969.108 8  78760589.162 8
G04  20599216.077 7                  20599220.098 8  20599220.919 8 108249606.181 7                  84350362.818 8  80835766.667 8
G06  23506070.062 6                  23506077.315 7  23506076.583 8 123525233.872 6                  96253455.942 7  92242890.167 8
G09  22795350.396 6                  22795357.180 7  22795356.143 8 119790371.934 6                  93343453.253 7  89453875.711 8
G17  22929131.319 7                  22929136.419 7                 120493394.321 7                  93890841.983 7
G19  22197056.036 7  22197057.807 5                                 116646309.502 7  90893240.873 5                
G28  23665403.104 7                  23665407.156 7  23665410.790 8 124362520.249 7                  96905887.886 7  92868154.209 8
G31  22229027.015 6                  22229031.244 7                 116814323.672 6                  91024167.328 7
R03  20401229.421 8  20401231.646 7 109209372.679 8  84940478.770 7
R04  19336533.233 8  19336534.722 7 103546248.503 8  80536071.590 7
R05  22330413.382 7  22330416.356 7 119368854.567 7  92842462.374 7
R12  22990442.527 6  22990446.784 6 122810886.719 6  95519554.244 6
R13  23115971.882 6                 123437998.060 6
R18  21857142.761 7  21857146.104 7 116674905.100 7  90747159.922 7
R19  19429107.883 8  19429109.057 8 103932626.528 8  80836463.938 8
R20  21535291.340 6  21535296.962 7 115158887.757 6  89568039.459 7
> 2025 06 15 14 40  0.0000000  0 37
C05  39188351.928 6  39188349.430 6 204064004.791 6 157795248.232 6
C06  38291560.124 6  38291555.015 6 199394207.487 6 154184226.693 6
C09  38642880.917 7  38642878.421 7 201223611.627 7 155598862.575 7
C11  23383058.673 7  23383055.847 8 121761689.592 7  94153970.707 8
C12  22850121.206 7  22850118.336 8 118986553.747 7  92007794.143 8
C16  38876271.178 7  38876272.802 7 202438929.050 7 156538622.920 7
C21  22259166.986 8                 115909304.807 8
C22  22258276.209 8                 115904669.222 8
C34  22522790.391 8                 117282065.205 8
C36  25347056.546 7                 131988771.440 7
C39  38925885.945 7                 202697302.027 7
C42  25739926.014 7                 134034550.172 7
C43  24867058.812 7                 129489273.563 7
C44  24025023.158 7                 125104591.987 7
E03  24507633.263 8  24507635.818 9 128788477.534 8  97427660.132 9
E05  22129310.451 8  22129312.228 9 116290318.502 8  87972835.764 9
E09  27266655.736 7  27266659.765 8 143287247.437 7 108395841.522 8
E15  24096769.007 8  24096771.884 9 126629372.813 8  95794312.309 9
E34  23832145.811 8  23832148.086 9 125238767.999 8  94742324.635 9
G01  21593316.851 7                  21593320.748 7  21593323.018 8 113473638.463 7                  88421039.243 7  84736830.981 8
G02  24216065.850 5                                                 127256264.836 5                                
G03  20072889.424 8                  20072894.750 7  20072892.834 8 105483739.104 8                  82195146.806 7  78770342.792 8
G04  20594225.980 7                  20594230.018 8  20594230.824 8 108223383.787 7                  84329929.751 8  80816184.985 8
G06  23496806.046 6                  23496813.771 7  23496812.649 8 123476551.716 6                  96215521.805 7  92206536.651 8
G09  22785624.837 6                  22785631.872 7  22785631.100 8 119739264.678 6                  93303629.486 7  89415711.263 8
G17  22934352.544 7                  22934357.501 7                 120520832.370 7                  93912222.242 7
G19  22197732.907 7  22197734.755 5                                 116649868.082 7  90896013.791 5                
G28  23670451.746 6                  23670455.749 7  23670459.207 8 124389049.770 6                  96926560.229 7  92887965.191 8
G31  22229007.485 6                  22229011.660 7                 116814225.844 6                  91024091.167 7
R03  20408315.305 8  20408318.408 7 109247304.514 8  84969981.320 7
R04  19334226.511 8  19334227.733 8 103533893.305 8  80526461.986 8
R05  22320653.460 7  22320656.895 7 119316684.694 7  92801885.874 7
R12  22990576.199 5  22990581.315 5 122811607.530 5  95520114.873 5
R13  23108251.372 6                 123396776.392 6
R18  21868776.111 7  21868779.817 7 116737005.044 7  90795459.831 7
R19  19431322.116 8  19431322.566 7 103944471.435 8  80845676.585 7
R20  21525672.754 6  21525677.910 7 115107452.060 6  89528033.930 7
> 2025 06 15 14 40 15.0000000  0 37
C05  39188291.843 6  39188289.262 6 204063690.324 6 157795005.081 6
C06  38290609.437 6  38290604.284 7 199389256.111 6 154180397.989 7
C09  38640419.063 7  38640416.545 7 201210791.578 7 155588949.308 7
C11  23379531.016 7  23379527.530 8 121743316.983 7  94139763.856 8
C12  22855948.252 7  22855945.658 8 119016895.196 7  92031256.088 8
C16  38875770.212 7  38875771.384 7 202436318.516 7 156536604.295 7
C21  22255630.630 8                 115890890.721 8
C22  22263035.164 8                 115929450.919 8
C34  22524234.028 8                 117289582.639 8
C36  25341257.833 7                 131958575.371 7
C39  38926732.304 7                 202701708.629 7
C42  25731509.326 7                 133990723.364 7
C43  24860502.976 7                 129455136.784 7
C44  24033956.926 7                 125151112.092 7
E03  24501578.505 8  24501581.115 9 128756660.057 8  97403590.451 9
E05  22131077.689 8  22131079.551 9 116299605.849 8  87979861.580 9
E09  27274343.655 7  27274347.790 8 143327649.285 7 108426405.244 8
E15  24092656.670 8  24092658.956 9 126607759.382 8  95777961.898 9
E34  23836222.750 8  23836224.521 9 125260189.952 8  94758530.189 9
G01  21601056.037 7                  21601060.040 8  21601061.892 8 113514306.848 7                  88452728.879 8  84767200.198 8
G02  24225647.947 5                                                 127306620.569 5                                
G03  20075391.057 7                  20075396.567 8  20075394.643 8 105496885.646 7                  82205390.849 8  78780159.999 8
G04  20589256.442 7                  20589260.272 8  20589261.105 8 108197267.495 7                  84309579.408 8  80796682.586 8
G06  23487551.519 6                  23487558.717 7  23487557.625 8 123427916.261 6                  96177624.066 7  92170218.012 8
G09  22775908.258 7                  22775915.183 7  22775914.425 8 119688204.413 7                  93263842.327 7  89377581.896 8
G17  22939592.392 7                  22939596.660 7                 120548364.924 7                  93933676.138 7
G19  22198439.054 7  22198441.102 6                                 116653577.225 7  90898904.018 6                
G28  23675523.120 6                  23675527.230 7  23675530.176 8 124415698.831 6                  96947325.722 7  92907865.438 8
G31  22229018.599 7                  22229021.457 6                 116814282.357 7                  91024135.184 6
R03  20415414.227 8  20415416.880 7 109285305.519 8  84999537.636 7
R04  19331941.627 8  19331943.336 8 103521660.657 8  80516947.748 8
R05  22310904.162 7  22310907.932 7 119264568.945 7  92761351.459 7
R12  22990744.578 6  22990750.388 6 122812511.694 6  95520818.009 6
R13  23100555.646 6                 123355676.052 6
R18  21880422.717 7  21880426.422 7 116799175.547 7  90843814.628 7
R19  19433572.580 8  19433572.079 7 103956508.020 8  80855038.384 7
R20  21516073.614 6  21516078.884 7 115056123.194 6  89488111.527 7
> 2025 06 15 14 40 30.0000000  0 37
C05  39188229.889 6  39188227.270 6 204063367.635 6 157794755.561 6
C06  38289664.580 6  38289659.201 7 199384336.198 6 154176593.604 7
C09  38637962.092 7  38637959.653 7 201197999.156 7 155579057.395 7
C11  23376023.904 7  23376020.282 8 121725055.344 7  94125642.819 8
C12  22861793.135 7  22861790.640 8 119047331.891 7  92054791.627 8
C16  38875274.303 7  38875276.053 7 202433738.060 7 156534608.922 7
C21  22252107.508 8                 115872543.801 8
C22  22267804.037 8                 115954283.328 8
C34  22525700.575 7                 117297218.972 7
C36  25335473.292 7                 131928452.526 7
C39  38927583.983 7                 202706143.340 7
C42  25723096.326 7                 133946914.463 7
C43  24853963.590 7                 129421081.721 7
C44  24042898.182 7                 125197672.739 7
E03  24495534.930 8  24495537.932 9 128724903.071 8  97379566.505 9
E05  22132859.878 8  22132861.447 9 116308969.837 8  87986945.359 9
E09  27282035.412 7  27282038.855 8 143368066.453 7 108456980.554 8
E15  24088556.017 8  24088558.593 9 126586211.905 8  95761661.378 9
E34  23840312.986 8  23840315.210 9 125281686.590 8  94774792.252 9
G01  21608810.723 7                  21608814.755 8  21608816.865 8 113555058.447 7                  88484483.300 8  84797631.552 8
G02  24235234.746 6                                                 127356999.868 6                                
G03  20077908.940 8                  20077914.605 8  20077912.744 8 105510117.869 8                  82215701.665 8  78790041.199 8
G04  20584307.063 7                  20584311.053 8  20584311.729 8 108171258.089 7                  84289312.355 8  80777259.989 8
G06  23478305.389 6                  23478312.880 7  23478311.339 8 123379328.422 6                  96139763.429 7  92133934.919 8
G09  22766201.189 7                  22766207.987 7  22766206.964 8 119637191.938 7                  93224092.404 7  89339488.224 8
G17  22944849.565 7                  22944853.951 7                 120575992.456 7                  93955204.060 7
G19  22199173.442 7  22199176.200 6                                 116657437.488 7  90901912.009 6                
G28  23680616.624 6                  23680621.259 7  23680624.302 8 124442467.794 6                  96968184.628 7  92927855.238 8
G31  22229058.880 8                  22229061.517 6                 116814493.955 8                  91024300.022 6
R03  20422525.393 8  20422528.913 7 109323375.658 8  85029147.744 7
R04  19329680.243 8  19329681.669 7 103509550.969 8  80507529.091 7
R05  22301164.905 7  22301168.868 7 119212508.580 7  92720860.122 7
R12  22990947.045 5  22990953.940 5 122813599.957 5  95521664.302 5
R13  23092881.433 6                 123314697.809 6
R18  21892083.180 8  21892086.576 7 116861416.927 8  90892224.510 7
R19  19435858.653 8  19435858.619 7 103968736.884 8  80864549.750 7
R20  21506494.818 6  21506500.398 7 115004902.860 6  89448273.547 7
> 2025 06 15 14 40 45.0000000  0 37
C05  39188166.838 6  39188164.088 6 204063039.922 6 157794502.157 6
C06  38288725.864 6  38288721.396 7 199379450.946 6 154172816.034 7
C09  38635511.549 7  38635509.105 7 201185237.521 7 155569189.300 7
C11  23372538.737 7  23372535.570 8 121706908.101 7  94111610.226 8
C12  22867657.249 7  22867654.761 8 119077866.898 7  92078403.197 8
C16  38874785.905 7  38874786.866 7 202431190.816 7 156532639.231 7
C21  22248597.247 8                 115854267.271 8
C22  22272583.212 8                 115979169.500 8
C34  22527190.457 7                 117304977.341 7
C36  25329702.853 7                 131898406.371 7
C39  38928441.290 7                 202710609.314 7
C42  25714687.052 7                 133903126.751 7
C43  24847439.304 7                 129387111.872 7
C44  24051848.961 7                 125244276.915 7
E03  24489504.159 8  24489506.829 9 128693209.885 8  97355590.832 9
E05  22134656.467 8  22134658.533 9 116318413.562 8  87994089.495 9
E09  27289729.673 7  27289733.447 8 143408502.001 7 108487569.794 8
E15  24084468.945 8  24084471.449 9 126564733.784 8  95745413.314 9
E34  23844418.386 8  23844420.693 9 125303261.184 8  94791113.283 9
G01  21616581.800 7                  21616585.778 7  21616588.347 8 113595896.270 7                  88516304.983 7  84828127.287 8
G02  24244827.191 6                                                 127407405.674 6                                
G03  20080444.046 8                  20080449.786 8  20080447.560 8 105523439.037 8                  82226081.815 8  78799988.821 8
G04  20579378.449 7                  20579382.822 8  20579383.271 8 108145358.908 7                  84269131.208 8  80757919.723 8
G06  23469069.006 6                  23469076.850 7  23469075.068 8 123330791.766 6                  96101942.696 7  92097690.051 8
G09  22756503.005 7                  22756510.262 7  22756509.355 8 119586230.718 7                  93184382.420 7  89301432.815 8
G17  22950125.443 7                  22950129.787 7                 120603717.956 7                  93976808.300 7
G19  22199937.195 7  22199939.881 6                                 116661452.064 7  90905040.243 6                
G28  23685733.787 7                  23685739.319 7  23685741.722 8 124469359.736 7                  96989139.381 7  92947936.848 8
G31  22229130.013 8                  22229133.156 7                 116814863.781 8                  91024588.128 7
R03  20429651.457 8  20429653.730 7 109361518.149 8  85058814.104 7
R04  19327442.373 8  19327443.522 7 103497567.484 8  80498208.591 7
R05  22291437.146 7  22291440.572 7 119160506.710 7  92680414.234 7
R12  22991191.873 6  22991192.525 5 122814875.442 6  95522656.441 5
R13  23085230.766 6                 123273845.427 6
R18  21903756.645 8  21903760.749 7 116923731.886 8  90940691.622 7
R19  19438180.909 8  19438181.764 8 103981161.102 8  80874213.023 8
R20  21496937.993 6  21496942.732 7 114953795.134 6  89408523.135 7
> 2025 06 15 14 41  0.0000000  0 37
C05  39188101.676 6  39188099.215 6 204062701.053 6 157794240.122 6
C06  38287793.337 6  38287788.921 7 199374594.177 6 154169060.494 7
C09  38633066.007 7  38633063.400 7 201172500.538 7 155559340.264 7
C11  23369074.327 7  23369071.314 8 121688869.269 7  94097661.449 8
C12  22873538.531 7  22873536.364 8 119108493.778 7  92102085.816 8
C16  38874301.832 7  38874302.429 7 202428670.688 7 156530690.522 7
C21  22245100.158 8                 115836055.017 8
C22  22277371.381 8                 116004103.241 8
C34  22528702.864 7                 117312851.579 7
C36  25323946.667 7                 131868431.015 7
C39  38929303.601 7                 202715100.405 7
C42  25706281.201 7                 133859354.183 7
C43  24840930.944 7                 129353221.338 7
C44  24060805.606 7                 125290918.223 7
E03  24483483.945 7  24483486.748 9 128661574.389 7  97331658.816 9
E05  22136467.722 8  22136469.582 9 116327930.745 8  88001289.173 9
E09  27297426.746 7  27297430.432 8 143448949.611 7 108518168.109 8
E15  24080393.856 8  24080396.373 9 126543318.966 8  95729213.164 9
E34  23848537.416 8  23848539.847 8 125324907.488 8  94807488.567 8
G01  21624368.452 7                  21624372.120 7  21624374.619 8 113636813.961 7                  88548188.847 7  84858682.658 8
G02  24254422.927 6                                                 127457831.564 6                                
G03  20082994.470 8                  20083000.474 8  20082998.320 8 105536842.876 8                  82236526.359 8  78809998.184 8
G04  20574469.950 7                  20574474.012 8  20574474.703 8 108119563.916 7                  84249031.221 8  80738657.231 8
G06  23459841.545 6                  23459849.242 7  23459847.554 8 123282300.434 6                  96064157.245 7  92061479.027 8
G09  22746814.224 7                  22746821.437 7  22746820.391 8 119535314.762 7                  93144707.693 7  89263411.208 8
G17  22955418.855 7                  22955423.577 7                 120631534.984 7                  93998483.920 7
G19  22200729.460 7  22200732.096 6                                 116665614.663 7  90908283.814 6                
G28  23690873.512 7                  23690878.494 7  23690881.091 8 124496368.188 7                  97010184.917 7  92968105.480 8
G31  22229229.195 7                  22229233.379 7                 116815385.603 7                  91024994.748 7
R03  20436788.854 8  20436791.813 7 109399726.697 8  85088531.857 7
R04  19325226.926 8  19325227.830 7 103485704.032 8  80488981.483 7
R05  22281718.707 7  22281722.123 7 119108557.254 7  92640009.157 7
R12  22991462.245 6  22991465.086 5 122816331.945 6  95523789.251 5
R13  23077603.117 6                 123233113.289 6
R18  21915442.545 8  21915447.274 7 116986113.680 8  90989210.765 7
R19  19440539.237 8  19440540.203 8 103993774.559 8  80884023.464 8
R20  21487400.802 6  21487405.549 7 114902793.649 6  89368855.313 7
> 2025 06 15 14 41 15.0000000  0 37
C05  39188035.005 6  39188032.372 6 204062353.350 6 157793971.259 6
C06  38286866.298 6  38286862.297 7 199369768.268 6 154165328.797 7
C09  38630625.044 7  38630622.253 7 201159790.535 7 155549512.098 7
C11  23365631.652 7  23365628.399 8 121670941.338 7  94083798.477 8
C12  22879437.957 7  22879436.049 8 119139214.697 7  92125841.151 8
C16  38873823.649 7  38873823.848 7 202426179.974 7 156528764.545 7
C21  22241615.386 8                 115817909.344 8
C22  22282169.339 8                 116029086.697 8
C34  22530237.545 7                 117320843.959 7
C36  25318204.274 7                 131838529.070 7
C39  38930171.488 7                 202719618.906 7
C42  25697878.581 7                 133815599.170 7
C43  24834438.742 7                 129319412.665 7
C44  24069769.581 7                 125337598.716 7
E03  24477475.148 8  24477478.114 9 128629999.056 8  97307772.278 9
E05  22138293.400 8  22138295.030 9 116337523.602 8  88008546.118 9
E09  27305125.799 7  27305130.406 8 143489411.445 7 108548777.191 8
E15  24076331.006 8  24076333.765 9 126521970.022 8  95713062.825 9
E34  23852670.773 8  23852673.161 9 125346627.812 8  94823919.837 9
G01  21632170.234 7                  21632174.148 7  21632176.479 8 113677813.591 7                  88580136.623 7  84889299.263 8
G02  24264022.708 6                                                 127508279.701 6                                
G03  20085561.290 8                  20085567.219 7  20085565.304 8 105550331.691 8                  82247037.104 7  78820070.997 8
G04  20569581.636 7                  20569585.693 8  20569586.236 8 108093875.526 7                  84229014.307 8  80719474.357 8
G06  23450622.962 7                  23450630.707 7  23450628.866 8 123233857.025 7                  96026409.176 7  92025303.775 8
G09  22737134.584 7                  22737141.406 7  22737140.361 8 119484446.640 7                  93105070.254 7  89225425.334 8
G17  22960730.439 6                  22960734.779 7                 120659445.535 6                  94020232.370 7
G19  22201550.195 7  22201552.735 5                                 116669927.532 7  90911644.515 5                
G28  23696035.638 6                  23696040.652 7  23696043.081 8 124523495.303 6                  97031322.899 7  92988362.729 8
G31  22229358.332 7                  22229362.451 7                 116816061.879 7                  91025521.743 7
R03  20443939.407 8  20443941.752 7 109438002.456 8  85118301.870 7
R04  19323034.180 8  19323035.386 7 103473962.858 8  80479849.479 7
R05  22272010.927 7  22272015.017 7 119056662.771 7  92599646.888 7
R12  22991768.111 6  22991772.358 6 122817971.880 6  95525064.850 6
R13  23069997.614 6                 123192504.24816
R18  21927141.715 7  21927146.022 7 117048564.354 7  91037783.440 7
R19  19442933.078 8  19442933.345 7 104006579.367 8  80893982.744 7
R20  21477883.720 6  21477888.172 7 114851901.368 6  89329272.471 7
> 2025 06 15 14 41 30.0000000  0 37
C05  39187966.617 6  39187963.816 6 204061996.543 6 157793695.370 6
C06  38285945.828 6  38285941.402 7 199364972.862 6 154161620.704 7
C09  38628188.434 6  38628186.587 7 201147107.189 6 155539704.555 7
C11  23362209.942 7  23362206.878 8 121653124.211 7  94070021.146 8
C12  22885356.112 7  22885353.636 8 119170029.154 7  92149668.824 8
C16  38873350.524 7  38873350.988 7 202423718.361 7 156526861.067 7
C21  22238143.352 8                 115799830.000 8
C22  22286976.676 8                 116054119.478 8
C34  22531794.844 7                 117328954.158 7
C36  25312475.999 7                 131808700.482 7
C39  38931044.176 7                 202724164.482 7
C42  25689479.222 7                 133771861.460 7
C43  24827961.570 7                 129285685.834 7
C44  24078741.655 7                 125384317.847 7
E03  24471478.223 7  24471480.939 9 128598483.647 7  97283931.105 9
E05  22140132.887 8  22140134.839 9 116347191.770 8  88015860.003 9
E09  27312827.895 6  27312832.737 8 143529887.056 6 108579396.666 8
E15  24072280.801 8  24072283.703 9 126500686.790 8  95696962.208 9
E34  23856817.885 8  23856820.494 9 125368421.813 8  94840406.863 9
G01  21639987.429 7                  21639991.649 7  21639994.011 8 113718894.787 7                  88612147.888 7  84919976.725 8
G02  24273626.795 6                                                 127558749.559 6                                
G03  20088144.789 8                  20088149.998 8  20088148.064 8 105563905.150 8                  82257613.823 8  78830207.009 8
G04  20564713.459 7                  20564717.098 8  20564718.381 8 108068293.539 7                  84209080.303 8  80700370.931 8
G06  23441413.983 7                  23441421.339 7  23441419.597 8 123185461.547 7                  95988698.480 7  91989164.382 8
G09  22727463.712 7                  22727470.340 7  22727469.536 8 119433626.234 7                  93065469.975 7  89187475.094 8
G17  22966058.962 7                  22966063.926 7                 120687449.207 7                  94042053.376 7
G19  22202399.383 7  22202401.696 6                                 116674390.251 7  90915121.924 6                
G28  23701220.212 7                  23701224.998 7  23701227.604 8 124550740.548 7                  97052552.922 7  93008708.187 8
G31  22229515.619 6                  22229520.657 7                 116816892.247 6                  91026168.831 7
R03  20451102.344 8  20451104.832 7 109476345.629 8  85148124.319 7
R04  19320864.850 8  19320866.020 7 103462343.598 8  80470812.289 7
R05  22262313.364 7  22262317.387 7 119004823.323 7  92559327.361 7
R12  22992112.938 6  22992112.773 6 122819794.936 6  95526482.697 6
R13  23062416.545 6                 123152018.762 6
R18  21938853.660 7  21938858.213 7 117111083.177 7  91086409.114 7
R19  19445362.183 8  19445362.478 7 104019575.111 8  80904090.533 7
R20  21468386.811 6  21468392.250 7 114801118.963 6  89289775.088 7
> 2025 06 15 14 41 45.0000000  0 37
C05  39187895.787 6  39187893.316 6 204061628.852 6 157793411.056 6
C06  38285030.328 6  38285026.078 7 199360206.142 6 154157934.790 7
C09  38625756.742 6  38625755.854 7 201134448.796 6 155529916.309 7
C11  23358809.212 7  23358806.211 8 121635416.164 7  94056328.164 8
C12  22891291.117 7  22891288.734 8 119200935.220 7  92173567.316 8
C16  38872883.177 7  38872883.491 7 202421284.033 7 156524978.713 7
C21  22234683.737 8                 115781815.198 8
C22  22291792.910 8                 116079199.604 8
C34  22533374.688 7                 117337180.291 7
C36  25306761.423 7                 131778943.756 7
C39  38931921.949 7                 202728735.279 7
C42  25681082.533 7                 133728139.366 7
C43  24821500.223 7                 129252039.252 7
C44  24087720.531 7                 125431073.538 7
E03  24465492.113 8  24465494.805 9 128567026.429 8  97260133.953 9
E05  22141986.574 8  22141988.565 9 116356933.288 8  88023229.400 9
E09  27320532.677 7  27320537.462 8 143570374.437 7 108610025.037 8
E15  24068242.888 8  24068245.819 9 126479467.621 8  95680910.064 9
E34  23860979.143 8  23860981.441 9 125390287.688 8  94856948.232 9
G01  21647820.482 7                  21647824.147 7  21647826.838 8 113760055.417 7                  88644221.074 7  84950713.532 8
G02  24283234.497 5                                                 127609238.991 5                                
G03  20090743.126 8                  20090748.786 7  20090746.950 8 105577561.394 8                  82268255.042 7  78840404.856 8
G04  20559865.116 7                  20559869.104 8  20559870.286 8 108042816.226 7                  84189227.875 8  80681345.688 8
G06  23432213.443 7                  23432220.474 7  23432219.295 8 123137112.585 7                  95951023.978 7  91953059.652 8
G09  22717801.906 7                  22717808.350 7  22717807.666 8 119382851.951 7                  93025905.646 7  89149559.290 8
G17  22971405.318 7                  22971410.036 7                 120715543.881 7                  94063945.315 7
G19  22203276.778 7  22203279.183 5                                 116679001.077 7  90918714.770 5                
G28  23706427.249 7                  23706431.797 7  23706433.847 8 124578101.864 7                  97073873.410 7  93029140.319 8
G31  22229701.652 6                  22229707.221 7                 116817874.701 6                  91026934.445 7
R03  20458276.915 8  20458280.021 7 109514753.972 8  85177997.477 7
R04  19318717.151 8  19318718.590 7 103450844.361 8  80461868.419 7
R05  22252625.491 7  22252629.711 7 118953036.844 7  92519049.060 7
R12  22992484.897 6  22992488.224 6 122821799.196 6  95528041.657 6
R13  23054858.057 6                 123111655.105 6
R18  21950577.931 7  21950582.494 7 117173667.880 7  91135086.048 7
R19  19447826.862 8  19447827.202 7 104032759.986 8  80914345.456 7
R20  21458910.921 6  21458914.980 7 114750444.449 6  89250361.620 7
> 2025 06 15 14 42  0.0000000  0 37
C05  39187823.363 6  39187820.935 6 204061251.521 6 157793119.291 6
C06  38284120.685 6  38284116.654 7 199355469.431 6 154154272.069 7
C09  38623331.592 7  38623329.648 7 201121816.621 7 155520148.335 7
C11  23355429.722 7  23355426.917 8 121617818.718 7  94042720.708 8
C12  22897244.022 7  22897241.620 8 119231933.842 7  92197537.404 8
C16  38872421.312 7  38872421.586 7 202418878.248 7 156523118.406 7
C21  22231236.848 8                 115763866.224 8
C22  22296618.450 8                 116104328.269 8
C34  22534977.102 8                 117345523.591 8
C36  25301061.257 7                 131749260.477 7
C39  38932805.061 7                 202733332.533 7
C42  25672689.450 7                 133684434.218 7
C43  24815054.523 7                 129218474.437 7
C44  24096706.916 7                 125477866.781 7
E03  24459517.319 8  24459520.023 9 128535628.755 8  97236381.835 9
E05  22143854.885 8  22143856.505 9 116366749.320 8  88030655.179 9
E09  27328239.803 7  27328244.568 8 143610874.671 7 108640663.184 8
E15  24064217.680 8  24064220.442 9 126458313.985 8  95664907.488 9
E34  23865153.669 8  23865156.305 9 125412226.614 8  94873544.894 9
G01  21655668.439 7                  21655671.607 7  21655674.354 8 113801296.631 7                  88676357.092 7  84981510.494 8
G02  24292845.416 5                                                 127659749.104 5                                
G03  20093357.747 8                  20093363.464 8  20093361.784 8 105591301.649 8                  82278961.744 8  78850665.446 8
G04  20555037.083 7                  20555041.029 8  20555042.217 8 108017444.985 7                  84169458.097 8  80662399.676 8
G06  23423022.020 7                  23423028.955 7  23423027.819 8 123088811.662 7                  95913386.917 7  91916990.846 8
G09  22708148.861 7                  22708155.178 7  22708154.652 8 119332125.270 7                  92986378.416 7  89111679.033 8
G17  22976769.006 7                  22976773.755 7                 120743730.453 7                  94085908.848 7
G19  22204182.813 7  22204185.320 6                                 116683761.130 7  90922423.905 6                
G28  23711656.148 6                  23711660.592 7  23711662.789 8 124605580.279 6                  97095285.127 7  93049659.902 8
G31  22229918.579 7                  22229922.919 7                 116819010.758 7                  91027819.707 7
R03  20465464.349 8  20465467.300 7 109553228.407 8  85207922.013 7
R04  19316592.049 8  19316593.900 7 103439466.415 8  80453018.930 7
R05  22242948.339 7  22242951.967 7 118901305.329 7  92478813.446 7
R12  22992893.118 6  22992898.054 6 122823986.141 6  95529742.712 6
R13  23047322.078 6                 123071415.273 6
R18  21962314.914 8  21962318.677 7 117236319.234 8  91183814.834 7
R19  19450327.216 8  19450328.168 8 104046135.319 8  80924748.474 8
R20  21449455.076 6  21449459.460 7 114699880.128 6  89211033.807 7
> 2025 06 15 14 42 15.0000000  0 37
C05  39187747.870 6  39187745.421 6 204060859.504 6 157792816.172 6
C06  38283215.979 6  38283211.880 7 199350757.619 6 154150628.603 7
C09  38620910.189 7  38620907.865 7 201109205.665 7 155510396.753 7
C11  23352070.619 7  23352067.552 8 121600326.946 7  94029194.974 8
C12  22903213.536 7  22903211.353 8 119263019.767 7  92221575.014 8
C16  38871963.439 7  38871963.925 7 202416495.896 7 156521276.225 7
C21  22227801.475 8                 115745977.987 8
C22  22301452.721 8                 116129500.286 8
C34  22536600.983 7                 117353978.951 7
C36  25295373.542 7                 131719645.858 7
C39  38933691.859 7                 202737951.179 7
C42  25664298.604 7                 133640741.042 7
C43  24808623.538 7                 129184986.612 7
