     3.04           OBSERVATION DATA    Mixed(MIXED)        RINEX VERSION / TYPE
cnvtToRINEX 3.14.0  convertToRINEX OPR  20250615 162129 UTC PGM / RUN BY / DATE 
----------------------------------------------------------- COMMENT             
1005                                                        MARKER NAME         
1005                                                        MARKER NUMBER       
GEODETIC                                                    MARKER TYPE         
GNSS Observer       Trimble                                 OBSERVER / AGENCY   
6337S22116          Geo Explorer 3      6.26                REC # / TYPE / VERS 
                    UNKNOWN EXT     NONE                    ANT # / TYPE        
  3915518.7064  1192079.5493  4876035.3596                  APPROX POSITION XYZ 
        1.4650        0.0000        0.0000                  ANTENNA: DELTA H/E/N
R    4 C1C C2C L1C L2C                                      SYS / # / OBS TYPES 
G    8 C1C C2W C2X C5X L1C L2W L2X L5X                      SYS / # / OBS TYPES 
C    4 C2I C7I L2I L7I                                      SYS / # / OBS TYPES 
E    4 C1X C8X L1X L8X                                      SYS / # / OBS TYPES 
    15.000                                                  INTERVAL            
  2025     6    15    12     5   15.0000000     GPS         TIME OF FIRST OBS   
  2025     6    15    12    32    0.0000000     GPS         TIME OF LAST OBS    
     0                                                      RCV CLOCK OFFS APPL 
  6 R01  1 R02 -4 R03  5 R17  4 R18 -3 R19  3               GLONASS SLOT / FRQ #
R L2C -0.25000                                              SYS / PHASE SHIFT   
G L2X -0.25000                                              SYS / PHASE SHIFT   
    18                                                      LEAP SECONDS        
    39                                                      # OF SATELLITES     
   C05   108   108   108   108                              PRN / # OF OBS      
   C06   108   108   108   108                              PRN / # OF OBS      
   C09    69    68    69    68                              PRN / # OF OBS      
   C12   108   108   108   108                              PRN / # OF OBS      
   C13   103   102   103   102                              PRN / # OF OBS      
   C16   108   108   108   108                              PRN / # OF OBS      
   C19   108     0   108     0                              PRN / # OF OBS      
   C20    62     0    62     0                              PRN / # OF OBS      
   C21    52     0    52     0                              PRN / # OF OBS      
   C22   108     0   108     0                              PRN / # OF OBS      
   C34    50     0    47     0                              PRN / # OF OBS      
   C35   108     0   108     0                              PRN / # OF OBS      
   C39   108     0   108     0                              PRN / # OF OBS      
   C44   108     0   108     0                              PRN / # OF OBS      
   C60    97     0    97     0                              PRN / # OF OBS      
   E04    69    90    69    88                              PRN / # OF OBS      
   E05   108   108   108   108                              PRN / # OF OBS      
   E06   108   108   108   108                              PRN / # OF OBS      
   E09   108   108   108   108                              PRN / # OF OBS      
   E11    66    66    66    66                              PRN / # OF OBS      
   E15    30    30    30    30                              PRN / # OF OBS      
   E30   108   108   108   108                              PRN / # OF OBS      
   E34   108   108   108   108                              PRN / # OF OBS      
   E36   108   108   108   108                              PRN / # OF OBS      
   G01   108     0   108   108   108     0   108   108      PRN / # OF OBS      
   G02   108   108     0     0   108   108     0     0      PRN / # OF OBS      
   G03   108     0   108   108   108     0   108   108      PRN / # OF OBS      
   G08   108     0   108   108   108     0   108   108      PRN / # OF OBS      
   G10   107     0   105   107   106     0   103   107      PRN / # OF OBS      
   G17   103     0    98     0   102     0    98     0      PRN / # OF OBS      
   G22    16     0     0     0     6     0     0     0      PRN / # OF OBS      
   G28    47     0    47    47    47     0    47    47      PRN / # OF OBS      
   G32   108     0   108   108   108     0   108   108      PRN / # OF OBS      
   R01    48     0    43     0                              PRN / # OF OBS      
   R02   108   108   108   108                              PRN / # OF OBS      
   R03   108   108   108   108                              PRN / # OF OBS      
   R17   108   108   108   108                              PRN / # OF OBS      
   R18   108   108   108   108                              PRN / # OF OBS      
   R19    75    57    73    55                              PRN / # OF OBS      
DBHZ                                                        SIGNAL STRENGTH UNIT
                                                            END OF HEADER       
>                              2  1
              *** Start of Kinematic Data ***               COMMENT             
> 2025 06 15 12 05 15.0000000  0 30
C05  39279580.562 6  39279578.875 7 204539081.24716 158162591.46917
C06  40349250.418 5  40349248.508 6 210109140.33315 162469700.43616
C12  23548102.707 6  23548100.619 7 122621145.82916  94818625.03417
C16  40660063.667 6  40660067.348 7 211727626.19916 163721235.39417
C19  22530059.160 8                 117319936.25718
C20  25891001.304 5                 134821230.14615
C22  22445468.484 8                 116879444.51018
C35  22402954.888 8                 116658060.78918
C39  39961782.462 6                 208091491.25816
C44  21874442.986 8                 113905962.89818
C60  40661899.692 6                 211737182.67716
E04  26878051.626 7  26878053.284 6 141245114.74517 106851018.78016
E05  24422656.908 7  24422661.733 8 128341922.74417  97089853.95018
E06  25306443.749 8  25306446.250 8 132986255.17318 100603250.60818
E09  24785159.959 8  24785161.813 9 130246889.21818  98530935.66619
E11  27631592.646 6  27631595.586 7 145204994.27316 109846606.68517
E30  27424989.258 7  27424993.724 8 144119288.64817 109025279.39418
E34  24170818.752 8  24170821.286 9 127018507.05718  96088686.73519
E36  23954614.047 8  23954617.386 9 125882347.02818  95229189.83119
G01  20874034.009 7                  20874037.836 8  20874039.860 9 109693782.97317                  85475692.66718  81914215.13119
G02  20762871.312 8  20762871.939 7                                 109109619.30418  85020489.87517                
G03  22073624.418 7                  22073631.432 7  22073630.143 8 115997671.60117                  90387829.38117  86621664.67418
G08  22336773.301 7                  22336780.842 7  22336777.869 8 117380524.32917                  91465379.28217  87654314.00818
G10  23943902.583 6                  23943909.886 6  23943905.044 6 125826054.86816                  98046304.56716  93961029.00816
G32  22124922.435 8                  22124928.546 8  22124925.345 8 116267245.44518                  90597882.77418  86822957.42118
R01  22610836.948 5                 120867865.79415
R02  19599262.395 8  19599264.653 8 104585413.73318  81344176.15118
R03  20722543.605 8  20722547.285 7 110929397.72318  86278441.82617
R17  19686469.288 8  19686470.395 8 105346272.60118  81935900.76118
R18  19755665.592 8  19755667.307 8 105457083.05418  82022346.69918
> 2025 06 15 12 05 30.0000000  0 30
C05  39279291.365 6  39279289.443 7 204537573.490 6 158161425.571 7
C06  40343840.212 5  40343839.260 6 210080973.831 5 162447920.361 6
C12  23540969.046 6  23540967.693 7 122584000.363 6  94789901.840 7
C16  40655004.030 6  40655007.841 7 211701280.319 6 163700863.110 7
C19  22533330.428 8                 117336970.770 8
C20  25899875.632 5                 134867443.704 5
C22  22439242.467 8                 116847024.819 8
C35  22408126.620 8                 116684991.963 8
C39  39957545.000 6                 208069427.186 6
C44  21871309.655 8                 113889647.844 8
C60  40661846.991 6                 211736908.735 6
E04  26883775.579 6  26883778.204 6 141275198.672 6 106873777.070 6
E05  24414210.079 7  24414215.109 8 128297535.838 7  97056275.615 8
E06  25308761.072 8  25308763.725 8 132998433.733 8 100612463.594 8
E09  24783581.064 8  24783582.573 9 130238590.263 8  98524657.587 9
E11  27638597.506 6  27638600.045 7 145241801.945 6 109874451.377 7
E30  27430499.491 7  27430503.923 8 144148244.914 7 109047184.578 8
E34  24166498.199 8  24166500.890 9 126995803.257 8  96071511.463 9
E36  23957428.060 8  23957430.928 9 125897132.222 8  95240374.725 9
G01  20868900.846 7                  20868904.302 8  20868906.388 9 109666806.580 7                  85454672.117 8  81894070.436 9
G02  20763247.639 8  20763248.298 7                                 109111596.830 8  85022030.811 7                
G03  22065080.246 7                  22065087.344 7  22065085.636 8 115952772.290 7                  90352842.896 7  86588135.971 8
G08  22345489.943 7                  22345497.532 7  22345494.366 8 117426330.309 7                  91501072.190 7  87688519.721 8
G10  23952412.316 6                  23952419.435 6  23952415.341 6 125870772.460 6                  98081149.396 6  93994421.991 6
G32  22127742.452 7                  22127748.313 7  22127745.489 8 116282064.077 7                  90609429.761 7  86834023.287 8
R01  22621847.450 5                 120926721.731 5
R02  19601770.279 8  19601771.503 7 104598794.239 8  81354583.201 7
R03  20713170.925 8  20713174.978 7 110879225.996 8  86239419.395 7
R17  19690983.724 8  19690985.164 7 105370429.131 8  81954689.162 7
R18  19749998.425 8  19749999.975 8 105426832.499 8  81998818.485 8
>                              3  5
              *** Start of Occupation ***                   COMMENT             
1005                                                        MARKER NAME         
1005                                                        MARKER NUMBER       
  3915518.7064  1192079.5493  4876035.3596                  APPROX POSITION XYZ 
        1.4650        0.0000        0.0000                  ANTENNA: DELTA H/E/N
> 2025 06 15 12 05 45.0000000  0 31
C05  39279002.161 6  39279000.457 7 204536068.102 6 158160261.507 7
C06  40338435.949 5  40338434.858 6 210052832.741 5 162426159.921 6
C12  23533847.857 6  23533846.569 7 122546918.954 6  94761228.184 7
C13  40129992.817 5                 208967387.35615
C16  40649950.107 7  40649953.728 7 211674962.647 7 163680512.638 7
C19  22536621.697 8                 117354110.086 8
C20  25908756.088 5                 134913686.850 5
C22  22433035.089 8                 116814701.212 8
C35  22413316.802 8                 116712017.912 8
C39  39953315.215 6                 208047401.305 6
C44  21868196.431 8                 113873436.507 8
C60  40661795.010 6                 211736637.163 6
E04  26889514.843 6  26889517.852 6 141305359.690 6 106896593.69216
E05  24405773.319 7  24405778.107 8 128253198.805 7  97022734.999 8
E06  25311098.605 8  25311101.186 8 133010717.347 8 100621756.058 8
E09  24782022.530 8  24782024.741 9 130230403.563 8  98518464.423 9
E11  27645605.968 6  27645608.439 7 145278631.126 6 109902312.391 7
E30  27436024.346 7  27436028.320 8 144177275.922 7 109069146.298 8
E34  24162186.462 8  24162189.126 9 126973144.597 8  96054370.353 9
E36  23960252.381 8  23960255.304 9 125911974.456 8  95251602.777 9
G01  20863783.091 7                  20863786.246 8  20863788.559 9 109639913.254 7                  85433716.262 8  81873987.772 9
G02  20763641.408 8  20763642.004 7                                 109113666.515 8  85023643.547 7                
G03  22056550.134 7                  22056557.056 7  22056555.000 8 115907944.896 7                  90317912.473 7  86554660.996 8
G08  22354221.040 7                  22354228.278 7  22354225.740 8 117472213.024 7                  91536824.926 7  87722782.742 8
G10  23960926.386 6                  23960933.471 6  23960930.297 7 125915515.554 6                  98116014.134 6  94027833.996 7
G32  22130587.880 8                  22130594.188 7  22130591.482 8 116297018.828 8                  90621082.792 7  86845190.781 8
R01  22632868.047 6                 120985637.399 6
R02  19604311.983 8  19604314.109 7 104612358.259 8  81365133.007 7
R03  20703822.764 8  20703826.502 8 110829183.850 8  86200497.777 8
R17  19695524.774 8  19695526.392 8 105394731.131 8  81973590.677 8
R18  19744354.424 8  19744356.326 8 105396704.188 8  81975385.387 8
> 2025 06 15 12 06  0.0000000  0 31
C05  39278711.965 6  39278710.641 7 204534558.030 6 158159093.813 7
C06  40333036.090 5  40333033.978 6 210024709.906 5 162404413.602 6
C12  23526738.058 6  23526735.989 7 122509894.861 6  94732598.806 7
C13  40132380.491 5  40132383.176 5 208979823.244 5 161596473.48115
C16  40644899.655 6  40644903.472 7 211648666.018 6 163660178.448 7
C19  22539931.984 8                 117371346.887 8
C20  25917641.162 5                 134959952.180 5
C22  22426844.779 8                 116782466.725 8
C35  22418523.787 8                 116739131.356 8
C39  39949091.794 7                 208025406.562 7
C44  21865101.827 8                 113857321.929 8
C60  40661742.098 6                 211736360.859 6
E04  26895268.630 6  26895270.751 6 141335590.548 6 106919463.085 6
E05  24397344.707 7  24397349.224 8 128208904.711 7  96989226.816 8
E06  25313454.268 8  25313457.317 8 133023098.699 8 100631122.468 8
E09  24780484.588 8  24780486.890 9 130222321.906 8  98512350.729 9
E11  27652617.012 6  27652619.464 7 145315474.614 6 109930184.144 7
E30  27441561.287 7  27441565.584 8 144206374.181 7 109091158.892 8
E34  24157881.778 8  24157884.609 9 126950523.986 8  96037258.019 9
E36  23963086.244 8  23963089.180 9 125926866.549 8  95262868.537 9
G01  20858679.699 7                  20858683.264 8  20858685.205 8 109613095.940 7                  85412819.668 8  81853961.854 8
G02  20764051.511 8  20764052.076 7                                 109115821.127 8  85025322.466 7                
G03  22048032.410 7                  22048038.893 7  22048037.061 8 115863182.311 7                  90283032.625 7  86521234.467 8
G08  22362965.917 7                  22362972.774 7  22362970.115 8 117518165.034 7                  91572631.631 7  87757097.484 8
G10  23969443.378 6                  23969451.268 6  23969448.150 7 125960276.919 6                  98150893.057 6  94061259.603 7
G32  22133458.436 8                  22133464.422 7  22133461.842 8 116312102.311 8                  90632836.177 7  86856454.413 8
R01  22643900.904 6                 121044605.365 6
R02  19606886.892 8  19606888.682 7 104626098.385 8  81375819.771 7
R03  20694497.413 8  20694501.520 8 110779264.513 8  86161671.668 8
R17  19700091.820 8  19700093.753 8 105419171.275 8  81992599.692 8
R18  19738732.051 8  19738733.867 8 105366691.208 8  81952041.989 8
> 2025 06 15 12 06 15.0000000  0 32
C05  39278420.483 6  39278419.372 7 204533041.836 6 158157921.403 7
C06  40327638.661 5  40327636.219 6 209996604.240 5 162382680.575 6
C12  23519638.331 6  23519637.035 7 122472926.792 6  94704012.813 7
C13  40134763.470 5  40134768.249 5 208992244.410 5 161606078.314 5
C16  40639853.680 7  40639857.230 7 211622389.242 7 163639859.607 7
C19  22543260.348 8                 117388679.647 8
C20  25926529.317 5                 135006238.144 5
C22  22420671.079 8                 116750320.191 8
C35  22423746.886 7                 116766330.867 7
C39  39944873.917 7                 208003441.587 7
C44  21862025.393 8                 113841302.942 8
C60  40661687.804 6                 211736078.424 6
E04  26901033.942 6  26901036.732 6 141365889.557 6 106942384.080 6
E05  24388923.757 7  24388928.350 9 128164652.324 7  96955750.254 9
E06  25315828.881 7  25315831.804 8 133035576.345 7 100640561.726 8
E09  24778966.239 8  24778968.808 9 130214344.036 8  98506315.526 9
E11  27659630.858 6  27659633.017 7 145352331.066 6 109958065.731 7
E30  27447111.224 7  27447115.313 8 144235538.146 7 109113221.225 8
E34  24153584.388 8  24153587.036 9 126927940.147 8  96020173.506 9
E36  23965929.474 8  23965932.296 9 125941807.167 8  95274171.000 9
G01  20853590.863 7                  20853594.244 8  20853596.234 9 109586353.475 7                  85391981.397 8  81833991.853 9
G02  20764477.617 7  20764477.989 7                                 109118059.469 7  85027066.639 7                
G03  22039526.004 7                  22039533.042 7  22039531.342 8 115818483.472 7                  90248202.365 7  86487855.494 8
G08  22371723.017 7                  22371730.399 7  22371727.467 8 117564184.605 7                  91608491.011 7  87791462.727 8
G10  23977964.585 6                  23977971.578 6  23977968.562 7 126005054.892 6                  98185784.895 6  94094697.647 7
G17  24223258.424 5                                                 127294041.90615                                
G32  22136352.975 7                  22136358.798 7  22136356.346 8 116327313.051 7                  90644688.705 7  86867813.098 8
R01  22654942.308 5                 121103623.527 5
R02  19609494.163 8  19609496.420 7 104640012.741 8  81386642.040 7
R03  20685194.918 8  20685199.054 7 110729467.030 8  86122940.348 7
R17  19704685.102 8  19704686.283 7 105443748.097 8  82011714.955 7
R18  19733131.025 8  19733132.731 7 105336792.634 8  81928787.538 7
> 2025 06 15 12 06 30.0000000  0 32
C05  39278128.580 6  39278126.916 7 204531519.624 6 158156744.338 7
C06  40322244.354 6  40322241.990 6 209968515.724 6 162360960.783 6
C12  23512549.686 6  23512548.634 7 122436015.093 6  94675470.351 7
C13  40137147.736 5  40137150.898 5 209004651.036 5 161615671.910 5
C16  40634811.295 7  40634815.133 7 211596132.305 7 163619556.132 7
C19  22546607.193 8                 117406108.202 8
C20  25935421.961 4                 135052544.47714
C22  22414514.869 8                 116718261.646 8
C35  22428987.010 8                 116793616.389 8
C39  39940661.240 7                 207981506.455 7
C44  21858967.339 8                 113825379.666 8
C60  40661632.505 6                 211735789.939 6
E04  26906812.440 6  26906815.330 6 141396256.591 6 106965356.536 6
E05  24380510.124 7  24380515.390 8 128120441.869 7  96922305.401 8
E06  25318221.584 8  25318224.551 8 133048150.208 8 100650073.760 8
E09  24777467.653 8  24777470.449 9 130206469.941 8  98500358.826 9
E11  27666646.855 6  27666648.982 7 145389200.461 6 109985957.093 7
E30  27452672.785 7  27452677.548 8 144264767.631 7 109135333.117 8
E34  24149293.713 8  24149296.498 9 126905393.197 8  96003116.870 9
E36  23968781.414 8  23968784.637 9 125956796.307 8  95285510.167 9
G01  20848516.608 7                  20848519.370 8  20848521.593 8 109559685.991 7                  85371201.563 8  81814077.842 8
G02  20764919.579 8  20764919.957 7                                 109120381.458 8  85028875.974 7                
G03  22031032.109 7                  22031039.355 7  22031037.210 8 115773848.408 7                  90213421.850 7  86454524.167 8
G08  22380492.885 7                  22380500.234 7  22380497.628 8 117610271.473 7                  91644402.817 7  87825878.199 8
G10  23986488.829 6                  23986496.512 6  23986492.692 7 126049849.359 6                  98220689.685 6  94128148.041 7
G17  24214720.974 6                  24214724.744 5                 127249178.166 6                  99155252.85915
G32  22139271.608 7                  22139277.421 7  22139274.989 8 116342650.899 7                  90656640.269 7  86879266.666 8
R01  22665992.183 5                 121162691.234 5
R02  19612134.558 8  19612136.767 7 104654101.311 8  81397599.812 7
R03  20675915.524 8  20675919.052 7 110679791.781 8  86084304.080 7
R17  19709302.978 8  19709304.530 7 105468461.627 8  82030936.574 7
R18  19727551.636 8  19727553.075 8 105307008.767 8  81905622.303 8
> 2025 06 15 12 06 45.0000000  0 32
C05  39277834.208 6  39277832.999 7 204529986.998 6 158155559.188 7
C06  40316852.698 6  40316850.736 6 209940439.998 6 162339250.896 6
C12  23505471.501 6  23505469.034 7 122399155.535 6  94646968.199 7
C13  40139526.261 5  40139526.124 5 209017038.596 5 161625250.714 5
C16  40629771.942 7  40629776.122 7 211569890.986 7 163599264.710 7
C19  22549971.988 8                 117423627.985 8
C20  25944321.160 5                 135098866.552 5
C22  22408374.542 8                 116686286.904 8
C35  22434242.617 8                 116820983.349 8
C39  39936453.993 7                 207959596.876 7
C44  21855926.949 8                 113809547.888 8
C60  40661575.421 6                 211735490.979 6
E04  26912603.280 6  26912605.844 6 141426687.004 6 106988376.893 6
E05  24372104.706 7  24372109.569 8 128076269.175 7  96888889.117 8
E06  25320631.455 7  25320634.770 8 133060815.726 7 100659655.127 8
E09  24775988.509 8  24775990.918 9 130198695.183 8  98494477.284 9
E11  27673664.400 6  27673666.624 7 145426078.198 6 110013854.811 7
E30  27458246.806 7  27458251.341 8 144294057.957 7 109157491.020 8
E34  24145009.382 8  24145012.183 9 126882878.761 8  95986084.850 9
E36  23971642.378 8  23971645.382 9 125971829.539 8  95296882.712 9
G01  20843455.532 7                  20843458.411 8  20843460.396 8 109533089.281 7                  85350476.854 8  81794216.678 8
G02  20765376.225 8  20765376.908 7                                 109122782.753 8  85030747.112 7                
G03  22022549.636 7                  22022556.643 7  22022554.957 8 115729272.879 7                  90178687.711 7  86421237.278 8
G08  22389275.052 7                  22389282.334 7  22389279.053 8 117656420.886 7                  91680363.379 7  87860340.391 8
G10  23995015.521 6                  23995022.795 6  23995019.737 7 126094655.702 6                  98255603.705 6  94161607.298 7
G17  24206193.731 6                  24206196.959 5                 127204367.326 6                  99120335.405 5
G32  22142213.761 7                  22142219.130 7  22142217.132 8 116358111.235 7                  90668687.288 7  86890811.714 8
R01  22677050.419 4                 121221804.00714
R02  19614806.564 8  19614808.036 7 104668359.229 8  81408689.295 7
R03  20666657.189 8  20666661.089 8 110630234.245 8  86045759.351 8
R17  19713946.007 8  19713947.915 7 105493307.285 8  82050260.930 7
R18  19721992.660 8  19721993.933 7 105277335.364 8  81882542.985 7
> 2025 06 15 12 07  0.0000000  0 31
C05  39277537.905 6  39277535.923 7 204528441.910 6 158154364.435 7
C06  40311463.554 6  40311461.325 6 209912375.237 6 162317549.467 6
C12  23498402.621 6  23498400.703 7 122362346.430 6  94618505.074 7
C13  40141902.052 5  40141901.911 5 209029405.162 5 161634813.405 5
C16  40624734.877 7  40624738.991 7 211543663.295 7 163578983.841 7
C19  22553353.361 8                 117441236.820 8
C20  25953218.340 5                 135145202.399 5
C22  22402249.595 8                 116654394.042 8
C35  22439513.154 8                 116848429.761 8
C39  39932250.900 7                 207937710.878 7
C44  21852903.574 8                 113793805.804 8
C60  40661515.515 6                 211735179.562 6
E04  26918405.616 6  26918408.025 6 141457178.610 6 107011443.568 6
E05  24363705.634 7  24363710.617 8 128032132.490 7  96855500.014 8
E06  25323059.186 7  25323061.983 8 133073570.788 7 100669304.237 8
E09  24774527.595 8  24774529.935 9 130191017.820 8  98488669.417 9
E11  27680682.473 6  27680685.491 7 145462962.360 6 110041757.336 7
E30  27463831.935 7  27463836.181 8 144323406.941 7 109179693.304 8
E34  24140730.775 8  24140733.680 9 126860394.938 8  95969075.993 9
E36  23974511.124 8  23974514.128 9 125986904.900 8  95308287.124 9
G01  20838407.308 7                  20838410.497 8  20838412.315 9 109506561.468 7                  85329805.851 8  81774406.953 9
G02  20765848.091 8  20765848.585 7                                 109125261.354 8  85032678.487 7                
G03  22014078.240 7                  22014084.665 7  22014084.171 8 115684755.020 7                  90143998.491 7  86387993.459 8
G08  22398068.181 7                  22398076.091 7  22398072.410 8 117702630.566 7                  91716370.873 7  87894847.594 8
G10  24003544.163 6                  24003551.473 6  24003547.891 7 126139471.884 6                  98290525.362 6  94195073.883 7
G17  24197676.351 6                  24197681.070 6                 127159607.741 6                  99085457.833 6
G32  22145178.571 7                  22145184.660 7  22145181.877 8 116373691.908 7                  90680828.046 7  86902446.624 8
R02  19617509.741 8  19617511.146 7 104682784.067 8  81419908.625 7
R03  20657421.515 8  20657424.616 7 110580792.990 8  86007305.064 7
R17  19718613.416 8  19718614.848 7 105518282.867 8  82069686.380 7
R18  19716453.856 8  19716455.728 8 105247770.730 8  81859548.292 8
> 2025 06 15 12 07 15.0000000  0 31
C05  39277239.108 6  39277236.976 7 204526885.349 6 158153160.793 7
C06  40306076.288 6  40306074.352 6 209884322.286 6 162295857.163 6
C12  23491343.797 6  23491341.925 7 122325588.874 6  94590081.795 7
C13  40144269.756 5  40144276.188 5 209041751.749 5 161644360.489 5
C16  40619701.142 7  40619705.125 7 211517450.217 7 163558714.267 7
C19  22556752.103 8                 117458935.407 8
C20  25962120.173 5                 135191552.472 5
C22  22396140.977 8                 116622584.090 8
C35  22444799.797 8                 116875956.341 8
C39  39928052.784 6                 207915849.450 6
C44  21849898.181 8                 113778154.427 8
C60  40661453.388 6                 211734856.617 6
E04  26924220.295 6  26924222.037 6 141487732.079 6 107034557.058 6
E05  24355313.856 7  24355318.599 8 127988032.863 7  96822138.976 8
E06  25325503.741 8  25325506.432 8 133086416.190 8 100679021.684 8
E09  24773085.329 8  24773087.683 9 130183438.743 8  98482935.919 9
E11  27687701.527 6  27687705.995 7 145499853.733 6 110069665.379 7
E30  27469427.945 7  27469432.421 8 144352815.197 7 109201940.410 8
E34  24136458.535 8  24136461.077 9 126837942.730 8  95952091.058 9
E36  23977388.124 8  23977391.036 9 126002023.309 8  95319724.079 9
G01  20833372.163 7                  20833375.616 8  20833377.820 9 109480103.652 7                  85309189.369 8  81754649.502 9
G02  20766334.831 8  20766334.989 7                                 109127818.372 8  85034670.966 7                
G03  22005617.808 7                  22005624.792 7  22005623.177 8 115640295.851 7                  90109355.027 7  86354793.489 8
G08  22406873.243 7                  22406880.648 7  22406878.512 8 117748901.111 7                  91752425.789 7  87929400.216 8
G10  24012074.753 6                  24012081.155 6  24012077.737 7 126184298.547 6                  98325455.158 6  94228548.271 7
G17  24189168.409 6                  24189173.017 6                 127114900.628 6                  99050621.143 6
G32  22148166.490 7                  22148171.963 7  22148169.809 8 116389393.694 7                  90693063.209 7  86914171.974 8
R02  19620244.272 8  19620246.214 7 104697376.673 8  81431258.424 7
R03  20648207.201 8  20648211.070 7 110531469.343 8  85968942.271 7
R17  19723305.425 8  19723307.007 8 105543389.206 8  82089213.509 8
R18  19710936.237 8  19710938.096 8 105218316.137 8  81836639.176 8
> 2025 06 15 12 07 30.0000000  0 31
C05  39276936.953 6  39276935.135 7 204525312.107 6 158151944.241 7
C06  40300690.296 6  40300688.126 6 209856276.137 6 162274170.167 6
C12  23484292.521 5  23484292.201 7 122288877.984 5  94561694.628 7
C13  40146638.365 5  40146642.747 6 209054073.026 5 161653888.036 6
C16  40614669.311 7  40614673.041 7 211491246.647 7 163538452.025 7
C19  22560167.166 8                 117476718.459 8
C20  25971027.417 4                 135237911.436 4
C22  22390046.842 8                 116590852.041 8
C35  22450100.242 8                 116903557.919 8
C39  39923858.295 6                 207894007.404 6
C44  21846908.809 8                 113762588.795 8
C60  40661387.928 6                 211734516.970 6
E04  26930044.516 6  26930047.082 6 141518342.097 6 107057713.290 6
E05  24346927.762 7  24346932.688 8 127943965.326 7  96788802.242 8
E06  25327964.169 8  25327966.967 8 133099346.607 8 100688803.451 8
E09  24771660.911 8  24771663.113 9 130175952.804 8  98477272.869 9
E11  27694722.961 6  27694726.480 7 145536747.225 6 110097574.988 7
E30  27475034.271 7  27475039.004 8 144382277.334 7 109224228.294 8
E34  24132190.675 8  24132193.473 9 126815517.067 8  95935126.183 9
E36  23980271.860 8  23980275.199 9 126017179.579 8  95331189.688 9
G01  20828349.901 7                  20828353.379 8  20828355.332 9 109453710.791 7                  85288623.508 8  81734940.547 9
G02  20766835.247 8  20766835.570 7                                 109130448.607 8  85036720.508 7                
G03  21997168.044 7                  21997174.447 7  21997173.001 8 115595890.355 7                  90074753.366 7  86321633.582 8
G08  22415688.527 7                  22415696.327 7  22415693.911 8 117795226.970 7                  91788523.815 7  87963994.133 8
G10  24020605.623 6                  24020612.812 6  24020609.458 7 126229130.298 6                  98360388.982 6  94262026.494 7
G17  24180669.968 5                  24180674.928 5                                                  99015821.482 5
G32  22151176.443 7                  22151182.101 7  22151179.921 8 116405211.227 7                  90705388.551 7  86925983.748 8
R02  19623009.233 8  19623011.352 7 104712131.328 8  81442734.284 7
R03  20639014.284 8  20639017.755 8 110482258.021 8  85930666.829 8
R17  19728020.729 8  19728022.198 8 105568621.085 8  82108838.285 8
R18  19705437.949 8  19705440.067 8 105188966.698 8  81813811.837 8
> 2025 06 15 12 07 45.0000000  0 32
C05  39276631.657 6  39276629.896 7 204523723.450 6 158150715.799 7
C06  40295305.680 6  40295303.419 6 209828238.086 6 162252489.407 6
C12  23477252.909 6  23477251.433 7 122252215.146 6  94533344.595 7
C13  40148999.691 5  40149004.729 6 209066370.128 5 161663396.936 6
C16  40609639.418 7  40609643.053 7 211465053.906 7 163518198.190 7
C19  22563598.473 8                 117494586.986 8
C20  25979926.456 5                 135284280.44215
C22  22383968.860 8                 116559199.262 8
C35  22455415.296 8                 116931235.573 8
C39  39919667.558 7                 207872186.114 7
C44  21843936.186 8                 113747110.262 8
C60  40661319.891 6                 211734161.832 6
E04  26935881.040 6  26935882.921 7 141549009.668 6 107080913.056 7
E05  24338548.489 7  24338553.107 8 127899931.336 7  96755490.862 8
E06  25330441.082 7  25330444.042 8 133112363.202 7 100698650.409 8
E09  24770254.309 8  24770256.524 9 130168561.264 8  98471681.240 9
E11  27701746.219 6  27701747.427 7 145573643.896 6 110125487.057 7
E30  27480650.933 7  27480655.963 8 144411794.410 7 109246557.737 8
E34  24127928.543 8  24127931.181 9 126793119.207 8  95918182.366 9
E36  23983163.841 8  23983166.773 9 126032374.947 8  95342684.883 9
G01  20823340.152 7                  20823343.468 8  20823345.461 9 109427384.300 7                  85268109.368 8  81715281.167 9
G02  20767349.672 8  20767350.418 7                                 109133153.326 8  85038828.082 7                
G03  21988728.304 7                  21988734.599 7  21988733.448 8 115551539.920 7                  90040194.623 7  86288514.777 8
G08  22424514.980 7                  22424522.503 7  22424519.870 8 117841609.147 7                  91824665.723 7  87998630.106 8
G10  24029138.149 6                  24029145.444 6  24029141.957 7 126273968.369 6                  98395327.723 6  94295509.393 7
G17  24172179.969 5                  24172184.534 5                 127025630.53115                  98981060.083 5
G22  24694470.090 4                                                 129770425.44614                                
G32  22154208.642 8                  22154214.390 7  22154212.043 8 116421145.539 8                  90717804.882 7  86937882.751 8
R02  19625804.558 8  19625807.068 8 104727049.135 8  81454336.993 8
R03  20629842.118 8  20629845.863 7 110433160.663 8  85892480.034 7
R17  19732759.233 8  19732760.910 8 105593979.530 8  82128561.513 8
R18  19699959.714 8  19699961.849 8 105159724.004 8  81791067.527 8
> 2025 06 15 12 08  0.0000000  0 32
C05  39276324.543 6  39276322.462 7 204522122.888 6 158149478.141 7
C06  40289923.672 6  40289921.499 6 209800211.660 6 162230817.609 6
C12  23470222.257 5  23470220.507 7 122215604.083 5  94505034.598 7
C13  40151355.515 5  40151361.565 6 209078646.754 5 161672889.957 6
C16  40604611.783 7  40604615.558 7 211438875.518 7 163497955.431 7
C19  22567046.867 8                 117512544.330 8
C20  25988832.678 5                 135330662.602 5
C22  22377906.100 8                 116527629.325 8
C35  22460745.883 8                 116958992.689 8
C39  39915481.656 7                 207850389.064 7
C44  21840980.681 8                 113731722.486 8
C60  40661249.312 6                 211733794.752 6
E04  26941728.557 6  26941730.456 7 141579738.084 6 107104158.882 7
E05  24330176.389 7  24330180.728 8 127855934.669 7  96722207.710 8
E06  25332935.004 8  25332938.013 8 133125469.381 8 100708565.160 8
E09  24768866.373 8  24768868.573 9 130161267.692 8  98466163.704 9
E11  27708767.644 6  27708769.955 6 145610547.359 6 110153404.229 6
E30  27486279.687 7  27486284.177 8 144441369.685 7 109268931.206 8
E34  24123672.795 8  24123675.036 9 126770752.844 8  95901262.362 9
E36  23986063.653 8  23986066.464 9 126047612.989 8  95354212.344 9
G01  20818343.516 7                  20818346.944 8  20818348.987 9 109401127.866 7                  85247649.818 8  81695674.113 9
G02  20767879.224 8  20767880.356 7                                 109135936.142 8  85040996.490 7                
G03  21980299.927 7                  21980306.500 7  21980305.317 8 115507248.170 7                  90005681.623 7  86255439.819 8
G08  22433352.773 7                  22433360.464 7  22433357.281 8 117888050.786 7                  91860853.971 7  88033310.523 8
G10  24037672.246 6                  24037679.537 6  24037675.957 7 126318816.045 6                  98430273.855 6  94328999.468 7
G17  24163701.518 5                  24163706.043 6                 126981072.852 5                  98946339.775 6
G22  24694604.849 5                                                                                                
G32  22157263.914 7                  22157269.655 7  22157266.987 8 116437200.079 7                  90730314.883 7  86949871.496 8
R02  19628631.521 8  19628633.587 8 104742133.559 8  81466069.295 8
R03  20620692.865 8  20620695.942 7 110384181.650 8  85854385.262 7
R17  19737522.370 8  19737523.780 8 105619468.207 8  82148386.030 8
R18  19694502.414 8  19694504.370 8 105130591.900 8  81768409.256 8
> 2025 06 15 12 08 15.0000000  0 33
C05  39276015.424 6  39276013.497 7 204520513.710 6 158148233.815 7
C06  40284544.239 6  40284542.148 6 209772200.234 6 162209157.441 6
C12  23463201.667 5  23463199.886 7 122179048.306 5  94476767.387 7
C13  40153711.073 5  40153715.962 6 209090906.257 5 161682369.824 6
C16  40599588.041 7  40599591.633 7 211412714.885 7 163477726.388 7
C19  22570513.278 8                 117530593.579 8
C20  25997740.878 4                 135377060.96214
C22  22371859.610 8                 116496145.658 8
C34  25533069.364 5                 132957405.75715
C35  22466092.454 8                 116986832.505 8
C39  39911301.001 7                 207828619.660 7
C44  21838044.145 8                 113716428.939 8
C60  40661177.272 6                 211733419.012 6
E04  26947588.352 6  26947590.072 7 141610530.447 6 107127453.106 7
E05  24321812.192 7  24321816.290 8 127811978.873 7  96688955.474 8
E06  25335446.791 7  25335449.726 8 133138668.338 7 100718550.103 8
E09  24767497.891 7  24767499.897 9 130154075.409 7  98460722.793 9
E11  27715792.392 6  27715794.649 6 145647460.972 6 110181329.050 6
E30  27491918.374 7  27491924.031 8 144471006.276 7 109291351.078 8
E34  24119423.180 8  24119425.580 9 126748421.379 8  95884368.764 9
E36  23988972.020 8  23988974.961 9 126062897.012 8  95365774.600 9
G01  20813361.397 7                  20813364.528 8  20813366.543 9 109374945.014 7                  85227247.594 8  81676121.993 9
G02  20768424.427 7  20768425.185 7                                 109138800.378 7  85043228.370 7                
G03  21971883.285 7                  21971889.872 7  21971888.475 8 115463018.627 7                  89971217.099 7  86222411.305 8
G08  22442202.168 7                  22442209.351 7  22442207.396 8 117934554.920 7                  91897090.952 7  88068037.609 8
G10  24046209.022 6                  24046214.697 6  24046212.678 7 126363676.369 6                  98465229.922 6  94362499.088 7
G17  24155232.728 5                  24155238.631 6                 126936571.690 5                  98911663.620 6
G32  22160342.307 8                  22160347.770 7  22160345.755 8 116453377.921 8                  90742921.009 7  86961952.357 8
R01  22743562.241 5                 121577322.00415
R02  19631490.161 8  19631492.135 8 104757387.353 8  81477933.363 8
R03  20611566.032 8  20611569.450 7 110335324.582 8  85816385.342 7
R17  19742310.738 8  19742312.367 7 105645090.479 8  82168314.464 7
R18  19689066.320 8  19689068.236 8 105101574.204 8  81745839.935 8
> 2025 06 15 12 08 30.0000000  0 33
C05  39275703.070 6  39275702.656 7 204518893.956 6 158146981.305 7
C06  40279166.901 6  40279165.360 6 209744202.031 6 162187507.533 6
C12  23456191.786 6  23456190.316 7 122142546.180 6  94448541.649 7
C13  40156061.414 5  40156065.597 6 209103146.604 5 161691834.825 6
C16  40594567.408 7  40594570.720 7 211386570.076 7 163457509.628 7
C19  22573996.801 8                 117548732.669 8
C20  26006655.747 5                 135423473.50215
C22  22365829.942 8                 116464746.497 8
C34  25523841.870 4                                
C35  22471454.054 8                 117014753.024 8
C39  39907125.319 6                 207806875.993 6
C44  21835124.799 8                 113701227.871 8
C60  40661102.567 6                 211733032.731 6
E04  26953459.289 6  26953461.785 7 141641384.770 6 107150794.180 7
E05  24313455.706 7  24313459.333 8 127768062.247 7  96655732.853 8
E06  25337975.138 7  25337978.770 8 133151958.136 7 100728603.720 8
E09  24766147.633 8  24766150.141 9 130146982.548 8  98455357.097 9
E11  27722818.387 6  27722820.842 7 145684382.663 6 110209260.016 7
E30  27497570.031 7  27497575.087 8 144500702.116 7 109313815.757 8
E34  24115180.283 8  24115182.375 9 126726122.995 8  95867500.199 9
E36  23991888.680 8  23991891.768 9 126078225.148 8  95377370.229 9
G01  20808392.551 7                  20808395.823 8  20808397.766 9 109348834.001 7                  85206901.354 8  81656623.509 9
G02  20768984.862 7  20768985.271 7                                 109141744.216 7  85045522.275 7                
G03  21963477.621 7                  21963484.698 7  21963483.582 8 115418849.521 7                  89936799.635 7  86189427.900 8
G08  22451063.419 7                  22451070.554 7  22451068.422 8 117981119.384 7                  91933374.914 7  88102809.720 8
G10  24054747.849 6                  24054754.935 6  24054751.341 7 126408547.426 6                  98500194.401 6  94396006.699 7
G17  24146773.681 5                  24146780.714 6                 126892125.419 5                  98877030.213 6
G32  22163443.781 8                  22163449.545 7  22163447.400 8 116469677.057 8                  90755621.651 7  86974123.783 8
R01  22754673.647 5                 121636721.681 5
R02  19634380.230 8  19634382.350 7 104772808.646 8  81489927.694 7
R03  20602461.618 8  20602464.798 8 110286587.355 8  85778478.660 8
R17  19747123.126 8  19747124.558 7 105670844.167 8  82188345.072 7
R18  19683651.459 8  19683653.147 7 105072669.267 8  81723358.311 7
> 2025 06 15 12 08 45.0000000  0 32
C05  39275389.214 6  39275388.850 7 204517260.845 6 158145718.493 7
C06  40273791.589 5  40273790.332 6 209716214.180 5 162165865.592 6
C12  23449191.848 6  23449191.000 7 122106095.056 6  94420355.347 7
C13  40158408.992 5  40158412.034 6 209115364.953 5 161701282.857 6
C16  40589548.945 7  40589552.392 7 211360438.396 7 163437302.965 7
C19  22577496.790 8                 117566958.561 8
C20  26015568.551 5                 135469897.097 5
C22  22359815.807 8                 116433429.031 8
C35  22476831.080 8                 117042751.229 8
C39  39902954.215 7                 207785155.228 7
C44  21832223.104 8                 113686116.515 8
C60  40661025.838 6                 211732632.980 6
E04  26959341.741 6  26959344.643 7 141672297.921 6 107174179.777 7
E05  24305104.781 7  24305109.162 8 127724182.025 7  96622537.796 8
E06  25340520.950 7  25340524.403 8 133165335.647 7 100738723.724 8
E09  24764816.372 8  24764818.773 9 130139986.192 8  98450064.404 9
E11  27729844.258 6  27729847.817 6 145721309.488 6 110237194.867 6
E30  27503232.112 6  27503236.868 8 144530453.967 6 109336322.798 8
E34  24110942.423 8  24110944.833 9 126703854.819 8  95850654.491 9
E36  23994813.829 8  23994816.555 9 126093594.451 8  95388996.993 9
G01  20803437.106 7                  20803440.291 8  20803442.007 9 109322792.018 7                  85186608.929 8  81637176.599 9
G02  20769559.681 7  20769560.187 7                                 109144764.787 7  85047875.950 7                
G03  21955084.234 7                  21955090.472 7  21955088.909 8 115374738.032 7                  89902427.067 7  86156487.547 8
G08  22459934.914 7                  22459942.292 7  22459939.686 8 118027740.842 7                  91969703.295 7  88137624.426 8
G10  24063288.192 6                  24063294.677 6  24063291.400 7 126453426.206 6                  98535164.849 6  94429519.999 7
G17  24138326.300 6                  24138332.956 6                 126847731.381 6                  98842437.450 6
G32  22166568.075 7                  22166573.447 7  22166571.165 8 116486094.391 7                  90768414.371 7  86986383.459 8
R01  22765792.871 5                 121696159.762 5
R02  19637300.848 8  19637303.152 7 104788393.960 8  81502049.588 7
R03  20593378.789 8  20593381.664 7 110237967.477 8  85740663.226 7
R17  19751959.996 8  19751961.614 7 105696726.399 8  82208475.690 7
R18  19678257.468 8  19678259.060 8 105043874.481 8  81700962.390 8
> 2025 06 15 12 09  0.0000000  0 31
C05  39275074.006 6  39275072.652 7 204515615.610 6 158144446.303 7
C06  40268418.669 5  40268418.247 6 209688237.972 5 162144232.703 6
C12  23442201.858 6  23442200.712 7 122069696.467 6  94392209.678 7
C13  40160751.345 5  40160755.383 6 209127562.729 5 161710714.938 6
C16  40584533.413 7  40584536.751 7 211334321.121 7 163417107.435 7
C19  22581013.498 8                 117585272.322 8
C20  26024488.335 5                 135516332.835 5
C22  22353817.748 8                 116402194.750 8
C35  22482223.071 8                 117070828.336 8
C39  39898787.725 6                 207763458.734 6
C44  21829338.565 8                 113671096.373 8
C60  40660946.551 6                 211732221.128 6
E04  26965235.016 6  26965238.867 7 141703271.026 6 107197610.683 7
E05  24296761.859 7  24296766.142 9 127680339.799 7  96589371.483 9
E06  25343083.733 7  25343086.949 8 133178802.177 7 100748911.026 8
E09  24763503.355 8  24763506.020 9 130133087.678 8  98444845.717 9
E11  27736872.002 5  27736876.148 7 145758242.830 5 110265134.583 7
E30  27508904.686 7  27508909.314 8 144560263.055 7 109358873.100 8
E34  24106710.830 8  24106713.360 9 126681618.350 8  95833832.757 9
E36  23997746.358 8  23997749.330 9 126109006.306 8  95400655.949 9
G01  20798494.846 7                  20798498.082 8  20798499.921 9 109296820.636 7                  85166371.503 8  81617782.393 9
G02  20770148.883 8  20770149.837 7                                 109147863.484 8  85050290.533 7                
G03  21946701.282 7                  21946707.666 7  21946705.865 8 115330685.692 7                  89868100.560 7  86123591.326 8
G08  22468818.000 7                  22468824.912 7  22468821.845 8 118074420.501 7                  92006076.970 7  88172482.502 8
G10  24071830.052 6                  24071836.519 6  24071833.992 6 126498313.779 6                  98570142.073 6  94463039.899 6
G17  24129891.723 6                  24129895.147 6                 126803391.245 6                  98807886.738 6
G32  22169715.263 7                  22169720.183 7  22169717.898 8 116502631.043 7                  90781300.046 7  86998732.251 8
R02  19640252.415 8  19640254.452 7 104804144.459 8  81514299.976 7
R03  20584318.555 8  20584321.608 7 110189467.038 8  85702940.692 7
R17  19756821.424 8  19756822.672 8 105722738.373 8  82228707.183 8
R18  19672883.876 8  19672885.701 8 105015191.509 8  81678653.405 8
> 2025 06 15 12 09 15.0000000  0 31
C05  39274757.138 5  39274756.000 7 204513964.901 5 158143169.891 7
C06  40263051.037 6  40263049.089 6 209660280.221 6 162122614.021 6
C12  23435223.229 5  23435221.901 7 122033357.319 5  94364109.996 7
C13  40163090.441 5  40163095.596 6 209139746.313 5 161720136.021 6
C16  40579521.383 6  40579525.293 7 211308224.929 6 163396928.241 7
C19  22584548.868 8                 117603680.378 8
C20  26033409.799 6                 135562787.045 6
C22  22347836.155 8                 116371050.322 8
C35  22487631.287 8                 117098990.781 8
C39  39894627.167 7                 207741793.170 7
C44  21826472.691 8                 113656174.193 8
C60  40660866.634 6                 211731803.719 6
E04  26971142.287 6  26971145.489 7 141734310.371 6 107221091.746 7
E05  24288427.165 8  24288431.791 9 127636542.412 8  96556239.101 9
E06  25345664.736 7  25345667.726 8 133192364.165 7 100759170.584 8
E09  24762210.789 8  24762213.178 9 130126293.675 8  98439706.094 9
E11  27743902.405 5  27743906.793 7 145795189.164 5 110293084.239 7
E30  27514588.323 7  27514593.862 8 144590135.650 7 109381471.485 8
E34  24102486.713 8  24102489.214 9 126659420.258 8  95817040.055 9
E36  24000688.465 8  24000691.503 9 126124467.349 8  95412352.107 9
G01  20793567.175 7                  20793570.705 8  20793572.551 9 109270926.620 7                  85146194.368 8  81598445.966 9
G02  20770755.010 7  20770755.641 7                                 109151046.978 7  85052771.166 7                
G03  21938330.550 7                  21938337.162 7  21938335.909 8 115286699.207 7                  89833825.416 7  86090744.318 8
G08  22477712.577 7                  22477720.348 7  22477717.350 8 118121164.528 7                  92042500.855 7  88207388.688 8
G10  24080375.287 6                  24080380.998 6  24080378.017 6 126543216.665 6                  98605131.309 6  94496571.216 6
G17  24121463.327 6                  24121469.201 6                 126759111.959 6                  98773383.449 6
G32  22172885.462 8                  22172891.062 7  22172888.633 8 116519293.510 8                  90794283.817 7  87011174.990 8
R02  19643236.118 8  19643238.167 7 104820066.570 8  81526683.855 7
R03  20575281.852 8  20575284.807 7 110141092.903 8  85665316.410 7
R17  19761707.009 8  19761708.973 7 105748886.601 8  82249044.683 7
R18  19667532.809 8  19667534.977 8 104986627.441 8  81656436.907 8
> 2025 06 15 12 09 30.0000000  0 32
C05  39274439.372 6  39274438.374 7 204512311.105 6 158141891.038 7
C06  40257686.478 6  40257683.829 6 209632343.318 6 162101011.477 6
C12  23428256.783 6  23428255.380 7 121997080.147 6  94336058.199 7
C13  40165425.432 5  40165433.253 6 209151918.283 5 161729548.105 6
C16  40574514.631 7  40574518.331 7 211282152.278 7 163376767.218 7
C19  22588102.323 8                 117622184.922 8
C20  26042335.598 6                 135609261.952 6
C22  22341873.101 8                 116339998.240 8
C35  22493056.202 8                 117127240.916 8
C39  39890472.893 6                 207720160.977 6
C44  21823626.744 8                 113641352.445 8
C60  40660785.836 6                 211731383.187 6
E04  26977061.691 6  26977065.001 7 141765418.407 6 107244624.701 7
E05  24280102.033 8  24280106.517 8 127592792.518 8  96523142.619 8
E06  25348264.412 7  25348267.145 8 133206023.914 7 100769504.097 8
E09  24760938.155 8  24760940.654 9 130119606.559 8  98434647.363 9
E11  27750936.294 5  27750940.562 6 145832150.980 5 110321045.512 6
E30  27520285.910 7  27520290.807 8 144620073.924 7 109404119.590 8
E34  24098270.268 8  24098272.843 9 126637263.060 8  95800278.293 9
E36  24003640.671 8  24003643.427 9 126139979.980 8  95424087.310 9
G01  20788654.942 7                  20788658.107 8  20788660.137 9 109245112.535 7                  85126079.506 8  81579169.241 9
G02  20771377.310 8  20771377.951 7                                 109154317.761 8  85055319.837 7                
G03  21929973.017 7                  21929979.874 7  21929978.470 8 115242781.104 7                  89799603.589 7  86057948.392 8
G08  22486620.268 7                  22486628.264 7  22486625.417 8 118167975.005 7                  92078976.512 7  88242344.537 8
G10  24088922.622 6                  24088929.423 6  24088925.976 6 126588137.028 6                  98640134.178 6  94530115.581 6
G17  24113049.726 6                  24113054.875 6                 126714896.136 6                  98738929.596 6
G32  22176080.804 7                  22176086.667 7  22176083.750 8 116536084.036 7                  90807367.335 7  87023713.375 8
R02  19646252.181 8  19646254.742 7 104836162.611 8  81539202.984 7
R03  20566268.599 8  20566272.059 7 110092847.848 8  85627792.501 7
R17  19766619.680 8  19766621.637 7 105775173.790 8  82269490.245 7
R18  19662204.869 8  19662206.731 8 104958184.995 8  81634315.027 8
R19  23423895.006 5                 125302081.18415
> 2025 06 15 12 09 45.0000000  0 32
C05  39274120.379 6  39274119.482 7 204510651.572 6 158140607.811 7
C06  40252324.270 6  40252322.478 6 209604424.758 6 162079423.063 6
C12  23421301.872 6  23421299.594 7 121960862.477 6  94308052.429 7
C13  40167761.295 4  40167767.362 6 209164075.83214 161738949.14516
C16  40569512.002 7  40569515.605 7 211256100.610 7 163356622.463 7
C19  22591674.009 8                 117640783.183 8
C20  26051264.466 6                 135655754.755 6
C22  22335927.678 8                 116309036.015 8
C35  22498497.747 8                 117155575.983 8
C39  39886324.178 6                 207698559.562 6
C44  21820798.879 8                 113626628.720 8
C60  40660703.777 6                 211730956.858 6
E04  26982994.737 6  26982997.171 7 141796592.135 6 107268207.419 7
E05  24271785.101 7  24271789.663 8 127549087.649 7  96490080.201 8
E06  25350881.466 8  25350884.620 8 133219778.716 8 100779909.515 8
E09  24759685.896 8  24759688.012 9 130113023.795 8  98429667.546 9
E11  27757973.469 6  27757976.787 7 145869125.549 6 110349016.482 7
E30  27525995.939 7  27525999.862 8 144650075.154 7 109426815.303 8
E34  24094061.037 8  24094063.610 9 126615144.221 8  95783545.557 9
E36  24006602.066 8  24006604.750 9 126155541.602 8  95435859.570 9
G01  20783757.924 7                  20783760.516 8  20783762.649 8 109219375.944 7                  85106025.044 8  81559950.386 8
G02  20772015.662 8  20772016.552 7                                 109157673.229 8  85057934.483 7                
G03  21921628.320 7                  21921635.010 7  21921633.674 8 115198929.015 7                  89765433.120 7  86025201.713 8
G08  22495540.575 7                  22495548.192 7  22495546.131 8 118214849.031 7                  92115501.711 7  88277347.874 8
G10  24097473.968 6                  24097480.095 6  24097476.533 6 126633072.195 6                  98675148.520 6  94563670.970 6
G17  24104648.523 6                  24104652.713 6                 126670741.521 6                  98704523.413 6
G32  22179299.899 7                  22179305.528 7  22179302.873 8 116552999.837 7                  90820548.479 7  87036345.291 8
R02  19649301.032 8  19649303.167 8 104852429.570 8  81551855.048 8
R03  20557279.904 8  20557283.040 7 110044729.491 8  85590367.128 7
R17  19771557.613 8  19771559.374 7 105801596.914 8  82290041.561 7
R18  19656898.605 8  19656900.973 8 104929861.924 8  81612285.999 8
R19  23412417.902 5                 125240697.239 5
> 2025 06 15 12 10  0.0000000  0 33
C05  39273799.502 5  39273799.118 7 204508982.390 5 158139317.081 7
C06  40246965.238 6  40246964.001 6 209576520.579 6 162057845.752 6
C12  23414357.172 6  23414355.193 7 121924700.739 6  94280089.921 7
C13  40170091.787 4  40170098.611 5 209176215.225 4 161748335.991 5
C16  40564512.550 7  40564516.065 7 211230066.013 7 163336490.916 7
C19  22595262.734 8                 117659470.938 8
C20  26060196.565 6                 135702261.171 6
C22  22329997.872 8                 116278159.790 8
C35  22503954.809 8                 117183991.929 8
C39  39882180.996 6                 207676985.050 6
C44  21817989.507 8                 113611999.176 8
C60  40660619.921 6                 211730520.808 6
E04  26988937.851 6  26988941.066 7 141827827.472 6 107291836.658 7
E05  24263476.044 7  24263480.663 8 127505424.043 7  96457049.002 8
E06  25353516.086 7  25353519.464 8 133233624.438 7 100790383.703 8
E09  24758452.067 8  24758454.465 9 130106541.338 8  98424763.609 9
E11  27765011.450 6  27765014.360 7 145906109.034 6 110376994.116 7
E30  27531714.940 7  27531720.084 8 144680135.073 7 109449555.384 8
E34  24089858.762 8  24089861.024 9 126593059.844 8  95766838.874 9
E36  24009571.537 8  24009574.564 9 126171148.207 8  95447665.862 9
G01  20778874.426 7                  20778877.114 8  20778878.974 8 109193713.031 7                  85086027.945 8  81540786.530 8
G02  20772669.699 8  20772670.134 7                                 109161109.475 8  85060612.071 7                
G03  21913295.127 7                  21913301.990 7  21913300.515 8 115155138.979 7                  89731311.021 7  85992501.402 8
G08  22504471.525 7                  22504478.958 7  22504477.090 8 118261782.392 7                  92152073.114 7  88312395.426 8
G10  24106025.983 6                  24106032.520 6  24106029.357 6 126678017.894 6                  98710171.158 6  94597234.333 6
G17  24096255.329 6                  24096261.111 6                 126626644.432 6                  98670162.006 6
G32  22182542.309 7                  22182547.993 7  22182545.162 8 116570036.724 7                  90833823.944 7  87049067.627 8
R01  22821517.041 5                 121993979.96315
R02  19652380.819 8  19652382.989 7 104868863.241 8  81564636.771 7
R03  20548314.194 8  20548317.306 8 109996734.256 8  85553037.531 8
R17  19776519.843 8  19776521.397 8 105828151.854 8  82310695.388 8
R18  19651614.636 8  19651616.278 8 104901654.448 8  81590346.854 8
R19  23400942.959 5                 125179311.902 5
> 2025 06 15 12 10 15.0000000  0 32
C05  39273477.252 6  39273476.612 7 204507303.698 6 158138019.019 7
C06  40241609.683 6  40241608.030 6 209548630.971 6 162036279.763 6
C12  23407423.842 6  23407421.208 7 121888595.241 6  94252170.863 7
C13  40172417.028 4  40172426.536 5 209188336.38214 161757708.85815
C16  40559515.518 7  40559519.466 7 211204048.734 7 163316372.753 7
C19  22598868.360 8                 117678248.255 8
C20  26069128.983 6                 135748781.201 6
C22  22324084.818 8                 116247369.860 8
C35  22509427.663 8                 117212488.807 8
C39  39878042.912 6                 207655437.610 6
C44  21815198.235 8                 113597464.166 8
C60  40660534.174 6                 211730075.196 6
E04  26994893.489 6  26994896.593 7 141859124.313 6 107315512.448 7
E05  24255174.922 7  24255179.509 8 127461802.047 7  96424049.277 8
E06  25356167.896 7  25356171.650 8 133247561.148 7 100800926.708 8
E09  24757237.656 7  24757240.020 9 130100159.360 7  98419935.707 9
E11  27772050.378 6  27772053.724 6 145943101.316 6 110404978.468 6
E30  27537446.092 7  27537451.497 8 144710253.627 7 109472339.826 8
E34  24085662.840 8  24085665.017 9 126571010.167 8  95750158.440 9
E36  24012550.082 8  24012553.019 9 126186799.990 8  95459506.320 9
G01  20774004.554 7                  20774007.834 8  20774009.658 8 109168124.103 7                  85066088.514 8  81521677.891 8
G02  20773338.962 7  20773339.327 7                                 109164626.643 7  85063352.722 7                
G03  21904974.418 7                  21904981.009 7  21904979.965 8 115111411.305 7                  89697237.579 7  85959847.660 8
G08  22513414.026 7                  22513421.719 7  22513418.925 8 118308774.813 7                  92188690.528 7  88347487.129 8
G10  24114580.888 6                  24114587.246 6  24114584.524 6 126722974.263 6                  98745202.033 6  94630805.542 6
G17  24087874.678 5                  24087880.322 5                 126582605.169 5                  98635845.771 5
G32  22185806.802 7                  22185812.783 7  22185809.951 8 116587194.703 7                  90847193.771 7  87061880.374 8
R02  19655491.281 8  19655493.679 7 104885462.929 8  81577547.646 7
R03  20539371.288 8  20539374.915 7 109948862.640 8  85515804.115 7
R17  19781506.787 8  19781508.834 8 105854838.795 8  82331451.898 8
R18  19646352.281 8  19646353.906 8 104873563.095 8  81568498.017 8
R19  23389467.516 5                 125117925.854 5
> 2025 06 15 12 10 30.0000000  0 31
C05  39273153.191 6  39273152.077 7 204505614.397 6 158136712.754 7
C06  40236256.550 6  40236254.281 6 209520754.947 6 162014724.287 6
C12  23400501.001 6  23400498.518 7 121852545.050 6  94224294.518 7
C16  40554522.179 7  40554526.150 7 211178047.677 7 163296267.114 7
C19  22602491.566 8                 117697113.771 8
C20  26078064.661 6                 135795313.497 6
C22  22318188.383 8                 116216665.171 8
C35  22514915.211 8                 117241065.373 8
C39  39873910.120 6                 207633916.184 6
C44  21812424.735 8                 113583022.679 8
C60  40660446.676 6                 211729618.918 6
E04  27000862.435 6  27000863.601 7 141890481.236 6 107339233.755 7
E05  24246882.002 7  24246886.268 8 127418220.818 7  96391080.387 8
E06  25358837.253 7  25358840.845 8 133261587.606 7 100811537.608 8
E09  24756042.159 8  24756044.469 9 130093876.816 8  98415183.007 9
E11  27779091.179 5  27779094.328 6 145980101.343 5 110432968.648 6
E30  27543189.602 7  27543193.576 8 144740429.366 7 109495167.542 8
E34  24081473.616 8  24081475.501 9 126548994.167 8  95733503.502 9
E36  24015536.995 8  24015539.871 9 126202495.832 8  95471380.125 9
G01  20769149.169 7                  20769152.542 8  20769154.125 8 109142608.228 7                  85046206.006 8  81502623.827 8
G02  20774023.699 7  20774024.038 7                                 109168223.770 7  85066155.666 7                
