     3.04           OBSERVATION DATA    Mixed(MIXED)        RINEX VERSION / TYPE
cnvtToRINEX 3.14.0  convertToRINEX OPR  20250615 162116 UTC PGM / RUN BY / DATE 
----------------------------------------------------------- COMMENT             
1008                                                        MARKER NAME         
1008                                                        MARKER NUMBER       
GEODETIC                                                    MARKER TYPE         
GNSS Observer       Trimble                                 OBSERVER / AGENCY   
6337S22116          Geo Explorer 3      6.26                REC # / TYPE / VERS 
                    UNKNOWN EXT     NONE                    ANT # / TYPE        
  3916452.9402  1193364.2420  4874939.0877                  APPROX POSITION XYZ 
        1.3250        0.0000        0.0000                  ANTENNA: DELTA H/E/N
R    4 C1C C2C L1C L2C                                      SYS / # / OBS TYPES 
G    8 C1C C2W C2X C5X L1C L2W L2X L5X                      SYS / # / OBS TYPES 
C    4 C2I C7I L2I L7I                                      SYS / # / OBS TYPES 
E    4 C1X C8X L1X L8X                                      SYS / # / OBS TYPES 
    15.000                                                  INTERVAL            
  2025     6    15    15     1   45.0000000     GPS         TIME OF FIRST OBS   
  2025     6    15    15    27   30.0000000     GPS         TIME OF LAST OBS    
     0                                                      RCV CLOCK OFFS APPL 
  9 R03  5 R04  6 R05  1 R12 -1 R13 -2 R14 -7 R18 -3 R19  3 GLONASS SLOT / FRQ #
    R20  2                                                  GLONASS SLOT / FRQ #
R L2C -0.25000                                              SYS / PHASE SHIFT   
G L2X -0.25000                                              SYS / PHASE SHIFT   
    18                                                      LEAP SECONDS        
    41                                                      # OF SATELLITES     
   C05   104   104   104   104                              PRN / # OF OBS      
   C06   104   104   104   104                              PRN / # OF OBS      
   C09   104   104   104   104                              PRN / # OF OBS      
   C11   104   104   104   104                              PRN / # OF OBS      
   C12   104   104   104   104                              PRN / # OF OBS      
   C16   104   104   104   104                              PRN / # OF OBS      
   C21   104     0   104     0                              PRN / # OF OBS      
   C22   104     0   104     0                              PRN / # OF OBS      
   C34   104     0   104     0                              PRN / # OF OBS      
   C36   104     0   104     0                              PRN / # OF OBS      
   C39   104     0   104     0                              PRN / # OF OBS      
   C42   104     0   104     0                              PRN / # OF OBS      
   C43   104     0   104     0                              PRN / # OF OBS      
   C44    77     0    76     0                              PRN / # OF OBS      
   C45    59     0    59     0                              PRN / # OF OBS      
   E03   104   104   104   104                              PRN / # OF OBS      
   E05   104   104   104   104                              PRN / # OF OBS      
   E08    70    70    70    70                              PRN / # OF OBS      
   E09    20    20    20    20                              PRN / # OF OBS      
   E13   104   104   104   104                              PRN / # OF OBS      
   E15   104   104   104   104                              PRN / # OF OBS      
   E34   104   104   104   104                              PRN / # OF OBS      
   G01   104     0   104   104   104     0   104   104      PRN / # OF OBS      
   G03   104     0   104   104   104     0   104   104      PRN / # OF OBS      
   G04   104     0   104   104   104     0   104   104      PRN / # OF OBS      
   G06   104     0   104   104   104     0   104   104      PRN / # OF OBS      
   G09   104     0   104   104   104     0   104   104      PRN / # OF OBS      
   G11     2     0     2     2     2     0     2     2      PRN / # OF OBS      
   G17   104     0   104     0   104     0   104     0      PRN / # OF OBS      
   G19   104   104     0     0   104   104     0     0      PRN / # OF OBS      
   G28    34     0    24    33    32     0    24    33      PRN / # OF OBS      
   G31   104     0   104     0   104     0   104     0      PRN / # OF OBS      
   R03   104   104   104   104                              PRN / # OF OBS      
   R04   104   104   104   104                              PRN / # OF OBS      
   R05   104   104   104   104                              PRN / # OF OBS      
   R12   100   100   100   100                              PRN / # OF OBS      
   R13   104     0   104     0                              PRN / # OF OBS      
   R14    37    37    37    37                              PRN / # OF OBS      
   R18    25     6    23     5                              PRN / # OF OBS      
   R19   104   104   104   104                              PRN / # OF OBS      
   R20   104   104   104   104                              PRN / # OF OBS      
DBHZ                                                        SIGNAL STRENGTH UNIT
                                                            END OF HEADER       
>                              2  1
              *** Start of Kinematic Data ***               COMMENT             
> 2025 06 15 15 01 45.0000000  0 37
C05  39179334.239 6  39179331.011 6 204017046.17716 157758937.28416
C06  38233198.521 7  38233193.670 7 199090304.81017 153949230.34017
C09  38450720.799 7  38450717.779 7 200222985.38217 154825115.60717
C11  23160826.347 7  23160823.505 8 120604472.06517  93259137.27618
C12  23423147.165 7  23423145.334 8 121970441.21517  94315123.16718
C16  38855879.593 7  38855881.101 7 202332748.25417 156456517.57517
C21  22001958.222 8                 114569953.83918
C22  22708238.541 8                 118247737.01618
C34  22734392.986 7                 118383934.01817
C36  24902516.656 7                 129673951.44317
C39  39020957.368 7                 203192365.21717
C42  25024104.648 7                 130307106.06017
C43  24362245.314 7                 126860585.82917
C44  24827982.807 7                 129285796.70817
E03  24027583.620 8  24027586.070 9 126265808.25318  95519279.02219
E05  22337305.407 8  22337307.607 9 117383340.19418  88799699.45519
E09  27945288.496 7  27945293.269 8 146853478.94317 111093669.64918
E13  27430440.203 6  27430445.683 7 144147942.87516 109047005.38517
E15  23791248.156 8  23791250.359 9 125023849.20418  94579744.80219
E34  24241153.198 8  24241155.614 8 127388112.25718  96368288.46218
G01  22323594.455 7                  22323598.971 7  22323601.069 8 117311262.00617                  91411392.69917  87602585.82418
G03  20352620.819 8                  20352626.511 7  20352624.774 8 106953735.90818                  83340598.50217  79868067.23618
G04  20241711.059 8                  20241715.671 8  20241716.287 9 106370908.90318                  82886443.86918  79432844.55119
G06  22733862.677 7                  22733869.425 7  22733867.422 8 119467265.62817                  93091405.33217  89212592.25818
G09  21980400.821 7                  21980406.953 7  21980405.798 8 115507796.35417                  90006384.71817  86255852.43018
G17  23454098.638 7                  23454103.583 7                 123252103.67917                  96040482.73317
G19  22366533.982 7  22366535.974 5                                 117536922.69417  91587224.35415                
G28  24194079.745 5                  24194084.628 6  24194088.138 6 127140727.11415                  99070722.42916  94942787.01516
G31  22341951.872 7                  22341955.682 7                 117407748.86917                  91486576.71217
R03  21070797.770 7  21070801.703 7 112793622.47217  87728227.19317
R04  19222105.890 8  19222107.601 7 102933499.37318  80059489.30817
R05  21516188.753 7  21516192.173 7 115016375.24817  89457204.51717
R12  23135490.244 7  23135495.424 7 123585722.31817  96122196.72917
R13  22535868.346 6                 120340298.44216
R18  22924897.574 5  22924901.527 5 122374731.75015  95180298.16215
R19  19761269.726 8  19761270.192 7 105709464.44218  82218448.01917
R20  20778495.316 6  20778499.948 7 111111967.12116  86420436.61117
> 2025 06 15 15 02  0.0000000  0 37
C05  39179203.481 6  39179200.512 6 204016364.801 6 157758410.400 6
C06  38232826.108 6  38232821.452 7 199088364.781 6 153947730.189 7
C09  38448787.714 7  38448785.231 7 200212923.123 7 154817334.854 7
C11  23159314.386 7  23159311.592 8 120596598.852 7  93253049.209 8
C12  23430470.597 7  23430468.863 8 122008576.735 7  94344611.953 8
C16  38855928.186 7  38855930.046 7 202333002.878 7 156456714.469 7
C21  21999611.365 8                 114557733.749 8
C22  22713818.866 8                 118276795.232 8
C34  22737829.484 8                 118401827.505 8
C36  24898189.702 7                 129651415.549 7
C39  39022308.168 7                 203199399.348 7
C42  25016103.234 7                 130265440.599 7
C43  24357283.706 7                 126834749.723 7
C44  24837464.350 7                 129335168.979 7
E03  24022647.889 8  24022650.537 9 126239871.918 8  95499658.368 9
E05  22340319.853 8  22340322.114 9 117399181.501 8  88811683.295 9
E09  27953183.062 7  27953187.224 8 146894962.045 7 111125051.311 8
E13  27421997.177 7  27422002.467 7 144103573.203 7 109013440.067 7
E15  23788405.420 8  23788408.022 9 125008912.664 8  94568445.406 9
E34  24246495.931 8  24246498.621 9 127416189.371 8  96389528.588 9
G01  22332620.069 7                  22332625.160 7  22332627.027 8 117358692.628 7                  91448351.550 7  87638004.732 8
G03  20356569.156 8                  20356574.502 7  20356572.914 8 106974484.064 8                  83356765.888 7  79883560.984 8
G04  20238630.057 7                  20238634.850 8  20238635.456 9 106354718.456 7                  82873827.945 8  79420754.310 9
G06  22725682.261 7                  22725689.245 7  22725687.113 8 119424277.991 7                  93057908.478 7  89180491.123 8
G09  21971679.607 7                  21971685.738 7  21971684.739 8 115461967.176 7                  89970673.695 7  86221629.396 8
G17  23460767.787 7                  23460772.379 7                 123287148.696 7                  96067790.533 7
G19  22369717.851 7  22369719.312 5                                 117553651.615 7  91600259.882 5                
G28  24201019.593 5                  24201023.484 6  24201028.037 7 127177194.617 5                  99099138.699 6  94970019.229 7
G31  22344569.799 7                  22344573.935 7                 117421507.027 7                  91497297.347 7
R03  21078891.593 8  21078894.941 7 112836947.162 8  87761924.147 7
R04  19221831.119 8  19221832.767 7 102932026.944 8  80058344.111 7
R05  21507506.878 7  21507510.421 7 114969968.450 7  89421110.362 7
R12  23138681.681 7  23138686.987 7 123602770.278 7  96135456.191 7
R13  22530557.132 6                 120311936.106 6
R18  22937447.545 5  22937455.895 5 122441738.732 5  95232414.636 5
R19  19766616.331 8  19766616.803 7 105738064.381 8  82240692.376 7
R20  20771074.833 6  20771078.673 7 111072283.792 6  86389571.819 7
>                              3  5
              *** Start of Occupation ***                   COMMENT             
1008                                                        MARKER NAME         
1008                                                        MARKER NUMBER       
  3916452.9402  1193364.2420  4874939.0877                  APPROX POSITION XYZ 
        1.3250        0.0000        0.0000                  ANTENNA: DELTA H/E/N
> 2025 06 15 15 02 15.0000000  0 37
C05  39179071.666 6  39179068.576 6 204015678.730 6 157757879.903 6
C06  38232459.846 6  38232454.880 7 199086457.763 6 153946255.570 7
C09  38446861.179 7  38446859.298 7 200202891.962 7 154809578.159 7
C11  23157826.651 7  23157823.865 8 120588850.234 7  93247057.491 8
C12  23437809.177 7  23437807.759 8 122046790.566 7  94374161.291 8
C16  38855983.551 7  38855985.072 7 202333288.570 7 156456935.376 7
C21  21997278.484 8                 114545584.075 8
C22  22719407.104 8                 118305896.605 8
C34  22741287.332 7                 118419834.648 7
C36  24893880.560 7                 129628977.367 7
C39  39023664.401 7                 203206460.999 7
C42  25008107.235 7                 130223802.314 7
C43  24352342.356 7                 126809017.593 7
C44  24846949.240 7                 129384561.322 7
E03  24017726.010 8  24017728.234 9 126214005.220 8  95480090.396 9
E05  22343347.725 8  22343349.726 8 117415091.763 8  88823719.296 8
E09  27961077.628 7  27961082.292 7 146936450.283 7 111156436.869 7
E13  27413556.870 7  27413562.023 7 144059218.887 7 108979886.358 7
E15  23785578.945 8  23785581.425 9 124994058.860 8  94557208.613 9
E34  24251852.651 8  24251855.435 8 127444339.416 8  96410823.915 8
G01  22341658.502 7                  22341663.600 7  22341665.661 8 117406190.038 7                  91485362.419 7  87673473.536 8
G03  20360533.225 8                  20360538.835 7  20360537.104 8 106995316.292 8                  83372998.786 7  79899117.503 8
G04  20235571.229 7                  20235575.303 8  20235576.087 9 106338643.552 7                  82861302.104 8  79408750.374 9
G06  22717516.901 7                  22717523.880 7  22717521.593 8 119381368.445 7                  93024472.483 7  89148448.295 8
G09  21962971.655 7                  21962977.570 7  21962976.814 8 115416205.632 7                  89935015.365 7  86187456.831 8
G17  23467450.216 7                  23467455.305 7                 123322265.751 7                  96095154.398 7
G19  22372927.903 7  22372930.168 5                                 117570521.824 7  91613405.462 5                
G28  24207978.027 6                  24207982.210 5  24207987.132 6 127213762.093 6                  99127632.783 5  94997326.004 6
G31  22347217.078 7                  22347221.107 7                 117435418.370 7                  91508137.363 7
R03  21086994.087 8  21086997.753 7 112880320.697 8  87795659.112 7
R04  19221578.478 8  19221579.643 7 102930673.185 8  80057291.194 7
R05  21498839.210 7  21498842.525 7 114923632.373 7  89385071.253 7
R12  23141907.308 7  23141911.235 7 123619997.494 7  96148855.151 7
R13  22525276.083 6                 120283738.020 6
R18  22950007.384 4  22950016.240 5                  95284558.457 5
R19  19771996.662 8  19771996.634 7 105766844.855 8  82263077.188 7
R20  20763682.296 6  20763686.749 7 111032754.703 6  86358826.989 7
> 2025 06 15 15 02 30.0000000  0 36
C05  39178938.366 6  39178934.846 6 204014984.971 6 157757343.444 6
C06  38232099.978 7  38232094.503 7 199084580.869 7 153944804.259 7
C09  38444940.935 7  38444938.485 7 200192888.927 7 154801843.212 7
C11  23156361.900 7  23156359.204 8 120581223.425 7  93241159.971 8
C12  23445162.311 7  23445160.695 8 122085079.653 7  94403768.802 8
C16  38856043.882 7  38856044.963 7 202333602.404 7 156457178.039 7
C21  21994957.797 8                 114533501.883 8
C22  22725003.318 8                 118335038.092 8
C34  22744767.031 7                 118437952.359 7
C36  24889589.700 7                 129606634.260 7
C39  39025024.894 7                 203213547.357 7
C42  25000115.759 7                 130182188.320 7
C43  24347420.222 7                 126783386.791 7
C44  24856437.666 7                 129433970.579 7
E03  24012816.201 8  24012818.562 9 126188205.312 8  95460572.951 9
E05  22346387.935 8  22346389.898 9 117431067.928 8  88835805.165 9
E09  27968973.051 7  27968977.659 8 146977940.684 7 111187824.052 8
E13  27405119.203 7  27405124.133 8 144014877.250 7 108946342.216 8
E15  23782767.657 8  23782770.021 9 124979285.033 8  94546032.313 9
E34  24257222.932 8  24257225.585 8 127472559.446 8  96432172.160 8
G01  22350709.445 7                  22350713.593 7  22350716.374 8 117453751.091 7                  91522422.960 7  87708989.835 8
G03  20364512.793 8                  20364518.478 7  20364516.945 8 107016229.640 8                  83389294.886 7  79914734.610 8
G04  20232534.394 7                  20232537.156 8  20232538.184 8 106322681.428 7                  82848864.055 8  79396830.586 8
G06  22709365.791 7                  22709372.910 7  22709370.941 8 119338534.319 7                  92991095.269 7  89116461.793 8
G09  21954276.076 7                  21954281.578 7  21954280.763 8 115370508.949 7                  89899407.597 7  86153332.734 8
G17  23474145.188 7                  23474151.102 7                 123357451.515 7                  96122571.831 7
G19  22376164.479 7  22376167.458 5                                 117587530.228 7  91626658.714 5                
G28  24214954.686 5                  24214959.155 5  24214963.547 6 127250426.202 5                  99156202.206 5  95024705.038 6
G31  22349892.872 7                  22349896.632 7                 117449479.886 7                  91519094.372 7
R03  21095105.312 8  21095109.546 7 112923739.801 8  87829429.515 7
R04  19221347.382 8  19221348.392 7 102929434.838 8  80056328.040 7
R05  21490183.791 7  21490187.275 8 114877364.489 7  89349085.142 8
R12  23145164.812 7  23145169.649 7 123637400.835 7  96162391.066 7
R13  22520025.893 6                 120255702.002 6
R19  19777410.211 8  19777410.559 7 105795802.855 8  82285600.047 7
R20  20756318.788 6  20756322.634 7 110993377.340 6  86328200.190 7
> 2025 06 15 15 02 45.0000000  0 36
C05  39178804.090 6  39178800.430 6 204014284.253 6 157756801.607 6
C06  38231744.879 7  38231740.060 7 199082734.785 7 153943376.751 7
C09  38443025.046 7  38443022.974 7 200182914.911 7 154794130.683 7
C11  23154920.534 7  23154918.079 8 120573719.316 7  93235357.313 8
C12  23452529.871 7  23452528.169 8 122123444.311 7  94433434.758 8
C16  38856109.609 7  38856110.971 7 202333945.070 7 156457443.009 7
C21  21992650.681 8                 114521487.923 8
C22  22730607.861 8                 118364220.258 8
C34  22748267.854 7                 118456181.211 7
C36  24885317.342 7                 129584387.133 7
C39  39026390.910 7                 203220658.974 7
C42  24992128.666 7                 130140599.465 7
C43  24342517.563 7                 126757858.216 7
C44  24865929.823 7                 129483397.182 7
E03  24007919.554 8  24007921.809 9 126162472.928 8  95441106.587 9
E05  22349440.736 8  22349442.710 9 117447110.585 8  88847941.316 9
E09  27976868.910 7  27976873.677 8 147019433.743 7 111219213.261 8
E13  27396683.881 7  27396688.561 7 143970549.129 7 108912808.310 7
E15  23779971.566 8  23779974.045 9 124964592.050 8  94534917.160 9
E34  24262606.750 8  24262609.096 9 127500850.042 8  96453573.804 9
G01  22359771.905 7                  22359776.380 7  22359778.845 8 117501376.245 7                  91559533.464 7  87744554.023 8
G03  20368508.092 8                  20368513.662 8  20368512.179 8 107037224.745 8                  83405654.720 8  79930412.767 8
G04  20229517.630 8                  20229521.612 8  20229522.367 9 106306832.783 8                  82836514.437 8  79384995.534 9
G06  22701229.252 7                  22701236.329 7  22701234.481 8 119295776.725 7                  92957777.650 7  89084532.422 8
G09  21945592.709 7                  21945598.525 7  21945597.425 8 115324878.080 7                  89863851.114 7  86119257.757 8
G17  23480854.750 6                  23480860.352 7                 123392706.398 6                  96150043.137 7
G19  22379427.699 7  22379430.949 5                                 117604677.292 7  91640020.051 5                
G28  24221950.503 6                  24221955.668 5  24221959.146 6 127287187.333 6                  99184847.248 5  95052156.536 6
G31  22352597.387 7                  22352600.920 7                 117463692.000 7                  91530168.750 7
R03  21103224.553 8  21103228.452 7 112967204.659 8  87863235.485 7
R04  19221137.568 8  19221139.414 7 102928312.634 8  80055455.213 7
R05  21481541.179 7  21481545.119 7 114831165.652 7  89313152.760 7
R12  23148455.635 8  23148459.483 7 123654980.821 8  96176064.402 7
R13  22514806.238 6                 120227829.046 6
R19  19782856.641 8  19782857.429 8 105824938.671 8  82308261.247 8
R20  20748983.203 6  20748987.793 7 110954153.138 6  86297692.452 7
> 2025 06 15 15 03  0.0000000  0 37
C05  39178668.323 6  39178665.401 6 204013580.005 6 157756257.052 6
C06  38231397.256 7  38231391.948 7 199080922.912 7 153941975.707 7
C09  38441116.235 7  38441114.036 7 200172973.239 7 154786443.144 7
C11  23153503.867 7  23153500.916 8 120566341.220 7  93229652.119 8
C12  23459912.515 7  23459910.534 8 122161887.755 7  94463161.645 8
C16  38856181.640 7  38856183.099 7 202334319.909 7 156457732.871 7
C21  21990357.253 8                 114509545.521 8
C22  22736220.236 8                 118393446.388 8
C34  22751790.000 7                 118474524.472 7
C36  24881064.179 7                 129562239.594 7
C39  39027762.292 7                 203227799.266 7
C42  24984147.423 7                 130099039.158 7
C43  24337635.134 7                 126732435.428 7
C44  24875425.454 7                 129532844.281 7
E03  24003036.538 8  24003038.530 9 126136811.522 8  95421693.938 9
E05  22352506.933 8  22352508.768 8 117463222.987 8  88860130.247 8
E09  27984766.239 7  27984770.666 8 147060932.763 7 111250606.955 8
E13  27388251.263 7  27388256.534 8 143926238.093 7 108879287.346 8
E15  23777191.772 8  23777194.152 9 124949983.437 8  94523865.848 9
E34  24268004.457 8  24268006.619 8 127529214.566 8  96475031.364 8
G01  22368847.467 7                  22368852.182 7  22368854.676 8 117549068.726 7                  91596696.395 7  87780168.488 8
G03  20372519.521 8                  20372525.203 7  20372523.335 8 107058304.949 8                  83422080.862 7  79946154.478 8
G04  20226523.673 7                  20226528.380 8  20226528.940 9 106291101.031 7                  82824255.923 8  79373247.796 9
G06  22693107.991 7                  22693115.058 7  22693113.182 8 119253099.330 7                  92924522.564 7  89052662.979 8
G09  21936922.788 7                  21936928.419 7  21936927.587 8 115279316.559 7                  89828348.668 7  86085234.590 8
G17  23487577.006 7                  23487582.433 7                 123428033.488 7                  96177570.726 7
G19  22382718.123 7  22382720.360 5                                 117621966.247 7  91653491.911 5                
G28  24228964.583 6                  24228969.429 6  24228972.252 6 127324048.706 6                  99213570.402 6  95079682.866 6
G31  22355330.975 7                  22355334.859 6                 117478058.089 7                  91541363.100 6
R03  21111353.689 8  21111357.261 7 113010718.846 8  87897079.855 7
R04  19220950.169 8  19220951.861 7 102927309.832 8  80054675.266 7
R05  21472912.227 8  21472915.679 7 114785039.586 8  89277276.945 7
R12  23151780.379 8  23151784.609 7 123672740.715 8  96189877.650 7
R13  22509617.728 6                 120200123.069 6
R18  22987724.593 4                 122710009.76714
R19  19788336.728 8  19788337.801 7 105854255.527 8  82331063.232 7
R20  20741677.714 6  20741681.923 7 110915085.688 6  86267306.667 7
> 2025 06 15 15 03 15.0000000  0 36
C05  39178532.992 6  39178530.067 6 204012872.616 6 157755710.072 6
C06  38231055.798 7  38231051.007 7 199079145.462 7 153940601.277 7
C09  38439213.189 7  38439210.981 7 200163064.187 7 154778780.834 7
C11  23152110.741 7  23152107.812 8 120559089.614 7  93224044.709 8
C12  23467310.289 7  23467308.274 8 122200410.149 7  94492949.529 8
C16  38856259.856 7  38856261.325 7 202334727.284 7 156458047.887 7
C21  21988077.630 8                 114497675.052 8
C22  22741841.349 8                 118422716.755 8
C34  22755334.894 7                 118492982.363 7
C36  24876830.046 8                 129540192.248 8
C39  39029138.833 7                 203234968.497 7
C42  24976171.908 7                 130057507.786 7
C43  24332773.368 7                 126707118.978 7
C44  24884925.077 7                 129582311.920 7
E03  23998166.908 8  23998168.872 9 126111221.564 8  95402335.316 9
E05  22355586.228 8  22355588.177 9 117479405.404 8  88872372.131 9
E09  27992664.256 7  27992668.636 8 147102437.900 7 111282005.291 8
E13  27379822.661 7  27379827.766 8 143881944.751 7 108845779.777 8
E15  23774428.010 8  23774430.351 9 124935459.726 8  94512878.758 9
E34  24273415.930 8  24273418.384 8 127557653.323 8  96496545.078 8
G01  22377935.932 7                  22377940.758 7  22377943.154 8 117596828.604 7                  91633911.859 7  87815833.294 8
G03  20376547.440 8                  20376552.842 7  20376551.052 8 107079470.575 8                  83438573.532 7  79961959.979 8
G04  20223552.675 7                  20223557.461 8  20223558.068 9 106275486.567 7                  82812088.844 8  79361587.646 9
G06  22685002.108 7                  22685009.110 7  22685007.389 8 119210502.878 7                  92891330.541 7  89020853.949 8
G09  21928265.886 7                  21928271.704 7  21928270.635 8 115233824.930 7                  89792900.711 7  86051263.616 8
G17  23494313.222 7                  23494318.387 7                 123463432.786 7                  96205154.547 7
G19  22386035.447 7  22386036.934 5                                 117639397.053 7  91667074.361 5                
G28  24235998.274 6                  24236003.473 5  24236006.048 6 127361010.468 6                  99242371.685 5  95107284.105 6
G31  22358093.765 7                  22358097.198 7                 117492578.414 7                  91552677.617 7
R03  21119491.536 8  21119495.141 7 113054282.378 8  87930962.581 7
R04  19220785.372 8  19220786.907 7 102926426.725 8  80053988.403 7
R05  21464296.760 7  21464299.934 7 114738986.647 7  89241458.038 7
R12  23155138.769 8  23155143.284 7 123690680.673 8  96203830.966 7
R13  22504461.017 6                 120172584.643 6
R19  19793851.544 8  19793852.042 8 105883753.565 8  82354006.132 8
R20  20734401.226 6  20734405.766 7 110876175.916 6  86237043.554 7
> 2025 06 15 15 03 30.0000000  0 36
C05  39178396.104 6  39178392.822 6 204012160.574 6 157755159.460 6
C06  38230721.126 7  38230715.498 7 199077401.024 7 153939252.366 7
C09  38437316.499 7  38437313.730 7 200153186.284 7 154771142.646 7
C11  23150742.544 7  23150739.139 8 120551963.223 7  93218534.136 8
C12  23474722.537 7  23474721.151 8 122239009.622 7  94522797.075 8
C16  38856344.490 7  38856345.437 7 202335165.677 7 156458386.887 7
C21  21985812.057 8                 114485875.056 8
C22  22747470.384 8                 118452029.798 8
C34  22758901.008 7                 118511553.191 7
C36  24872615.254 8                 129518243.824 8
C39  39030521.278 7                 203242165.175 7
C42  24968201.446 7                 130016004.029 7
C43  24327932.170 7                 126681907.592 7
C44  24894428.951 6                 129631798.360 6
E03  23993310.406 8  23993312.639 9 126085701.624 8  95383029.662 9
E05  22358678.786 8  22358680.612 9 117495656.166 8  88884665.737 9
E09  28000562.973 7  28000567.940 7 147143947.622 7 111313407.068 7
E13  27371396.697 7  27371401.934 8 143837667.816 7 108812284.623 8
E15  23771679.716 8  23771682.570 9 124921019.563 8  94501954.884 9
E34  24278841.515 8  24278843.944 8 127586164.717 8  96518113.760 8
G01  22387036.844 7                  22387042.276 7  22387044.031 8 117644654.177 7                  91671178.494 7  87851547.148 8
G03  20380591.146 8                  20380596.499 7  20380594.792 8 107100720.064 8                  83455131.564 7  79977828.088 8
G04  20220603.831 7                  20220607.766 8  20220608.715 9 106259987.907 7                  82800011.999 8  79350014.027 9
G06  22676911.581 7                  22676918.777 7  22676916.760 8 119167986.171 7                  92858200.668 7  88989104.492 8
G09  21919622.458 7                  21919628.069 7  21919626.673 8 115188401.971 7                  89757506.215 7  86017343.896 8
G17  23501063.029 7                  23501068.161 6                 123498902.525 7                  96232793.233 6
G19  22389378.220 7  22389380.246 5                                 117656968.251 7  91680766.200 5                
G28  24243050.758 6                  24243055.808 5  24243058.726 6 127398070.664 6                  99271249.721 5  95134958.824 6
G31  22360886.198 7                  22360889.626 6                 117507251.354 7                  91564111.085 6
R03  21127638.581 8  21127641.927 7 113097893.521 8  87964882.323 7
R04  19220642.209 8  19220644.143 7 102925661.765 8  80053393.438 7
R05  21455695.277 8  21455698.656 7 114693005.416 8  89205694.930 7
R12  23158530.854 8  23158535.195 7 123708799.077 8  96217923.117 7
R13  22499334.975 7                 120145212.654 7
R19  19799399.082 8  19799399.871 7 105913431.119 8  82377088.649 7
R20  20727154.006 6  20727158.354 7 110837422.523 6  86206902.043 7
> 2025 06 15 15 03 45.0000000  0 36
C05  39178259.190 6  39178255.623 6 204011446.855 6 157754607.579 6
C06  38230392.642 7  38230387.937 7 199075692.597 7 153937931.305 7
C09  38435426.077 7  38435423.172 7 200143342.646 7 154763530.910 7
C11  23149398.851 7  23149395.536 8 120544964.920 7  93213122.619 8
C12  23482150.719 7  23482148.874 8 122277689.016 7  94552706.414 8
C16  38856434.827 7  38856436.167 7 202335638.036 7 156458752.155 7
C21  21983560.045 8                 114474148.522 8
C22  22753108.953 8                 118481388.334 8
C34  22762489.582 8                 118530239.838 8
C36  24868419.910 7                 129496397.488 7
C39  39031909.106 7                 203249392.245 7
C42  24960237.004 7                 129974530.885 7
C43  24323111.041 7                 126656804.461 7
C44  24903936.763 7                 129681306.364 7
E03  23988468.032 8  23988470.217 9 126060254.694 8  95363779.253 9
E05  22361784.761 8  22361786.609 8 117511978.179 8  88897013.253 8
E09  28008463.771 7  28008468.259 7 147185464.747 7 111344814.494 7
E13  27362974.795 7  27362980.001 8 143793410.461 7 108778804.257 8
E15  23768948.742 8  23768951.231 9 124906666.105 8  94491096.596 9
E34  24284280.982 8  24284283.894 9 127614751.691 8  96539739.612 9
G01  22396151.219 7                  22396155.794 7  22396158.020 8 117692548.200 7                  91708498.461 7  87887312.124 8
G03  20384650.766 8                  20384656.611 7  20384654.910 8 107122056.383 8                  83471757.271 7  79993761.048 8
G04  20217677.014 8                  20217680.382 8  20217681.678 9 106244608.119 8                  82788027.764 8  79338529.146 9
G06  22668836.596 7                  22668844.181 7  22668841.700 8 119125552.579 7                  92825135.555 7  88957417.083 8
G09  21910992.041 7                  21910998.319 7  21910996.586 8 115143050.757 7                  89722167.644 7  85983477.767 8
G17  23507826.792 7                  23507831.537 7                 123534445.393 7                  96260488.925 7
G19  22392749.361 7  22392750.770 5                                 117674682.522 7  91694569.499 5                
G28  24250122.122 6                  24250127.650 5  24250129.219 6 127435231.995 6                  99300206.612 5  95162709.249 6
G31  22363708.274 7                  22363711.410 7                 117522079.698 7                  91575665.661 7
R03  21135794.623 8  21135798.379 7 113141555.044 8  87998841.298 7
R04  19220522.446 8  19220523.942 7 102925017.848 8  80052892.609 7
R05  21447107.740 8  21447111.293 7 114647099.271 8  89169990.196 7
R12  23161956.312 7  23161960.988 7 123727098.763 7  96232156.167 7
R13  22494240.509 7                 120118010.662 7
R19  19804981.194 8  19804981.494 8 105943290.859 8  82400312.872 8
R20  20719937.627 6  20719941.177 7 110798829.461 6  86176885.210 7
> 2025 06 15 15 04  0.0000000  0 36
C05  39178121.543 6  39178118.225 6 204010730.580 6 157754053.709 6
C06  38230072.303 7  38230066.444 6 199074019.179 7 153936637.289 6
C09  38433541.864 7  38433539.285 7 200133532.232 7 154755944.870 7
C11  23148079.187 7  23148075.942 8 120538093.893 7  93207809.505 8
C12  23489594.028 7  23489592.027 8 122316447.104 7  94582676.593 8
C16  38856532.334 7  38856533.091 7 202336143.424 7 156459142.965 7
C21  21981321.416 8                 114462494.482 8
C22  22758755.390 8                 118510791.344 8
C34  22766100.080 7                 118549041.221 7
C36  24864243.954 8                 129474652.513 8
C39  39033302.802 7                 203256648.729 7
C42  24952277.995 7                 129933087.537 7
C43  24318310.750 7                 126631808.815 7
C44  24913448.202 7                 129730834.678 7
E03  23983639.268 8  23983641.573 9 126034879.943 8  95344583.428 9
E05  22364904.207 8  22364905.949 9 117528370.399 8  88909413.848 9
E09  28016365.450 7  28016369.992 7 147226988.228 7 111376226.702 7
E13  27354556.561 7  27354561.645 8 143749171.896 7 108745338.137 8
E15  23766233.720 8  23766236.248 9 124892398.566 8  94480303.297 9
E34  24289734.927 8  24289738.018 8 127643413.267 8  96561421.874 8
G01  22405277.634 7                  22405282.153 7  22405284.799 8 117740509.479 7                  91745870.875 7  87923127.319 8
G03  20388727.585 8                  20388733.097 7  20388731.400 8 107143478.487 8                  83488449.832 7  80009758.067 8
G04  20214772.488 7                  20214775.672 8  20214777.041 9 106229346.292 7                  82776135.410 8  79327132.321 9
G06  22660777.509 7                  22660785.015 7  22660782.661 8 119083201.379 7                  92792134.682 7  88925791.251 8
G09  21902375.302 7                  21902381.827 7  21902379.801 8 115097770.595 7                  89686884.454 7  85949664.691 8
G17  23514604.161 7                  23514609.070 7                 123570060.093 7                  96288240.574 7
G19  22396147.281 7  22396148.858 5                                 117692538.835 7  91708483.493 5                
G28  24257213.280 6                  24257218.155 6  24257220.030 6 127472493.371 6                  99329241.397 6  95190534.287 6
G31  22366559.484 7                  22366562.922 7                 117537062.415 7                  91587340.525 7
R03  21143960.344 7  21143963.689 7 113185265.702 7  88032838.456 7
R04  19220424.423 8  19220426.226 8 102924493.897 8  80052485.104 8
R05  21438533.431 8  21438536.918 7 114601267.308 8  89134343.195 7
R12  23165415.435 7  23165420.313 7 123745578.444 7  96246529.215 7
R13  22489178.500 7                 120090978.311 7
R19  19810597.151 8  19810597.716 8 105973331.773 8  82423678.026 8
R20  20712749.931 6  20712754.506 7 110760395.960 6  86146992.525 7
> 2025 06 15 15 04 15.0000000  0 36
C05  39177984.050 6  39177981.032 6 204010014.780 6 157753500.219 6
C06  38229757.810 7  38229752.114 7 199072383.729 7 153935372.651 7
C09  38431665.158 7  38431661.940 7 200123758.064 7 154748386.867 7
C11  23146784.869 7  23146781.947 8 120531353.229 7  93202597.207 8
C12  23497052.770 7  23497050.952 8 122355286.646 7  94612709.772 8
C16  38856636.205 7  38856637.034 7 202336684.834 7 156459561.626 7
C21  21979098.143 8                 114450915.978 8
C22  22764411.023 8                 118540241.747 8
C34  22769733.416 7                 118567960.264 7
C36  24860088.177 7                 129453012.167 7
C39  39034702.396 7                 203263937.639 7
C42  24944325.415 7                 129891677.021 7
C43  24313531.526 7                 126606923.935 7
C44  24922963.461 7                 129780386.098 7
E03  23978824.728 8  23978827.191 9 126009580.474 8  95325444.551 9
E05  22368037.323 8  22368039.193 9 117544835.737 8  88921869.747 9
E09  28024268.742 7  28024273.467 7 147268521.006 7 111407645.931 7
E13  27346142.527 7  27346147.538 8 143704955.438 7 108711888.728 8
E15  23763535.565 8  23763538.164 9 124878220.161 8  94469577.426 9
E34  24295204.007 8  24295206.896 8 127672152.368 8  96583162.791 8
G01  22414417.612 7                  22414422.692 7  22414425.027 8 117788540.920 7                  91783297.904 7  87958994.864 8
G03  20392820.949 8                  20392826.508 7  20392824.691 8 107164989.425 8                  83505211.602 7  80025821.419 8
G04  20211891.268 7                  20211894.722 8  20211895.624 8 106214205.498 7                  82764337.381 8  79315825.881 8
G06  22652734.553 7                  22652741.803 7  22652739.994 8 119040936.059 7                  92759200.704 7  88894229.517 8
G09  21893773.109 7                  21893779.188 7  21893777.268 8 115052564.697 7                  89651659.108 7  85915907.089 8
G17  23521395.630 7                  23521400.432 7                 123605749.379 7                  96316050.386 7
G19  22399572.827 7  22399574.785 5                                 117710539.833 7  91722510.206 5                
G28  24264323.332 6                  24264327.157 5  24264330.825 6 127509857.396 6                  99358356.180 5  95218435.971 6
G31  22369440.089 7                  22369444.209 7                 117552202.474 7                  91599137.984 7
R03  21152135.697 8  21152139.164 7 113229028.879 8  88066876.438 7
R04  19220349.793 8  19220351.472 8 102924092.880 8  80052173.204 8
R05  21429974.318 8  21429977.445 7 114555512.646 8  89098756.203 7
R12  23168909.332 7  23168914.808 7 123764241.008 7  96261044.593 7
R13  22484148.074 6                 120064118.915 6
R19  19816247.343 8  19816247.956 7 106003556.369 8  82447186.014 7
R20  20705593.042 6  20705597.410 7 110722125.858 6  86117226.911 7
> 2025 06 15 15 04 30.0000000  0 36
C05  39177846.699 6  39177843.176 6 204009297.970 6 157752945.915 6
C06  38229450.348 7  38229444.765 7 199070784.809 7 153934136.281 7
C09  38429794.605 7  38429791.541 7 200114018.743 7 154740855.798 7
C11  23145514.825 7  23145512.135 8 120524741.525 7  93197484.606 8
C12  23504526.940 7  23504524.942 8 122394205.879 7  94642804.561 8
C16  38856746.984 7  38856747.547 7 202337260.712 7 156460006.930 7
C21  21976888.621 8                 114439411.471 8
C22  22770075.306 8                 118569737.929 8
C34  22773389.199 7                 118586995.256 7
C36  24855951.896 7                 129431475.175 7
C39  39036108.006 7                 203271257.385 7
C42  24936378.854 7                 129850297.961 7
C43  24308774.527 7                 126582148.433 7
C44  24932483.432 7                 129829958.844 7
E03  23974024.361 8  23974026.938 9 125984354.785 8  95306361.497 9
E05  22371184.096 8  22371186.010 9 117561372.510 8  88934379.695 9
E09  28032173.761 7  28032178.404 7 147310061.422 7 111439070.939 7
E13  27337732.112 7  27337737.346 8 143660759.721 7 108678455.003 8
E15  23760854.161 8  23760856.783 9 124864129.491 8  94458917.925 9
E34  24300687.636 8  24300690.124 8 127700967.390 8  96604961.158 8
G01  22423570.915 7                  22423576.002 7  22423578.212 8 117836640.622 7                  91820778.157 7  87994913.438 8
G03  20396930.828 8                  20396936.655 7  20396934.718 8 107186587.563 8                  83522041.292 7  80041949.896 8
G04  20209032.958 7                  20209036.597 8  20209037.226 9 106199184.197 7                  82752632.492 8  79304608.698 9
G06  22644708.020 7                  22644714.945 7  22644713.164 8 118998755.400 7                  92726332.674 7  88862731.004 8
G09  21885184.638 7                  21885190.266 7  21885189.065 8 115007431.729 7                  89616490.573 7  85882203.940 8
G17  23528200.986 6                  23528206.115 7                 123641511.358 6                  96343916.826 7
G19  22403025.449 7  22403028.282 5                                 117728683.815 7  91736648.371 5                
G28  24271453.333 6                  24271456.689 5  24271458.961 6 127547322.355 6                  99387549.684 5  95246413.057 6
G31  22372351.062 7                  22372355.029 7                 117567498.098 7                  91611056.638 7
R03  21160320.800 8  21160323.678 7 113272842.162 8  88100953.423 7
R04  19220297.405 8  19220298.635 7 102923813.054 8  80051955.546 7
R05  21421428.984 7  21421432.658 7 114509834.070 7  89063228.450 7
R12  23172437.293 7  23172442.582 7 123783084.907 7  96275700.926 7
R13  22479150.964 6                 120037430.993 6
R19  19821931.169 8  19821932.059 7 106033962.761 8  82470835.412 7
R20  20698467.180 6  20698471.407 7 110684018.291 6  86087587.720 7
> 2025 06 15 15 04 45.0000000  0 36
C05  39177708.899 6  39177705.328 6 204008581.426 6 157752391.867 6
C06  38229150.668 7  38229145.025 7 199069223.687 7 153932929.131 7
C09  38427931.156 7  38427927.904 7 200104315.476 7 154733352.616 7
C11  23144270.348 7  23144267.845 8 120518260.189 7  93192472.825 8
C12  23512016.191 7  23512014.846 8 122433205.881 7  94672961.792 8
C16  38856864.232 7  38856865.283 7 202337872.396 7 156460479.935 7
C21  21974693.931 8                 114427982.290 8
C22  22775748.861 8                 118599281.090 8
C34  22777067.303 7                 118606147.457 7
C36  24851836.125 7                 129410043.033 7
C39  39037519.817 7                 203278609.258 7
C42  24928439.822 7                 129808951.686 7
C43  24304037.975 7                 126557483.886 7
C44  24942008.043 7                 129879553.916 7
E03  23969238.580 8  23969240.898 9 125959204.271 8  95287335.321 9
E05  22374344.890 8  22374346.694 9 117577981.934 8  88946944.619 9
E09  28040080.302 7  28040085.000 7 147351610.660 7 111470502.638 7
E13  27329326.126 7  27329331.383 8 143616586.252 7 108645038.153 8
E15  23758189.527 8  23758192.349 9 124850128.019 8  94448325.922 9
E34  24306185.689 8  24306188.164 8 127729859.608 8  96626817.912 8
G01  22432736.842 7                  22432742.272 7  22432744.202 8 117884809.740 7                  91858312.498 7  88030883.824 8
G03  20401057.571 8                  20401063.263 7  20401061.672 8 107208274.193 8                  83538939.958 7  80058144.460 8
G04  20206197.569 7                  20206201.254 8  20206202.097 9 106184283.804 7                  82741021.821 8  79293481.788 9
G06  22636697.785 7                  22636704.389 7  22636702.906 8 118956661.044 7                  92693531.871 7  88831296.908 8
G09  21876610.407 7                  21876616.150 7  21876614.872 8 114962373.228 7                  89581380.075 7  85848556.380 8
G17  23535020.405 6                  23535025.415 7                 123677347.069 6                  96371840.718 7
G19  22406505.658 7  22406508.800 5                                 117746971.944 7  91750898.845 5                
G28  24278601.542 6                  24278606.010 5  24278606.649 5 127584889.241 6                  99416822.560 5  95274466.229 5
G31  22375291.806 7                  22375295.616 7                 117582950.706 7                  91623097.594 7
R03  21168515.465 8  21168518.315 7 113316706.795 8  88135070.342 7
R04  19220267.786 8  19220270.056 7 102923655.703 8  80051833.166 7
R05  21412898.569 8  21412902.045 7 114464232.816 8  89027760.896 7
R12  23175999.161 7  23176003.955 7 123802111.096 7  96290499.064 7
R13  22474185.437 6                 120010916.399 6
R19  19827649.883 8  19827650.734 7 106064552.057 8  82494627.060 7
R20  20691371.037 6  20691375.564 7 110646074.577 6  86058075.954 7
> 2025 06 15 15 05  0.0000000  0 37
C05  39177572.522 6  39177568.973 6 204007870.910 6 157751842.444 6
C06  38228859.960 7  38228853.816 6 199067706.068 7 153931755.608 6
C09  38426074.989 7  38426072.492 7 200094654.080 7 154725881.800 7
C11  23143051.815 7  23143048.979 8 120511915.052 7  93187566.342 8
C12  23519522.388 7  23519521.088 8 122472292.171 7  94703185.751 8
C16  38856990.131 7  38856990.719 7 202338525.545 7 156460985.015 7
C21  21972514.968 8                 114416634.193 8
C22  22781432.090 8                 118628876.863 8
C34  22780768.627 7                 118625422.365 7
C36  24847740.626 7                 129388721.620 7
C39  39038939.166 7                 203285998.960 7
C42  24920506.787 7                 129767644.042 7
C43  24299323.489 7                 126532936.189 7
C44  24951537.345 7                 129929176.874 7
E03  23964468.066 8  23964470.300 9 125934134.802 8  95268370.442 9
E05  22377520.268 8  22377522.254 9 117594669.645 8  88959568.773 9
E09  28047989.645 7  28047994.167 7 147393174.328 7 111501945.268 7
E13  27320925.665 7  27320930.823 8 143572441.081 7 108611642.657 8
E15  23755542.918 8  23755546.066 9 124836221.719 8  94437805.885 9
E34  24311699.654 8  24311701.926 9 127758834.706 8  96648737.386 9
G01  22441918.249 7                  22441922.926 7  22441924.502 8 117933053.841 7                  91895905.230 7  88066910.213 8
G03  20405202.610 8                  20405208.081 7  20405206.477 8 107230055.044 8                  83555912.042 7  80074409.380 8
G04  20203385.991 7                  20203390.073 8  20203390.776 9 106169510.131 7                  82729509.865 8  79282449.499 9
G06  22628705.014 7                  22628711.517 7  22628710.001 8 118914659.036 7                  92660803.070 7  88799931.827 8
G09  21868051.246 7                  21868056.438 7  21868055.621 8 114917395.107 7                  89546332.235 7  85814968.870 8
G17  23541854.569 6                  23541860.062 7                 123713262.036 6                  96399826.366 7
G19  22410014.427 7  22410016.799 5                                 117765409.828 7  91765265.979 5                
G28  24285770.711 6                  24285772.999 5  24285776.321 5 127622563.600 6                  99446179.20515  95302599.630 5
G31  22378262.341 7                  22378266.780 7                 117598565.815 7                  91635265.196 7
R03  21176720.381 7  21176722.939 7 113360628.602 7  88169231.703 7
R04  19220262.544 8  19220263.887 8 102923626.708 8  80051810.629 8
R05  21404384.009 8  21404386.363 7 114418715.105 8  88992358.216 7
R12  23179595.938 8  23179601.172 7 123821325.352 8  96305443.463 7
R13  22469253.740 6                 119984581.498 6
R18  23088585.620 4                 123248373.03414
R19  19833403.230 8  19833404.201 7 106095330.009 8  82518565.475 7
R20  20684307.589 6  20684311.550 7 110608300.887 6  86028696.407 7
> 2025 06 15 15 05 15.0000000  0 36
C05  39177436.041 6  39177432.515 6 204007160.542 6 157751293.141 6
C06  38228574.921 7  38228569.286 7 199066226.067 7 153930611.185 7
C09  38424225.055 7  38424223.885 7 200085028.597 7 154718438.789 7
C11  23141857.773 7  23141855.521 8 120505700.207 7  93182760.654 8
C12  23527043.717 7  23527042.609 8 122511458.559 7  94733471.643 8
C16  38857122.348 7  38857123.243 7 202339214.275 7 156461517.595 7
C21  21970350.017 8                 114405361.255 8
C22  22787124.519 8                 118658519.244 8
C34  22784492.537 7                 118644813.945 7
C36  24843667.405 7                 129367505.349 7
C39  39040364.110 7                 203293420.525 7
C42  24912580.212 7                 129726369.217 7
C43  24294630.569 7                 126508499.617 7
C44  24961071.342 7                 129978821.520 7
E03  23959711.823 8  23959713.998 9 125909140.455 8  95249462.395 9
E05  22380709.568 8  22380711.526 9 117611429.568 8  88972247.559 9
E09  28055900.450 7  28055905.068 7 147434746.424 7 111533394.266 7
E13  27312529.493 7  27312534.635 8 143528318.364 7 108578264.171 8
E15  23752913.686 8  23752916.760 9 124822404.725 8  94427353.436 9
E34  24317228.215 8  24317230.300 8 127787886.709 8  96670715.011 8
G01  22451111.569 7                  22451116.612 7  22451118.362 8 117981366.666 7                  91933551.582 7  88102987.976 8
G03  20409364.300 8                  20409369.568 7  20409367.917 8 107251924.094 8                  83572952.857 7  80090740.133 8
G04  20200597.944 7                  20200601.752 8  20200602.292 9 106154857.202 7                  82718091.996 8  79271507.379 9
G06  22620729.304 7                  22620735.298 7  22620733.702 8 118872743.807 7                  92628141.883 7  88768631.517 8
G09  21859506.349 7                  21859511.687 7  21859510.616 8 114872491.575 7                  89511342.491 7  85781437.078 8
G17  23548703.149 7                  23548708.583 7                 123749250.171 7                  96427869.021 7
G19  22413550.218 7  22413552.089 5                                 117783991.230 7  91779744.959 5                
G28  24292958.856 5                  24292964.344 5  24292973.632 5 127660339.160 5                  99475614.68815  95330808.841 5
G31  22381263.601 7                  22381268.141 7                 117614337.258 7                  91647554.628 7
R03  21184934.006 7  21184937.575 7 113404601.089 7  88203432.538 7
R04  19220280.054 8  19220281.235 7 102923719.681 8  80051882.947 7
R05  21395882.809 8  21395885.728 7 114373274.828 8  88957015.817 7
R12  23183227.126 7  23183232.768 7 123840721.379 7  96320529.303 7
R13  22464354.942 7                 119958420.520 7
R19  19839190.778 8  19839191.582 7 106126290.281 8  82542645.674 7
R20  20677274.334 6  20677278.859 7 110570691.876 6  85999444.988 7
> 2025 06 15 15 05 30.0000000  0 36
C05  39177300.638 6  39177297.275 6 204006455.382 6 157750747.860 6
C06  38228297.784 6  38228293.147 7 199064788.641 6 153929499.664 7
C09  38422385.028 6  38422383.376 7 200075444.040 6 154711027.415 7
C11  23140690.688 7  23140687.810 8 120499620.775 7  93178059.678 8
C12  23534582.159 7  23534580.247 8 122550709.786 7  94763823.183 8
C16  38857261.732 7  38857263.361 7 202339943.582 7 156462081.541 7
C21  21968200.412 8                 114394168.508 8
C22  22792827.480 8                 118688213.170 8
C34  22788240.010 7                 118664327.083 7
C36  24839613.799 7                 129346399.437 7
C39  39041796.347 7                 203300878.964 7
C42  24904660.481 6                 129685132.314 6
C43  24289959.927 7                 126484179.416 7
C44  24970610.189 7                 130028492.555 7
E03  23954970.813 8  23954972.995 9 125884226.322 8  95230615.042 9
E05  22383913.641 8  22383915.541 8 117628266.680 8  88984984.708 8
E09  28063813.780 7  28063818.398 7 147476331.831 7 111564853.292 7
E13  27304138.459 7  27304143.689 8 143484223.388 7 108544906.649 8
E15  23750302.671 8  23750305.460 9 124808682.309 8  94416972.505 9
E34  24322772.052 8  24322774.310 9 127817020.549 8  96692754.574 9
G01  22460319.206 7                  22460323.908 7  22460326.294 8 118029753.086 7                  91971255.230 7  88139120.652 8
G03  20413543.415 8                  20413548.969 7  20413547.110 8 107273886.350 8                  83590066.325 7  80107140.520 8
G04  20197833.295 7                  20197837.221 8  20197837.749 9 106140330.106 7                  82706772.183 8  79260659.239 9
G06  22612770.215 7                  22612776.869 7  22612775.047 8 118830920.770 7                  92595552.517 7  88737400.042 8
G09  21850976.518 7                  21850981.779 7  21850980.584 8 114827667.914 7                  89476415.000 7  85747964.902 8
G17  23555565.914 7                  23555571.774 7                 123785315.804 7                  96455972.095 7
G19  22417114.328 7  22417116.238 5                                 117802720.922 7  91794339.521 5                
G28  24300167.258 5                  24300170.721 5  24300184.601 5 127698220.635 5                  99505132.58815  95359096.851 5
G31  22384295.732 7                  22384299.441 7                 117630269.983 7                  91659969.758 7
R03  21193159.014 7  21193162.614 7 113448629.281 7  88237676.653 7
R04  19220320.896 8  19220322.155 7 102923939.895 8  80052054.224 7
R05  21387397.775 8  21387401.535 7 114327917.378 8  88921737.853 7
R12  23186893.228 7  23186897.403 7 123860304.078 7  96335760.296 7
R13  22459489.149 6                 119932438.876 6
R19  19845013.904 8  19845014.625 7 106157437.820 8  82566871.518 7
R20  20670273.214 6  20670277.246 7 110533253.111 6  85970325.981 7
> 2025 06 15 15 05 45.0000000  0 36
C05  39177167.204 6  39177163.481 6 204005759.377 6 157750209.665 6
C06  38228030.322 6  38228026.079 6 199063397.809 6 153928424.198 6
C09  38420553.159 7  38420551.387 7 200065904.528 7 154703650.878 7
C11  23139549.679 7  23139547.148 8 120493680.784 7  93173466.518 8
C12  23542136.990 7  23542134.953 8 122590049.649 7  94794243.229 8
C16  38857410.915 7  38857412.044 7 202340717.406 7 156462679.908 7
C21  21966066.997 8                 114383059.908 8
C22  22798540.366 8                 118717962.437 8
C34  22792011.461 7                 118683965.610 7
C36  24835582.712 7                 129325408.100 7
C39  39043236.462 7                 203308378.224 7
C42  24896749.610 6                 129643937.318 6
C43  24285313.000 7                 126459979.776 7
C44  24980154.813 7                 130078193.750 7
E03  23950245.622 8  23950248.010 9 125859396.506 8  95211831.458 9
E05  22387132.840 8  22387134.901 8 117645184.831 8  88997783.171 8
E09  28071730.867 7  28071735.240 7 147517934.435 7 111596325.380 7
E13  27295754.088 7  27295758.613 8 143440160.433 7 108511573.329 8
E15  23747710.634 8  23747712.927 9 124795058.601 8  94406666.271 9
E34  24328331.972 8  24328334.696 8 127846240.220 8  96714859.022 8
G01  22469541.695 7                  22469546.301 7  22469548.808 8 118078216.854 7                  92009019.165 7  88175311.073 8
G03  20417741.157 8                  20417746.664 7  20417744.877 8 107295945.800 8                  83607255.474 7  80123613.489 8
G04  20195093.988 7                  20195097.439 8  20195098.323 9 106125932.860 7                  82695553.586 8  79249908.069 9
G06  22604830.074 7                  22604836.388 7  22604834.735 8 118789194.228 7                  92563038.344 7  88706240.645 8
G09  21842462.927 7                  21842468.471 7  21842466.866 8 114782928.366 7                  89441553.055 7  85714555.522 8
G17  23562444.695 7                  23562449.921 7                 123821462.808 7                  96484138.528 7
G19  22420707.627 7  22420709.539 5                                 117821602.601 7  91809052.497 5                
G28  24307397.631 6                  24307406.052 5  24307411.717 5 127736211.78016                  99534739.01015  95387466.80715
G31  22387359.370 7                  22387362.549 7                 117646367.908 7                  91672513.633 7
R03  21201394.980 7  21201398.102 7 113492716.924 7  88271967.037 7
R04  19220386.647 8  19220387.547 7 102924291.231 8  80052327.488 7
R05  21378929.326 8  21378932.468 7 114282647.033 8  88886527.649 7
R12  23190594.396 7  23190599.370 7 123880077.434 7  96351139.550 7
R13  22454657.487 6                 119906641.364 6
R19  19850872.171 8  19850872.840 7 106188776.228 8  82591245.813 7
R20  20663304.525 6  20663309.023 7 110495989.196 6  85941342.955 7
> 2025 06 15 15 06  0.0000000  0 36
C05  39177034.614 6  39177031.673 6 204005071.958 6 157749678.109 6
C06  38227772.552 6  38227767.801 7 199062052.926 6 153927384.282 7
C09  38418730.593 7  38418728.258 7 200056409.311 7 154696308.606 7
C11  23138435.792 7  23138433.224 8 120487879.673 7  93168980.735 8
C12  23549708.592 7  23549706.864 8 122629477.214 7  94824731.077 8
C16  38857567.582 7  38857568.930 7 202341535.167 7 156463312.252 7
C21  21963949.935 8                 114372034.875 8
C22  22804263.841 8                 118747766.440 8
C34  22795806.481 7                 118703728.822 7
C36  24831573.510 7                 129304530.930 7
C39  39044684.309 7                 203315917.667 7
C42  24888846.812 7                 129602783.746 7
C43  24280688.944 7                 126435900.209 7
C44  24989705.253 7                 130127924.261 7
E03  23945536.651 8  23945538.983 9 125834650.450 8  95193111.252 9
E05  22390367.721 8  22390369.566 8 117662183.305 8  89010642.412 8
E09  28079650.817 7  28079655.200 7 147559553.557 7 111627809.955 7
E13  27287374.798 7  27287379.582 8 143396129.018 7 108478263.888 8
E15  23745136.594 8  23745139.072 9 124781533.160 8  94396434.355 9
E34  24333908.580 8  24333911.283 9 127875544.998 8  96737027.878 9
G01  22478778.274 7                  22478782.900 7  22478785.686 8 118126757.169 7                  92046842.772 7  88211558.659 8
G03  20421957.547 8                  20421962.792 8  20421961.222 8 107318101.764 8                  83624519.844 8  80140158.506 8
G04  20192378.187 7                  20192382.194 8  20192383.392 9 106111664.964 7                  82684435.752 8  79239253.482 9
G06  22596907.756 7                  22596914.581 7  22596912.971 8 118747563.888 7                  92530599.165 7  88675153.086 8
G09  21833965.234 7                  21833970.737 7  21833969.069 8 114738272.480 7                  89406756.285 7  85681208.617 8
G17  23569338.356 6                  23569343.598 7                 123857690.188 6                  96512367.621 7
G19  22424329.812 7  22424331.476 5                                 117840635.589 7  91823883.371 5                
G28  24314647.184 5                  24314655.129 5  24314660.101 5 127774311.638 5                  99564427.24715  95415917.918 5
G31  22390453.873 7                  22390457.280 7                 117662630.246 7                  91685185.589 7
R03  21209641.877 8  21209645.006 7 113536863.208 8  88306303.003 7
R04  19220476.774 8  19220478.277 7 102924772.938 8  80052702.155 7
R05  21370476.553 7  21370479.284 7 114237463.287 7  88851384.748 7
R12  23194331.594 7  23194335.959 7 123900040.498 7  96366666.380 7
R13  22449861.360 7                 119881027.394 7
R19  19856766.071 8  19856766.842 7 106220304.697 8  82615767.930 7
R20  20656368.646 6  20656372.143 7 110458899.806 6  85912495.680 7
> 2025 06 15 15 06 15.0000000  0 36
C05  39176904.640 6  39176901.589 6 204004394.373 6 157749154.159 6
C06  38227524.077 6  38227518.667 6 199060755.145 6 153926380.775 6
C09  38416916.535 7  38416913.385 7 200046959.660 7 154689001.554 7
C11  23137348.974 7  23137345.994 8 120482218.694 7  93164603.317 8
C12  23557296.225 7  23557295.484 8 122668993.382 7  94855287.462 8
C16  38857733.605 7  38857734.462 7 202342397.943 7 156463979.411 7
C21  21961848.861 8                 114361094.562 8
C22  22809997.884 8                 118777626.206 8
C34  22799625.852 7                 118723617.696 7
C36  24827586.123 7                 129283769.269 7
C39  39046140.157 7                 203323498.406 7
C42  24880951.737 7                 129561672.832 7
C43  24276087.696 7                 126411942.130 7
C44  24999261.407 7                 130177684.929 7
E03  23940843.837 8  23940846.150 9 125809989.384 8  95174455.333 9
E05  22393617.799 8  22393619.731 8 117679263.150 8  89023563.184 8
E09  28087573.558 7  28087578.307 7 147601190.226 7 111659307.786 7
E13  27279002.033 7  27279007.039 8 143352130.458 7 108444979.367 8
E15  23742581.463 8  23742584.230 9 124768107.292 8  94386277.772 9
