     3.04           OBSERVATION DATA    Mixed(MIXED)        RINEX VERSION / TYPE
cnvtToRINEX 3.14.0  convertToRINEX OPR  20250615 162118 UTC PGM / RUN BY / DATE 
----------------------------------------------------------- COMMENT             
1001                                                        MARKER NAME         
1001                                                        MARKER NUMBER       
GEODETIC                                                    MARKER TYPE         
GNSS Observer       Trimble                                 OBSERVER / AGENCY   
6337S22116          Geo Explorer 3      6.26                REC # / TYPE / VERS 
                    UNKNOWN EXT     NONE                    ANT # / TYPE        
  3914668.2811  1190798.1477  4877084.8465                  APPROX POSITION XYZ 
        1.2440        0.0000        0.0000                  ANTENNA: DELTA H/E/N
R    4 C1C C2C L1C L2C                                      SYS / # / OBS TYPES 
G    8 C1C C2W C2X C5X L1C L2W L2X L5X                      SYS / # / OBS TYPES 
C    4 C2I C7I L2I L7I                                      SYS / # / OBS TYPES 
E    4 C1X C8X L1X L8X                                      SYS / # / OBS TYPES 
    15.000                                                  INTERVAL            
  2025     6    15     7    12    0.0000000     GPS         TIME OF FIRST OBS   
  2025     6    15     7    42   15.0000000     GPS         TIME OF LAST OBS    
     0                                                      RCV CLOCK OFFS APPL 
  8 R07  5 R12 -1 R13 -2 R14 -7 R15  0 R22 -3 R23  3 R24  2 GLONASS SLOT / FRQ #
R L2C -0.25000                                              SYS / PHASE SHIFT   
G L2X -0.25000                                              SYS / PHASE SHIFT   
    18                                                      LEAP SECONDS        
    31                                                      # OF SATELLITES     
   C08   122   122   122   122                              PRN / # OF OBS      
   C13   122   122   122   122                              PRN / # OF OBS      
   C26    17     0    17     0                              PRN / # OF OBS      
   C29   122     0   122     0                              PRN / # OF OBS      
   C30   122     0   122     0                              PRN / # OF OBS      
   C32    17     0    17     0                              PRN / # OF OBS      
   C36   108     0   106     0                              PRN / # OF OBS      
   C38   122     0   122     0                              PRN / # OF OBS      
   C45   121     0   121     0                              PRN / # OF OBS      
   C47   122     0   122     0                              PRN / # OF OBS      
   E02    69    67    69    67                              PRN / # OF OBS      
   E10   122   122   122   122                              PRN / # OF OBS      
   E11   122   122   122   122                              PRN / # OF OBS      
   E12   122   122   122   122                              PRN / # OF OBS      
   E16   122   122   122   122                              PRN / # OF OBS      
   E24   122   122   122   122                              PRN / # OF OBS      
   E25   122   122   122   122                              PRN / # OF OBS      
   E36    20    20    19    20                              PRN / # OF OBS      
   G10   116     0   112   116   110     0   112   116      PRN / # OF OBS      
   G16   122   122     0     0   122   122     0     0      PRN / # OF OBS      
   G18   122     0   122   122   122     0   122   122      PRN / # OF OBS      
   G23   122     0   122   122   122     0   122   122      PRN / # OF OBS      
   G27   120     0   120   120   120     0   120   120      PRN / # OF OBS      
   R07    66    52    61    48                              PRN / # OF OBS      
   R12    14    10    13     8                              PRN / # OF OBS      
   R13   122     0   122     0                              PRN / # OF OBS      
   R14   122   122   122   122                              PRN / # OF OBS      
   R15    41    41    41    41                              PRN / # OF OBS      
   R22    75    64    74    63                              PRN / # OF OBS      
   R23   122     0   122     0                              PRN / # OF OBS      
   R24   115   113   115   113                              PRN / # OF OBS      
DBHZ                                                        SIGNAL STRENGTH UNIT
                                                            END OF HEADER       
>                              2  1
              *** Start of Kinematic Data ***               COMMENT             
> 2025 06 15 07 12  0.0000000  0 25
C08  37797545.279 7  37797539.983 7 196821740.06717 152195035.19717
C13  37345016.931 7  37345019.796 7 194465309.09817 150372916.62517
C29  21756140.991 8                 113289933.65218
C30  22140101.076 8                 115289318.19318
C36  24192286.144 7                 125975580.06417
C38  38421573.053 7                 200071207.16517
C45  22943855.135 7                 119474672.43417
C47  21436315.601 8                 111624516.23518
E10  23388576.871 8  23388578.727 9 122907801.46618  92978957.57619
E11  23701541.296 7  23701539.441 8 124552439.38917  94223103.56018
E12  24682641.742 7  24682640.991 8 129708153.29617  98123375.02018
E16  23509671.025 8  23509672.384 9 123544152.83118  93460352.98419
E24  24729665.521 8  24729667.241 9 129955267.34418  98310321.19619
E25  23409458.105 8  23409460.301 9 123017531.90418  93061971.49419
G10  24734436.947 5                  24734446.811 5  24734442.626 5                                 101283413.51115  97063264.82315
G16  20625382.080 8  20625384.089 6                                 108387104.48918  84457499.66516                
G18  20494858.855 8                  20494862.556 8  20494863.165 8 107701203.92618                  83923034.49718  80426244.05818
G23  21949065.974 7                  21949070.671 7  21949072.158 8 115343118.22717                  89877773.59817  86132876.27718
G27  22364780.547 6                  22364784.727 5  22364784.383 6 117527666.45216                  91580045.26115  87764217.00016
R12  23213659.613 5  23213655.269 5 124003150.67115  96447006.68915
R13  20158967.674 7                 107647759.68817
R14  20537381.089 8  20537384.088 7 109475793.72618  85148012.43117
R22  21459310.337 7  21459312.100 6 114551258.98517  89095432.47116
R23  19270315.331 8                 103083185.46818
R24  21494847.636 7  21494849.121 6 114942609.78617  89399831.10516
> 2025 06 15 07 12 15.0000000  0 24
C08  37798416.596 7  37798411.756 7 196826278.177 7 152198544.365 7
C13  37344647.700 7  37344650.551 7 194463384.421 7 150371428.350 7
C29  21752568.218 8                 113271329.614 8
C30  22144792.046 8                 115313743.962 8
C36  24201267.547 7                 126022347.323 7
C38  38423388.874 7                 200080663.437 7
C45  22946389.832 7                 119487878.709 7
C47  21436408.406 8                 111624998.315 8
E10  23389452.644 8  23389454.209 9 122912402.086 8  92982437.906 9
E11  23697966.831 7  23697964.239 8 124533652.371 7  94208891.290 8
E12  24687190.114 7  24687189.528 8 129732056.016 7  98141457.243 8
E16  23513023.886 8  23513025.120 9 123561771.249 8  93473681.203 9
E24  24736480.058 8  24736481.487 8 129991076.375 8  98337410.457 8
E25  23408787.566 8  23408789.510 9 123014007.045 8  93059304.957 9
G10  24723924.960 4                                  24723936.884 5 129925103.03914                                  97022022.124 5
G16  20622181.540 7  20622182.428 6                                 108370285.785 7  84444394.132 6                
G18  20497076.678 7                  20497079.968 8  20497080.048 8 107712857.640 7                  83932115.291 8  80434946.466 8
G23  21941472.646 7                  21941477.360 7  21941478.168 8 115303211.977 7                  89846677.828 7  86103076.135 8
G27  22356157.241 5                  22356162.071 5  22356161.643 6 117482355.024 5                  91544737.568 5  87730380.438 6
R13  20166733.195 7                 107689227.093 7
R14  20531715.253 8  20531718.021 7 109445592.677 8  85124522.736 7
R22  21468434.442 7  21468436.391 6 114599964.082 7  89133314.102 6
R23  19272485.732 8                 103094795.062 8
R24  21486437.772 6  21486440.125 6 114897642.601 6  89364856.629 6
>                              3  5
              *** Start of Occupation ***                   COMMENT             
1001                                                        MARKER NAME         
1001                                                        MARKER NUMBER       
  3914668.2811  1190798.1477  4877084.8465                  APPROX POSITION XYZ 
        1.2440        0.0000        0.0000                  ANTENNA: DELTA H/E/N
> 2025 06 15 07 12 30.0000000  0 24
C08  37799293.607 7  37799288.501 7 196830845.247 7 152202075.881 7
C13  37344282.578 7  37344285.957 7 194461487.609 7 150369961.602 7
C29  21749005.995 8                 113252780.385 8
C30  22149490.974 8                 115338213.735 8
C36  24210254.999 7                 126069147.551 7
C38  38425208.875 7                 200090139.765 7
C45  22948947.266 7                 119501194.802 7
C47  21436513.003 8                 111625542.691 8
E10  23390341.790 8  23390343.094 9 122917072.896 8  92985971.333 9
E11  23694404.614 7  23694402.009 8 124514932.508 7  94194729.846 8
E12  24691748.723 7  24691747.755 8 129756009.285 7  98159577.709 8
E16  23516391.381 8  23516392.331 9 123579466.201 8  93487067.310 9
E24  24743304.094 8  24743305.019 8 130026934.259 8  98364536.696 8
E25  23408131.792 8  23408133.910 9 123010562.245 8  93056698.994 9
G10  24713415.019 5                  24713423.986 5  24713432.077 5                                 101197333.67715  96980772.575 5
G16  20619005.543 8  20619006.741 6                                 108353594.491 8  84431387.923 6                
G18  20499313.437 8                  20499316.908 8  20499317.741 9 107724612.011 8                  83941274.546 8  80443724.095 9
G23  21933894.285 7                  21933899.488 7  21933901.099 8 115263392.060 7                  89815649.339 7  86073340.496 8
G27  22347541.975 6                  22347545.523 5  22347545.175 7 117437078.050 6                  91509456.867 5  87696569.652 7
R13  20174526.859 7                 107730841.610 7
R14  20526079.685 8  20526083.494 7 109415553.178 8  85101158.689 7
R22  21477564.189 7  21477566.199 6 114648696.038 7  89171216.632 6
R23  19274675.399 8                 103106507.637 8
R24  21478039.135 7  21478042.649 6 114852733.441 7  89329927.373 6
> 2025 06 15 07 12 45.0000000  0 24
C08  37800175.138 7  37800170.500 7 196835437.115 7 152205626.602 7
C13  37343923.170 7  37343927.010 7 194459614.817 7 150368513.438 7
C29  21745453.673 8                 113234282.108 8
C30  22154198.016 8                 115362723.601 8
C36  24219247.714 7                 126115976.480 7
C38  38427031.107 7                 200099632.104 7
C45  22951525.609 7                 119514616.798 7
C47  21436628.807 8                 111626145.433 8
E10  23391243.008 8  23391244.466 9 122921809.854 8  92989554.832 9
E11  23690853.805 7  23690851.775 8 124496275.957 7  94180616.306 8
E12  24696315.409 7  24696314.915 8 129780008.981 7  98177733.314 8
E16  23519772.077 8  23519773.361 9 123597233.725 8  93500508.315 9
E24  24750136.288 8  24750137.129 8 130062836.902 8  98391696.790 8
E25  23407490.819 8  23407492.829 9 123007193.704 8  93054150.688 9
G16  20615852.676 8  20615855.426 6                                 108337026.969 8  84418478.185 6                
G18  20501568.505 7                  20501572.216 8  20501572.382 9 107736463.046 7                  83950509.111 8  80452573.846 9
G23  21926333.011 7                  21926338.183 7  21926338.762 8 115223654.918 7                  89784685.303 7  86043666.682 8
G27  22338931.510 6                  22338936.463 5  22338934.800 7 117391831.639 6                  91474199.887 5  87662781.795 7
R12  23252293.588 5  23252303.172 6 124209526.51415  96607564.43316
R13  20182346.459 7                 107772598.548 7
R14  20520474.332 8  20520477.605 7 109385672.071 8  85077917.814 7
R22  21486697.787 8  21486699.763 7 114697450.719 8  89209136.896 7
R23  19276883.234 8                 103118319.110 8
R24  21469651.425 7  21469655.980 6 114807878.500 7  89295040.104 6
> 2025 06 15 07 13  0.0000000  0 25
C08  37801063.017 6  37801058.778 7 196840059.438 6 152209200.876 7
C13  37343567.657 6  37343572.779 7 194457771.500 6 150367088.040 7
C29  21741912.056 8                 113215840.344 8
C30  22158913.397 8                 115387278.888 8
C36  24228247.325 7                 126162839.408 7
C38  38428858.482 8                 200109145.977 8
C45  22954124.627 7                 119528150.122 7
C47  21436757.010 8                 111626812.043 8
E10  23392157.947 8  23392159.456 9 122926618.506 8  92993192.530 9
E11  23687316.993 7  23687314.565 8 124477688.246 7  94166554.821 8
E12  24700892.560 7  24700891.713 8 129804060.512 7  98195928.138 8
E16  23523168.073 8  23523169.245 9 123615079.353 8  93514008.407 9
E24  24756977.970 8  24756978.692 8 130098789.814 8  98418894.895 8
E25  23406865.039 8  23406867.356 9 123003907.013 8  93051664.339 9
G10  24692383.217 5                  24692393.629 6  24692393.779 7                                 101111223.19016  96898249.831 7
G16  20612724.729 8  20612727.257 6                                 108320588.922 8  84405669.334 6                
G18  20503842.631 8                  20503846.471 8  20503847.395 9 107748416.078 8                  83959823.182 8  80461499.830 9
G23  21918787.945 7                  21918792.533 7  21918795.041 8 115184006.394 7                  89753790.355 7  86014058.996 8
G27  22330327.735 6                  22330334.665 5  22330332.603 7 117346621.655 6                  91438971.362 5  87629021.094 7
R12  23265181.319 5  23265186.143 5 124278357.81515  96661099.812 5
R13  20190193.622 7                 107814503.340 7
R14  20514899.403 8  20514903.526 7 109355955.398 8  85054804.836 7
R22  21495836.527 7  21495839.190 6 114746233.390 7  89247078.942 6
R23  19279110.821 8                 103130234.947 8
R24  21461274.556 6  21461277.199 6 114763083.446 6  89260199.551 6
> 2025 06 15 07 13 15.0000000  0 25
C08  37801956.850 6  37801951.936 7 196844712.603 6 152212798.983 7
C13  37343221.331 7  37343224.314 7 194455958.282 7 150365685.954 7
C29  21738381.838 8                 113197455.742 8
C30  22163637.887 8                 115411880.139 8
C36  24237254.515 7                 126209736.720 7
C38  38430689.628 8                 200118681.926 8
C45  22956746.278 7                 119541795.278 7
C47  21436897.197 8                 111627543.047 8
E10  23393086.917 8  23393088.257 9 122931499.332 8  92996884.824 9
E11  23683792.920 7  23683790.682 8 124459170.058 7  94152545.946 8
E12  24705478.756 7  24705478.570 8 129828164.338 7  98214162.543 8
E16  23526579.171 8  23526580.142 9 123633003.686 8  93527568.026 9
E24  24763828.595 8  24763830.070 8 130134793.458 8  98446131.399 8
E25  23406255.600 8  23406257.579 9 123000702.914 8  93049240.450 9
G10  24681869.316 5                  24681876.499 5  24681877.759 6 129704093.42915                 101068160.786 5  96856981.726 6
G16  20609621.317 8  20609623.605 6                                 108304281.163 8  84392961.999 6                
G18  20506137.113 7                  20506140.452 8  20506142.032 9 107760471.691 7                  83969217.131 8  80470502.393 9
G23  21911259.878 7                  21911264.224 7  21911267.522 8 115144447.448 7                  89722965.205 7  85984518.291 8
G27  22321731.972 6                  22321738.777 6  22321735.543 7 117301448.896 6                  91403771.840 6  87595288.186 7
R12  23278070.913 5                 124347201.404 5
R13  20198068.926 7                 107856556.022 7
R14  20509355.701 8  20509359.043 7 109326403.848 8  85031820.299 7
R22  21504980.224 7  21504983.596 7 114795044.523 7  89285043.051 7
R23  19281357.783 8                 103142255.390 8
R24  21452908.054 6  21452911.260 6 114718349.018 6  89225406.104 6
> 2025 06 15 07 13 30.0000000  0 24
C08  37802856.854 7  37802852.498 7 196849400.947 7 152216424.230 7
C13  37342879.518 7  37342882.959 7 194454179.309 7 150364310.327 7
C29  21734862.722 8                 113179132.569 8
C30  22168371.914 8                 115436531.542 8
C36  24246267.201 7                 126256672.334 7
C38  38432526.109 7                 200128244.233 7
C45  22959386.617 7                 119555556.463 7
C47  21437050.773 8                 111628342.677 8
E10  23394029.901 8  23394031.631 9 122936456.516 8  93000634.898 9
E11  23680283.068 7  23680280.922 8 124440725.705 7  94138592.904 8
E12  24710076.018 7  24710075.917 8 129852324.672 7  98232439.646 8
E16  23530006.006 8  23530006.867 9 123651011.006 8  93541190.412 9
E24  24770690.485 8  24770691.720 8 130170852.029 8  98473409.453 8
E25  23405662.842 8  23405664.481 9 122997585.773 8  93046882.368 9
G10  24671352.140 5                  24671361.339 5  24671360.576 6 129648828.909 5                 101025097.558 5  96815712.769 6
G16  20606543.747 7  20606546.226 6                                 108288108.178 7  84380359.655 6                
G18  20508451.848 8                  20508455.091 8  20508456.424 9 107772633.943 8                  83978694.198 8  80479584.594 9
G23  21903750.468 7                  21903754.917 7  21903756.365 8 115104982.729 7                  89692213.512 7  85955047.953 8
G27  22313143.639 6                  22313151.527 5  22313148.301 7 117256317.761 6                  91368604.807 5  87561586.444 7
R13  20205972.639 7                 107898760.782 7
R14  20503843.604 8  20503846.946 7 109297022.229 8  85008967.928 7
R22  21514130.571 8  21514133.078 7 114843888.281 8  89323032.650 7
R23  19283625.413 8                 103154385.011 8
R24  21444555.792 7  21444557.989 6 114673679.825 7  89190663.399 6
> 2025 06 15 07 13 45.0000000  0 24
C08  37803763.298 6  37803757.960 7 196854118.721 6 152220072.291 7
C13  37342543.951 7  37342547.051 7 194452428.952 7 150362956.883 7
C29  21731354.919 8                 113160865.135 8
C30  22173114.955 8                 115461227.280 8
C36  24255286.868 7                 126303640.267 7
C38  38434366.383 7                 200137827.062 7
C45  22962050.499 7                 119569427.831 7
C47  21437216.202 8                 111629205.208 8
E10  23394986.918 8  23394988.421 9 122941484.235 8  93004438.333 9
E11  23676786.079 7  23676784.000 8 124422349.435 7  94124691.364 8
E12  24714683.484 7  24714683.067 8 129876535.551 7  98250755.003 8
E16  23533447.735 8  23533448.320 9 123669095.481 8  93554871.192 9
E24  24777561.221 8  24777562.746 8 130206959.676 8  98500724.625 8
E25  23405084.868 8  23405086.797 9 122994549.938 8  93044585.779 9
G10  24660834.821 5                  24660847.597 6  24660842.946 6 129593557.767 5                 100982029.100 6  96774438.934 6
G16  20603490.538 7  20603492.763 6                                 108272064.520 7  84367858.120 6                
G18  20510785.631 8                  20510788.653 8  20510789.112 9 107784896.988 8                  83988249.809 8  80488742.061 9
G23  21896257.427 7                  21896261.807 7  21896264.164 8 115065606.820 7                  89661531.024 7  85925643.915 8
G27  22304563.001 6                  22304568.829 6  22304566.254 7 117211222.713 6                  91333465.819 6  87527911.591 7
R13  20213903.872 7                 107941111.455 7
R14  20498363.087 8  20498365.899 7 109267804.948 8  84986243.380 7
R22  21523284.623 7  21523288.108 7 114892758.696 7  89361042.914 7
R23  19285912.072 8                 103166617.305 8
R24  21436213.543 7  21436216.286 6 114629070.030 7  89155967.015 6
> 2025 06 15 07 14  0.0000000  0 25
C08  37804674.127 7  37804669.149 7 196858862.663 7 152223740.610 7
C13  37342212.194 7  37342215.620 7 194450704.051 7 150361623.071 7
C29  21727856.823 8                 113142650.366 8
C30  22177864.753 8                 115485964.142 8
C36  24264312.486 7                 126350637.116 7
C38  38436209.653 7                 200147427.203 7
C45  22964734.217 7                 119583406.029 7
C47  21437393.570 8                 111630127.468 8
E10  23395956.232 8  23395957.907 9 122946579.207 8  93008292.646 9
E11  23673301.397 7  23673299.478 8 124404038.089 7  94110838.962 8
E12  24719299.592 7  24719299.328 8 129900793.651 7  98269106.054 8
E16  23536903.072 8  23536903.785 9 123687253.937 8  93568607.927 9
E24  24784441.422 8  24784442.440 8 130243113.116 8  98528074.412 8
E25  23404522.309 8  23404523.877 9 122991592.312 8  93042348.352 9
G10  24650314.390 6                  24650328.892 6  24650323.262 6 129538277.374 6                 100938953.466 6  96733158.107 6
G16  20600461.403 8  20600463.036 6                                 108256147.008 8  84355454.872 6                
G18  20513137.564 8                  20513141.026 8  20513141.558 9 107797257.464 8                  83997881.326 8  80497972.274 9
G23  21888780.353 7                  21888785.280 7  21888787.713 8 115026316.957 7                  89630915.514 7  85896304.068 8
G27  22295988.063 6                  22295994.876 6  22295990.369 7 117166160.863 6                  91298352.660 6  87494261.503 7
R12  23316751.720 4  23316768.441 4 124553803.46414
R13  20221861.746 7                 107983604.142 7
R14  20492912.044 8  20492914.443 7 109238749.359 8  84963644.627 7
R22  21532444.850 7  21532447.416 6 114941652.024 7  89399071.002 6
R23  19288217.663 8                 103178949.328 8
R24  21427881.596 7  21427884.990 7 114584516.576 7  89121314.407 7
> 2025 06 15 07 14 15.0000000  0 25
C08  37805590.714 7  37805586.170 7 196863636.465 7 152227432.002 7
C13  37341886.701 7  37341889.685 7 194449007.987 7 150360311.580 7
C29  21724369.855 8                 113124491.914 8
C30  22182623.887 7                 115510745.590 7
C36  24273343.964 7                 126397666.189 7
C38  38438057.790 7                 200157048.251 7
C45  22967440.074 7                 119597494.715 7
C47  21437582.608 8                 111631113.016 8
E10  23396939.435 8  23396941.046 9 122951744.988 8  93012200.520 9
E11  23669829.584 7  23669827.982 8 124385795.354 7  94097038.469 8
E12  24723925.283 7  24723925.180 8 129925102.438 7  98287495.479 8
E16  23540373.064 8  23540373.956 9 123705489.975 8  93582403.367 9
E24  24791330.012 8  24791331.813 8 130279315.816 8  98555461.524 8
E25  23403975.522 8  23403976.633 9 122988716.629 8  93040172.900 9
G10  24639794.793 5                  24639805.442 5  24639803.140 6 129482991.469 5                 100895873.598 5  96691873.233 6
G16  20597457.318 8  20597459.459 6                                 108240359.614 8  84343152.975 6                
G18  20515508.610 8                  20515512.018 8  20515512.294 9 107809718.834 8                  84007591.485 8  80507277.821 9
G23  21881321.991 6                  21881326.002 7  21881328.466 8 114987117.045 6                  89600370.118 7  85867031.341 8
G27  22287418.265 5                  22287426.572 5  22287423.620 7 117121136.003 5                  91263268.358 5  87460638.987 7
R12  23329644.843 4                 124622692.36114
R13  20229845.934 7                 108026242.302 7
R14  20487492.457 8  20487494.694 7 109209859.330 8  84941174.612 7
R22  21541609.913 7  21541610.962 6 114990571.954 7  89437119.804 6
R23  19290542.509 8                 103191384.347 8
R24  21419560.451 7  21419562.971 6 114540023.352 7  89086708.634 6
> 2025 06 15 07 14 30.0000000  0 25
C08  37806513.828 7  37806508.483 7 196868437.954 7 152231144.802 7
C13  37341566.650 7  37341568.775 7 194447338.877 7 150359020.917 7
C29  21720891.488 8                 113106387.767 8
C30  22187391.595 8                 115535569.529 8
C36  24282381.162 7                 126444725.293 7
C38  38439909.122 7                 200166688.136 7
C45  22970167.176 7                 119611691.707 7
C47  21437783.157 8                 111632159.811 8
E10  23397935.843 8  23397937.084 9 122956979.460 8  93016160.356 9
E11  23666370.970 7  23666369.106 8 124367619.149 7  94083288.302 8
E12  24728560.958 7  24728560.029 8 129949459.746 7  98305921.606 8
E16  23543857.617 8  23543858.472 9 123723801.551 8  93596255.931 9
E24  24798228.599 8  24798230.112 8 130315565.716 8  98582884.309 8
E25  23403443.112 8  23403444.622 9 122985920.932 8  93038057.944 9
G10  24629272.598 6                  24629282.771 5  24629279.574 6 129427698.521 6                 100852788.313 5  96650583.121 6
G16  20594477.613 8  20594479.924 6                                 108224700.458 8  84330951.027 6                
G18  20517898.782 7                  20517902.225 8  20517902.610 8 107822278.985 7                  84017378.601 8  80516657.137 8
G23  21873879.071 6                  21873883.396 7  21873884.801 8 114948005.179 6                  89569893.411 7  85837824.509 8
G27  22278858.095 6                  22278864.751 6  22278863.552 7 117076146.134 6                  91228211.275 6  87427042.660 7
R12  23342541.767 5                 124691585.373 5
R13  20237857.026 7                 108069023.217 7
R14  20482103.927 8  20482105.891 7 109181133.476 8  84918832.220 7
R22  21550777.817 7  21550780.467 6 115039516.189 7  89475187.504 6
R23  19292885.469 8                 103203920.028 8
R24  21411251.429 7  21411253.913 6 114495588.395 7  89052148.023 6
> 2025 06 15 07 14 45.0000000  0 25
C08  37807441.254 7  37807435.683 7 196873268.729 7 152234880.265 7
C13  37341251.523 7  37341253.860 7 194445698.375 7 150357752.353 7
C29  21717426.729 8                 113088339.593 8
C30  22192166.771 8                 115560437.565 8
C36  24291424.649 7                 126491815.635 7
C38  38441764.150 7                 200176348.442 7
C45  22972914.471 7                 119625998.570 7
C47  21437996.884 8                 111633269.364 8
E10  23398945.293 8  23398946.537 9 122962284.155 8  93020173.305 9
E11  23662925.122 7  23662923.330 8 124349511.178 7  94069589.746 8
E12  24733205.808 7  24733204.596 8 129973866.998 7  98324385.522 8
E16  23547356.668 8  23547357.674 9 123742190.255 8  93610166.845 9
E24  24805136.174 8  24805137.610 8 130351864.319 8  98610343.913 8
E25  23402926.525 8  23402928.169 9 122983206.906 8  93036004.807 9
G10  24618750.699 6                  24618759.257 5  24618757.463 6 129372400.440 6                 100809698.905 5  96609289.096 6
G16  20591522.521 8  20591525.352 6                                 108209171.345 8  84318850.407 6                
G18  20520307.582 8                  20520311.479 8  20520312.960 8 107834939.368 8                  84027243.835 8  80526111.330 8
G23  21866453.074 7                  21866457.601 7  21866458.850 7 114908983.643 7                  89539486.984 7  85808685.017 7
G27  22270303.596 6                  22270310.917 6  22270308.955 6 117031193.170 6                  91193183.027 6  87393473.871 6
R12  23355444.027 5  23355444.924 5 124760486.85515  97036165.94215
R13  20245895.786 7                 108111948.410 7
R14  20476745.990 8  20476749.587 7 109152573.611 8  84896619.027 7
R22  21559952.192 7  21559953.488 6 115088486.041 7  89513275.026 6
R23  19295248.274 8                 103216558.188 8
R24  21402952.569 7  21402954.362 6 114451213.375 7  89017634.142 6
> 2025 06 15 07 15  0.0000000  0 25
C08  37808374.445 7  37808369.193 7 196878128.260 7 152238637.960 7
C13  37340941.586 7  37340944.513 7 194444085.998 7 150356505.574 7
C29  21713971.471 8                 113070346.996 8
C30  22196951.522 8                 115585349.072 8
C36  24300474.474 7                 126538936.665 7
C38  38443623.490 7                 200186028.686 7
C45  22975683.172 7                 119640414.783 7
C47  21438221.840 8                 111634441.339 8
E10  23399967.905 8  23399969.185 9 122967658.556 8  93024238.988 9
E11  23659492.633 7  23659490.480 8 124331471.067 7  94055942.482 8
E12  24737859.233 7  24737858.649 8 129998323.705 7  98342886.844 8
E16  23550870.568 8  23550871.492 9 123760655.633 8  93624135.771 9
E24  24812051.818 7  24812054.136 8 130388211.039 7  98637839.933 8
E25  23402425.456 8  23402427.260 9 122980574.262 8  93034013.211 9
G10  24608226.921 5                  24608235.152 5  24608233.766 6 129317097.160 5                 100766605.542 5  96567991.232 6
G16  20588592.427 8  20588595.854 6                                 108193771.954 8  84306850.892 6                
G18  20522736.070 8                  20522739.517 8  20522740.367 9 107847699.434 8                  84037186.728 8  80535639.939 9
G23  21859043.762 7                  21859049.588 7  21859049.417 7 114870052.127 7                  89509150.778 7  85779612.766 7
G27  22261756.442 6                  22261763.436 6  22261760.939 7 116986276.875 6                  91158183.355 6  87359932.471 7
R12  23368343.963 5  23368343.629 5 124829395.793 5  97089761.59815
R13  20253961.054 7                 108155017.160 7
R14  20471419.267 8  20471423.146 8 109124179.517 8  84874534.730 8
R22  21569130.490 8  21569132.384 6 115137480.794 8  89551382.042 6
R23  19297629.572 8                 103229297.947 8
R24  21394666.036 7  21394668.865 6 114406897.967 7  88983166.650 6
> 2025 06 15 07 15 15.0000000  0 25
C08  37809313.039 7  37809308.012 7 196883016.375 7 152242417.783 7
C13  37340637.655 7  37340640.415 7 194442501.312 7 150355280.185 7
C29  21710526.400 8                 113052409.801 8
C30  22201743.238 8                 115610303.806 8
C36  24309528.664 7                 126586087.832 7
C38  38445486.009 7                 200195728.650 7
C45  22978471.185 7                 119654939.938 7
C47  21438458.402 8                 111635675.421 8
E10  23401003.721 8  23401005.137 9 122973102.339 8  93028357.189 9
E11  23656072.512 7  23656070.475 8 124313498.538 7  94042346.379 8
E12  24742522.312 7  24742521.720 8 130022829.373 7  98361425.227 8
E16  23554398.745 8  23554399.946 9 123779197.438 8  93638162.511 9
E24  24818977.746 7  24818979.796 8 130424605.597 7  98665372.142 8
E25  23401940.442 8  23401941.725 9 122978022.826 8  93032083.078 9
G10  24597701.319 6                  24597710.536 6  24597709.144 6 129261788.688 6                 100723508.071 6  96526689.527 6
G16  20585686.357 8  20585689.697 6                                 108178502.302 8  84294952.457 6                
G18  20525183.043 8                  20525186.496 8  20525188.190 9 107860558.814 8                  84047207.016 8  80545242.720 9
G23  21851653.172 6                  21851658.502 8  21851658.451 7 114831210.822 6                  89478884.873 8  85750607.951 7
G27  22253216.120 6                  22253223.351 6  22253220.418 7 116941397.183 6                  91123212.208 6  87326418.523 7
R12  23381240.857 5  23381245.577 5 124898311.510 5  97143362.61315
R13  20262053.860 7                 108198228.664 7
R14  20466123.913 8  20466127.136 8 109095951.466 8  84852579.582 8
R22  21578313.579 7  21578315.979 6 115186500.119 7  89589508.144 6
R23  19300029.877 8                 103242139.005 8
R24  21386389.961 7  21386392.100 6 114362642.157 7  88948745.521 6
> 2025 06 15 07 15 30.0000000  0 25
C08  37810257.453 7  37810252.650 7 196887934.107 7 152246220.444 7
C13  37340338.907 7  37340341.458 7 194440945.572 7 150354077.194 7
C29  21707092.894 8                 113034529.052 8
C30  22206543.774 8                 115635302.720 8
C36  24318589.643 7                 126633269.875 7
C38  38447352.635 7                 200205449.231 7
C45  22981283.379 7                 119669574.987 7
C47  21438707.766 8                 111636972.620 8
E10  23402052.833 8  23402054.400 9 122978616.485 8  93032528.585 9
E11  23652665.086 7  23652663.561 8 124295594.651 7  94028802.221 8
E12  24747195.082 7  24747194.616 8 130047385.073 7  98380001.423 8
E16  23557941.631 8  23557943.088 9 123797816.660 8  93652247.824 9
E24  24825913.123 7  24825914.668 8 130461048.909 7  98692941.218 8
E25  23401470.147 8  23401472.029 9 122975553.752 8  93030215.226 9
G10  24587175.101 5                  24587183.700 5  24587182.517 6 129206476.489 5                 100680407.781 5  96485385.104 6
G16  20582805.958 7  20582808.344 6                                 108163363.568 7  84283156.038 6                
G18  20527648.945 8                  20527652.872 8  20527654.416 9 107873518.368 8                  84057305.356 8  80554920.290 9
G23  21844279.246 7                  21844284.067 7  21844285.119 7 114792461.076 7                  89448690.354 7  85721671.513 7
G27  22244683.071 6                  22244690.046 6  22244687.454 7 116896555.415 6                  91088270.548 6  87292932.817 7
R12  23394156.906 5  23394147.064 4 124967234.697 5
R13  20270172.590 7                 108241583.560 7
R14  20460859.810 8  20460863.586 8 109067891.045 8  84830754.834 8
R22  21587500.859 7  21587504.562 6 115235544.819 7  89627653.951 6
R23  19302449.806 8                 103255082.026 8
R24  21378124.686 6  21378126.328 6 114318447.150 6  88914371.737 6
> 2025 06 15 07 15 45.0000000  0 25
C08  37811207.973 7  37811202.304 7 196892879.562 7 152250044.589 7
C13  37340045.500 7  37340048.082 7 194439416.872 7 150352895.105 7
C29  21703669.427 8                 113016703.096 8
C30  22211354.085 8                 115660343.908 8
C36  24327655.860 7                 126680480.817 7
C38  38449223.098 7                 200215188.654 7
C45  22984113.884 7                 119684318.152 7
C47  21438968.481 8                 111638331.126 8
E10  23403115.235 8  23403116.758 9 122984199.114 8  93036751.790 9
E11  23649270.843 7  23649269.243 8 124277757.663 7  94015308.667 8
E12  24751876.686 7  24751876.571 8 130071988.747 7  98398613.910 8
E16  23561499.371 8  23561500.679 9 123816511.519 8  93666390.359 9
E24  24832856.576 7  24832858.328 8 130497539.056 7  98720545.729 8
E25  23401015.446 8  23401017.592 9 122973165.348 8  93028408.411 9
G10  24576648.874 5                  24576658.023 6  24576654.446 6 129151159.191 5                 100637303.405 6  96444076.826 6
G16  20579949.735 8  20579951.663 6                                 108148354.142 8  84271460.387 6                
G18  20530134.526 8                  20530137.571 8  20530139.102 9 107886576.240 8                  84067480.327 8  80564671.284 9
G23  21836922.880 6                  21836927.040 7  21836928.974 8 114753801.588 6                  89418566.000 7  85692802.366 8
G27  22236156.908 6                  22236163.119 7  22236160.394 7 116851749.798 6                  91053357.185 7  87259474.175 7
R12  23407054.690 5  23407052.836 5 125036163.099 5  97250580.24315
R13  20278318.580 7                 108285079.563 7
R14  20455626.650 8  20455630.831 8 109039996.646 8  84809059.188 8
R22  21596693.424 6  21596697.064 6 115284612.732 6  89665817.975 6
R23  19304888.216 8                 103268125.127 8
R24  21369870.987 7  21369870.759 5 114274311.208 7  88880043.769 5
> 2025 06 15 07 16  0.0000000  0 25
C08  37812162.315 7  37812157.164 7 196897852.653 7 152253890.075 7
C13  37339756.967 7  37339759.717 7 194437915.260 7 150351733.981 7
C29  21700256.634 8                 112998931.906 8
C30  22216169.929 8                 115685427.374 8
C36  24336728.065 7                 126727720.296 7
C38  38451097.082 7                 200224946.861 7
C45  22986965.800 7                 119699169.279 7
C47  21439241.103 8                 111639750.944 8
E10  23404190.071 8  23404192.063 9 122989850.127 8  93041026.741 9
E11  23645888.919 7  23645887.678 8 124259987.582 7  94001865.747 8
E12  24756568.737 7  24756567.633 8 130096640.223 7  98417262.605 8
E16  23565071.797 8  23565072.641 9 123835281.993 8  93680590.091 9
E24  24839808.756 7  24839811.024 8 130534075.963 7  98748185.635 8
E25  23400576.316 8  23400578.532 9 122970857.707 8  93026662.690 9
G10  24566120.813 4                  24566130.544 5  24566127.410 7                                 100594195.299 5  96402764.909 7
G16  20577117.959 8  20577119.811 6                                 108133474.370 8  84259865.773 6                
G18  20532638.036 8                  20532641.047 8  20532642.725 9 107899732.235 8                  84077731.710 8  80574495.548 9
G23  21829583.365 7                  21829587.179 7  21829589.768 8 114715232.386 7                  89388512.160 7  85664000.794 8
G27  22227637.509 5                  22227644.004 6  22227640.613 7 116806980.796 5                  91018472.192 6  87226042.686 7
R12  23419955.002 4  23419957.959 5 125105096.243 4  97304194.836 5
R13  20286489.855 7                 108328716.390 7
R14  20450424.940 8  20450429.237 8 109012268.647 8  84787492.961 8
R22  21605889.698 7  21605892.218 7 115333704.110 7  89704000.048 7
R23  19307344.668 8                 103281268.288 8
R24  21361628.174 6                 114230234.809 6
> 2025 06 15 07 16 15.0000000  0 25
C08  37813122.717 6  37813116.642 7 196902853.840 6 152257757.303 7
C13  37339474.209 7  37339476.706 7 194436440.993 7 150350594.001 7
C29  21696854.393 8                 112981215.869 8
C30  22220995.291 8                 115710553.322 8
C36  24345805.837 7                 126774988.482 7
C38  38452974.943 7                 200234724.193 7
C45  22989838.604 7                 119714128.559 7
C47  21439525.507 8                 111641232.358 8
E10  23405278.492 8  23405280.545 9 122995569.777 8  93045353.614 9
E11  23642520.560 7  23642518.836 8 124242284.810 7  93988473.718 8
E12  24761269.203 7  24761267.712 8 130121339.698 7  98435947.580 8
E16  23568657.995 8  23568659.022 9 123854128.375 8  93694847.235 9
E24  24846771.053 7  24846772.866 8 130570659.877 7  98775861.061 8
E25  23400152.578 8  23400154.773 9 122968631.231 8  93024978.360 9
G10  24555592.222 5                  24555602.085 6  24555600.658 6 129040510.79015                 100551083.851 6  96361449.788 6
G16  20574311.314 8  20574312.954 6                                 108118724.610 8  84248372.450 6                
G18  20535159.676 8                  20535163.575 8  20535164.992 9 107912986.497 8                  84088059.729 8  80584393.251 9
G23  21822260.847 7                  21822265.471 7  21822267.187 8 114676754.386 7                  89358529.358 7  85635267.256 8
G27  22219125.125 5                  22219131.313 6  22219128.167 7 116762248.777 5                  90983616.033 6  87192638.908 7
R12  23432864.407 4                                
R13  20294688.258 7                 108372494.023 7
R14  20445254.866 8  20445257.458 7 108984707.908 8  84766056.857 7
R22  21615090.263 7  21615092.933 7 115382818.518 7  89742200.053 7
R23  19309820.668 8                 103294511.590 8
R24  21353396.540 6                 114186217.731 6
> 2025 06 15 07 16 30.0000000  0 24
C08  37814089.127 7  37814083.190 7 196907884.360 7 152261647.209 7
C13  37339196.792 7  37339198.796 7 194434995.475 7 150349476.200 7
C29  21693463.153 8                 112963556.429 8
C30  22225828.731 8                 115735723.005 8
C36  24354888.413 7                 126822286.440 7
C38  38454856.290 7                 200244521.963 7
C45  22992732.408 7                 119729197.316 7
C47  21439822.283 8                 111642776.734 8
E10  23406380.671 8  23406382.275 9 123001359.344 8  93049733.400 9
E11  23639164.595 7  23639163.203 8 124224650.814 7  93975133.700 8
E12  24765977.984 7  24765977.233 8 130146088.489 7  98454669.871 8
E16  23572259.162 8  23572260.059 9 123873052.058 8  93709162.861 9
E24  24853741.081 7  24853743.850 8 130607292.057 7  98803573.043 8
E25  23399745.006 8  23399746.768 9 122966487.455 8  93023356.595 9
G10  24545063.961 5                  24545072.872 6  24545072.099 6 128985181.98115                 100507970.564 6  96320132.908 6
G16  20571529.077 8  20571531.554 6                                 108104106.525 8  84236981.737 6                
G18  20537701.112 8                  20537704.319 8  20537705.952 9 107926340.395 8                  84098465.377 8  80594365.290 9
G23  21814956.643 7                  21814961.102 7  21814962.410 8 114638369.304 7                  89328618.899 7  85606603.088 8
G27  22210618.919 5                  22210626.820 6  22210621.525 7 116717555.382 5                  90948790.021 6  87159263.887 7
R13  20302912.776 7                 108416413.287 7
R14  20440115.767 8  20440118.145 7 108957315.955 8  84744751.989 7
R22  21624295.799 7  21624297.056 6 115431957.252 7  89780419.074 6
R23  19312315.442 8                 103307856.276 8
R24  21345176.889 6  21345177.783 6 114142262.313 6  88777351.02116
> 2025 06 15 07 16 45.0000000  0 23
C08  37815060.651 7  37815055.148 7 196912944.725 7 152265560.158 7
C13  37338924.221 7  37338927.117 7 194433579.134 7 150348381.005 7
C29  21690083.160 8                 112945954.086 8
C30  22230671.510 8                 115760936.842 8
C36  24363977.256 7                 126869614.354 7
C38  38456742.097 7                 200254340.594 7
C45  22995647.161 7                 119744375.930 7
C47  21440131.106 8                 111644384.448 8
E10  23407495.614 8  23407497.307 9 123007219.271 8  93054166.378 9
E11  23635822.242 7  23635820.775 8 124207085.976 7  93961846.025 8
E12  24770697.119 7  24770696.358 8 130170886.934 7  98473429.724 8
E16  23575874.828 8  23575875.916 9 123892053.457 8  93723537.278 9
E24  24860722.851 7  24860724.024 8 130643972.845 7  98831321.783 8
E25  23399352.673 8  23399354.736 9 122964426.886 8  93021797.768 9
G10  24534535.609 6                  24534544.021 6  24534544.251 7 128929851.586 6                 100464855.910 6  96278814.742 7
G16  20568772.443 7  20568774.865 6                                 108089620.726 7  84225694.103 6                
G18  20540261.314 7                  20540264.824 8  20540266.309 9 107939794.183 7                  84108948.809 8  80604411.916 9
G23  21807669.904 6                  21807674.242 7  21807676.156 8 114600077.849 6                  89298781.416 7  85578008.823 8
R13  20311164.126 7                 108460474.535 7
R14  20435009.014 8  20435011.659 7 108930093.711 8  84723579.137 7
R22  21633505.916 7  21633507.390 6 115481120.730 7  89818657.359 6
R23  19314829.044 8                 103321302.480 8
R24  21336968.021 6  21336970.706 6 114098368.520 6  88743211.543 6
> 2025 06 15 07 17  0.0000000  0 24
C08  37816037.763 7  37816031.733 7 196918033.129 7 152269494.821 7
C13  37338657.478 7  37338660.317 7 194432190.257 7 150347307.059 7
C29  21686713.231 8                 112928407.244 8
C30  22235520.872 8                 115786193.137 8
C36  24373071.344 7                 126916970.306 7
C38  38458631.116 7                 200264178.387 7
C45  22998583.081 7                 119759662.612 7
C47  21440451.571 8                 111646053.928 8
E10  23408623.528 8  23408625.446 9 123013147.774 8  93058651.247 9
E11  23632492.986 7  23632491.161 8 124189588.690 7  93948609.415 8
E12  24775424.892 7  24775424.640 8 130195733.150 7  98492225.698 8
E16  23579505.335 8  23579506.197 9 123911130.875 8  93737969.221 9
E24  24867711.582 7  24867713.219 8 130680700.514 7  98859106.006 8
E25  23398976.043 8  23398978.183 9 122962447.967 8  93020300.727 9
G10  24524005.617 6                  24524014.160 5  24524013.215 7 128874518.242 6                 100421739.074 5  96237494.398 7
G16  20566040.678 8  20566043.947 6                                 108075265.736 8  84214508.407 6                
G18  20542839.970 8                  20542843.879 8  20542845.221 9 107953346.058 8                  84119508.713 8  80614531.812 9
G23  21800401.473 7                  21800405.476 7  21800407.039 8 114561878.658 7                  89269015.854 7  85549483.521 8
G27  22193634.114 4                  22193638.972 6  22193634.075 7 116628284.23614                  90879228.422 6  87092600.626 7
R13  20319441.246 6                 108504675.437 6
R14  20429933.277 8  20429937.190 7 108903039.716 8  84702537.089 7
R22  21642720.268 7  21642722.607 7 115530307.064 7  89856913.293 7
R23  19317361.363 8                 103334848.677 8
R24  21328771.778 6  21328775.528 6 114054535.018 6  88709118.825 6
> 2025 06 15 07 17 15.0000000  0 23
C08  37817019.951 6  37817014.003 7 196923148.576 6 152273450.425 7
C13  37338396.066 7  37338398.726 7 194430827.959 7 150346253.614 7
C29  21683353.953 8                 112910914.925 8
C30  22240378.665 7                 115811490.811 7
C36  24382171.009 7                 126964353.145 7
C38  38460524.043 7                 200274034.301 7
C45  23001539.968 7                 119775056.279 7
C47  21440784.226 8                 111647784.114 8
E10  23409764.741 8  23409766.482 9 123019143.776 8  93063187.167 9
E11  23629176.208 7  23629174.186 8 124172157.958 7  93935423.205 8
E12  24780163.247 7  24780161.743 8 130220625.980 7  98511056.956 8
E16  23583150.006 8  23583150.824 9 123930283.338 8  93752457.915 9
E24  24874708.860 7  24874711.117 8 130717473.962 7  98886924.862 8
E25  23398615.141 8  23398617.037 9 122960549.771 8  93018864.745 9
G10  24513475.456 6                  24513484.346 6  24513483.224 7 128819181.380 6                 100378619.425 6  96196171.378 7
G16  20563334.045 7  20563337.582 6                                 108061040.767 7  84203423.995 6                
G18  20545437.391 8                  20545440.989 8  20545442.338 9 107966994.901 8                  84130144.149 8  80624724.103 9
G23  21793149.150 7                  21793153.736 7  21793155.676 8 114523771.183 7                  89239321.702 7  85521026.666 8
R13  20327744.658 7                 108549014.694 7
R14  20424889.986 8  20424893.719 7 108876153.680 8  84681625.760 7
R22  21651938.215 7  21651940.775 6 115579514.927 7  89895185.987 6
R23  19319911.899 8                 103348493.452 8
R24  21320584.757 6  21320589.724 6 114010760.807 6  88675072.274 6
> 2025 06 15 07 17 30.0000000  0 24
C08  37818007.026 6  37818001.989 7 196928292.807 6 152277428.255 7
C13  37338138.842 7  37338142.396 7 194429493.854 7 150345221.981 7
C29  21680005.408 8                 112893478.826 8
C30  22245246.025 8                 115836831.385 8
C36  24391276.301 7                 127011764.104 7
C38  38462420.930 7                 200283910.017 7
C45  23004516.666 7                 119790558.559 7
C47  21441128.150 8                 111649576.604 8
E10  23410919.231 8  23410920.606 9 123025208.858 8  93067775.364 9
E11  23625872.058 7  23625870.323 8 124154795.560 7  93922288.657 8
E12  24784908.719 7  24784907.981 8 130245566.973 7  98529924.654 8
E16  23586809.157 8  23586809.991 9 123949512.470 8  93767004.602 9
E24  24881716.334 7  24881718.055 8 130754294.753 7  98914779.529 8
E25  23398269.142 8  23398271.576 9 122958734.078 8  93017491.183 9
G10  24502945.280 5                  24502953.674 6  24502951.868 7 128763842.713 5                 100335498.561 6  96154847.232 7
G16  20560652.024 7  20560655.701 6                                 108046947.598 7  84192442.268 6                
G18  20548053.149 8                  20548057.199 8  20548058.262 9 107980742.196 8                  84140856.321 8  80634989.947 9
G23  21785914.762 6                  21785920.111 7  21785921.755 8 114485757.377 6                  89209700.575 7  85492639.757 8
G27  22176671.692 5                  22176680.467 6  22176676.279 7 116539154.31715                  90809784.067 6  87026049.838 7
R13  20336074.508 7                 108593493.584 7
R14  20419878.010 8  20419881.953 7 108849437.442 8  84660846.523 7
R22  21661160.774 7  21661164.090 7 115628745.947 7  89933476.710 7
R23  19322481.526 8                 103362238.223 8
R24  21312406.979 4  21312412.576 6 113967048.144 4  88641073.652 6
> 2025 06 15 07 17 45.0000000  0 24
C08  37819000.882 6  37818995.954 7 196933466.692 6 152281429.000 7
C13  37337888.308 7  37337892.010 7 194428188.890 7 150344212.868 7
C29  21676668.089 8                 112876100.043 8
C30  22250120.697 8                 115862215.897 8
C36  24400386.059 7                 127059204.095 7
C38  38464321.070 7                 200293806.535 7
C45  23007514.096 7                 119806170.296 7
C47  21441484.453 8                 111651432.452 8
E10  23412086.240 8  23412088.020 9 123031343.997 8  93072416.549 9
E11  23622581.047 7  23622579.612 8 124137502.451 7  93909206.544 8
E12  24789663.935 7  24789663.497 8 130270557.156 7  98548829.548 8
E16  23590482.791 8  23590483.877 9 123968819.271 8  93781610.080 9
E24  24888732.721 7  24888733.823 8 130791163.854 7  98942670.730 8
E25  23397939.153 8  23397941.964 9 122957002.027 8  93016180.905 9
G10  24492414.077 6                  24492423.103 6  24492420.500 7 128708504.070 6                 100292377.475 6  96113522.919 7
G16  20557995.759 7  20557998.208 6                                 108032987.392 7  84181564.214 6                
G18  20550688.269 8                  20550691.972 8  20550693.441 9 107994588.943 8                  84151645.979 8  80645330.037 9
G23  21778700.323 7                  21778704.093 7  21778706.487 8 114447838.633 7                  89180153.469 7  85464323.809 8
G27  22168206.435 6                  22168212.051 6  22168208.555 7 116494653.654 6                  90775108.248 6  86992818.861 7
R13  20344430.129 7                 108638112.589 7
R14  20414898.805 8  20414901.756 7 108822892.650 8  84640200.540 7
R22  21670387.880 7  21670390.689 6 115678000.745 7  89971785.930 6
R23  19325069.926 8                 103376083.997 8
R24  21304252.023 6  21304249.872 6 113923398.022 6  88607123.442 6
> 2025 06 15 07 18  0.0000000  0 24
C08  37820000.500 6  37819995.070 7 196938669.280 6 152285451.933 7
C13  37337643.786 7  37337646.532 7 194426912.023 7 150343225.498 7
C29  21673341.567 8                 112858777.642 8
C30  22255003.225 8                 115887643.225 8
C36  24409501.866 7                 127106671.804 7
C38  38466225.132 7                 200303722.746 7
C45  23010533.910 7                 119821890.379 7
C47  21441852.752 8                 111653350.609 8
E10  23413266.698 8  23413268.633 9 123037548.082 8  93077109.897 9
E11  23619303.221 7  23619301.654 8 124120277.687 7  93896176.126 8
E12  24794429.030 7  24794428.177 8 130295595.272 7  98567770.688 8
E16  23594171.450 8  23594172.455 9 123988202.731 8  93796273.527 9
E24  24895757.574 7  24895758.867 8 130828080.078 7  98970597.625 8
E25  23397625.365 8  23397628.036 9 122955352.733 8  93014933.197 9
G10  24481882.658 5                  24481891.873 6  24481889.792 7 128653164.458 5                 100249255.829 6  96072197.974 7
G16  20555364.446 8  20555365.489 6                                 108019159.464 8  84170789.202 6                
G18  20553342.028 8                  20553345.606 8  20553347.099 9 108008533.881 8                  84162512.170 8  80655743.470 9
G23  21771502.266 7                  21771505.815 7  21771508.650 8 114410014.232 7                  89150679.929 7  85436078.320 8
G27  22159742.540 6                  22159750.713 6  22159748.280 7 116450192.296 6                  90740463.041 6  86959617.208 7
R13  20352811.344 7                 108682870.524 7
R14  20409950.224 8  20409953.860 7 108796518.135 8  84619687.052 7
R22  21679619.442 7  21679622.889 6 115727278.238 7  90010112.862 6
R23  19327676.979 8                 103390029.764 8
R24  21296097.511 6  21296096.617 6 113879809.353 6  88573221.141 6
> 2025 06 15 07 18 15.0000000  0 24
C08  37821004.059 6  37820998.786 7 196943897.025 6 152289494.331 7
C13  37337403.111 7  37337405.768 7 194425659.820 7 150342257.207 7
C29  21670025.643 8                 112841508.235 8
C30  22259893.686 8                 115913109.792 8
C36  24418622.156 6                 127154163.505 6
C38  38468132.983 7                 200313655.191 7
C45  23013572.248 7                 119837715.301 7
C47  21442232.567 8                 111655327.634 8
E10  23414459.444 8  23414461.655 9 123043817.567 8  93081852.697 9
E11  23616037.864 7  23616036.186 8 124103117.835 7  93883194.832 8
E12  24799201.330 7  24799201.081 8 130320677.654 7  98586745.326 8
E16  23597873.702 8  23597874.960 9 124007659.345 8  93810992.313 9
E24  24902790.433 7  24902792.298 8 130865039.892 7  98998557.430 8
E25  23397326.890 8  23397329.161 9 122953782.758 8  93013745.515 9
G10  24471350.784 6                  24471359.884 6  24471358.319 7 128597820.932 6                 100206131.018 6  96030870.060 7
G16  20552757.494 8  20552758.392 6                                 108005460.453 8  84160114.631 6                
G18  20556013.288 7                  20556016.564 8  20556018.944 9 108022573.462 7                  84173452.111 8  80666227.563 9
G23  21764321.156 6                  21764326.021 7  21764328.041 8 114372280.981 6                  89121277.509 7  85407900.954 8
G27  22151291.261 6                  22151296.638 6  22151294.077 7 116405766.975 6                  90705845.883 6  86926442.390 7
R13  20361218.570 7                 108727763.180 7
R14  20405033.988 8  20405037.168 7 108770311.040 8  84599303.775 7
R22  21688854.494 7  21688857.669 6 115776574.570 7  90048454.461 6
R23  19330301.467 8                 103404071.557 8
R24  21287955.701 6  21287958.212 7 113836278.957 6  88539364.192 7
> 2025 06 15 07 18 30.0000000  0 24
C08  37822013.828 7  37822008.535 7 196949154.669 7 152293559.856 7
C13  37337167.779 7  37337170.371 7 194424437.071 7 150341311.719 7
C29  21666720.580 8                 112824296.519 8
C30  22264793.110 8                 115938620.265 8
C36  24427748.051 7                 127201683.746 7
C38  38470044.473 7                 200323608.536 7
C45  23016632.099 7                 119853649.642 7
C47  21442624.704 8                 111657368.212 8
E10  23415665.945 8  23415667.962 9 123050157.071 8  93086648.501 9
E11  23612785.842 7  23612784.167 8 124086027.685 7  93870266.259 8
E12  24803983.647 7  24803983.078 8 130345808.940 7  98605756.981 8
E16  23601591.407 8  23601592.322 9 124027193.799 8  93825770.004 9
E24  24909832.495 7  24909834.529 8 130902047.940 7  99026553.737 8
E25  23397044.018 8  23397046.465 9 122952296.912 8  93012621.499 9
G10  24460819.864 6                  24460828.800 6  24460827.695 6 128542478.399 6                 100163007.091 6  95989542.931 6
G16  20550176.169 8  20550178.316 6                                 107991895.374 8  84149544.437 6                
G18  20558704.025 7                  20558707.451 8  20558709.232 9 108036712.271 7                  84184469.340 8  80676785.724 9
G23  21757159.773 7                  21757164.822 6  21757165.439 8 114334644.047 7                  89091950.075 6  85379795.513 8
G27  22142845.807 6                  22142850.640 6  22142847.847 7 116361382.570 6                  90671260.580 6  86893298.179 7
R13  20369651.866 7                 108772795.259 7
R14  20400150.250 8  20400153.309 7 108744276.465 8  84579054.648 7
R22  21698094.047 7  21698096.809 6 115825894.474 7  90086814.390 6
R23  19332945.422 8                 103418214.095 8
R24  21279828.291 7  21279830.521 7 113792811.440 7  88505556.156 7
> 2025 06 15 07 18 45.0000000  0 24
C08  37823028.725 7  37823023.173 7 196954439.223 7 152297646.232 7
C13  37336938.169 7  37336940.663 7 194423240.739 7 150340386.624 7
C29  21663424.845 8                 112807139.646 8
C30  22269700.048 8                 115964171.691 8
C36  24436880.112 7                 127249229.218 7
C38  38471959.200 8                 200333579.836 8
C45  23019713.273 7                 119869690.381 7
C47  21443028.215 8                 111659469.357 8
E10  23416885.575 8  23416887.152 9 123056563.603 8  93091494.990 9
E11  23609546.859 7  23609544.752 8 124069004.294 7  93857388.163 8
E12  24808774.938 7  24808774.120 8 130370986.074 7  98624803.292 8
E16  23605323.057 8  23605323.975 9 124046803.179 8  93840604.352 9
E24  24916883.103 7  24916885.617 8 130939101.189 7  99054584.230 8
E25  23396777.108 8  23396779.120 9 122950892.362 8  93011558.976 9
G10  24450288.333 5                  24450297.053 6  24450294.961 6 128487134.540 5                 100119882.052 6  95948214.756 6
G16  20547619.765 8  20547622.435 6                                 107978461.298 8  84139076.358 6                
G18  20561413.461 8                  20561416.816 8  20561417.693 9 108050947.207 8                  84195561.498 8  80687415.686 9
G23  21750015.532 7                  21750019.519 7  21750021.716 8 114297100.846 7                  89062695.605 7  85351760.049 8
G27  22134406.538 6                  22134412.310 6  22134408.977 7 116317036.337 6                  90636705.142 6  86860182.458 7
R13  20378110.370 6                 108817963.116 6
R14  20395298.276 8  20395301.675 8 108718411.883 8  84558937.731 8
R22  21707337.503 7  21707340.204 6 115875234.670 7  90125190.133 6
R23  19335607.464 8                 103432454.185 8
R24  21271712.226 7  21271713.937 7 113749404.134 7  88471794.938 7
> 2025 06 15 07 19  0.0000000  0 24
C08  37824048.734 7  37824043.629 7 196959751.205 7 152301753.801 7
C13  37336713.231 7  37336716.166 7 194422071.422 7 150339482.417 7
C29  21660141.022 8                 112790038.249 8
C30  22274614.904 8                 115989764.557 8
C36  24446014.049 7                 127296800.241 7
C38  38473877.667 7                 200343569.592 7
C45  23022814.513 7                 119885837.969 7
C47  21443443.388 8                 111661631.595 8
E10  23418117.368 8  23418119.078 9 123063037.620 8  93096392.542 9
E11  23606319.564 7  23606318.075 8 124052048.275 7  93844561.049 8
E12  24813574.373 7  24813573.965 8 130396209.449 7  98643884.626 8
E16  23609069.004 8  23609069.956 9 124066487.978 8  93855495.752 9
E24  24923942.178 7  24923945.395 8 130976200.041 7  99082649.206 8
E25  23396525.151 8  23396527.603 9 122949569.800 8  93010558.471 9
G10  24439756.534 6                  24439766.179 6  24439762.662 7 128431790.016 6                 100076756.460 6  95906886.085 7
G16  20545088.222 8  20545091.212 6                                 107965159.062 8  84128710.973 6                
G18  20564139.804 8                  20564143.635 8  20564144.974 9 108065278.672 8                  84206728.870 8  80698117.754 9
G23  21742888.949 7                  21742893.843 7  21742895.582 8 114259652.165 7                  89033514.882 7  85323795.170 8
G27  22125973.477 5                  22125980.537 6  22125977.467 7 116272729.050 5                  90602180.007 6  86827095.829 7
R13  20386594.143 7                 108863267.118 7
R14  20390478.143 8  20390481.591 7 108692718.112 8  84538953.695 7
R22  21716584.137 7  21716586.829 6 115924595.619 7  90163581.947 6
R23  19338288.211 8                 103446792.449 8
R24  21263604.356 7  21263607.917 7 113706057.907 7  88438081.294 7
> 2025 06 15 07 19 15.0000000  0 24
C08  37825075.378 7  37825069.825 7 196965095.579 7 152305886.402 7
