     3.04           OBSERVATION DATA    Mixed(MIXED)        RINEX VERSION / TYPE
cnvtToRINEX 3.14.0  convertToRINEX OPR  20250615 162120 UTC PGM / RUN BY / DATE 
----------------------------------------------------------- COMMENT             
1002                                                        MARKER NAME         
1002                                                        MARKER NUMBER       
GEODETIC                                                    MARKER TYPE         
GNSS Observer       Trimble                                 OBSERVER / AGENCY   
6337S22116          Geo Explorer 3      6.26                REC # / TYPE / VERS 
                    UNKNOWN EXT     NONE                    ANT # / TYPE        
  3914882.9832  1190877.1627  4876882.6006                  APPROX POSITION XYZ 
        1.2650        0.0000        0.0000                  ANTENNA: DELTA H/E/N
R    4 C1C C2C L1C L2C                                      SYS / # / OBS TYPES 
G    8 C1C C2W C2X C5X L1C L2W L2X L5X                      SYS / # / OBS TYPES 
C    4 C2I C7I L2I L7I                                      SYS / # / OBS TYPES 
E    4 C1X C8X L1X L8X                                      SYS / # / OBS TYPES 
    15.000                                                  INTERVAL            
  2025     6    15     8    32   30.0000000     GPS         TIME OF FIRST OBS   
  2025     6    15     9     6   30.0000000     GPS         TIME OF LAST OBS    
     0                                                      RCV CLOCK OFFS APPL 
  8 R01  1 R07  5 R08  6 R14 -7 R15  0 R17  4 R23  3 R24  2 GLONASS SLOT / FRQ #
R L2C -0.25000                                              SYS / PHASE SHIFT   
G L2X -0.25000                                              SYS / PHASE SHIFT   
    18                                                      LEAP SECONDS        
    35                                                      # OF SATELLITES     
   C05   137   137   137   137                              PRN / # OF OBS      
   C08   117   116   117   116                              PRN / # OF OBS      
   C13   137   137   137   137                              PRN / # OF OBS      
   C19    79     0    79     0                              PRN / # OF OBS      
   C20   137     0   137     0                              PRN / # OF OBS      
   C26    91     0    91     0                              PRN / # OF OBS      
   C29   137     0   137     0                              PRN / # OF OBS      
   C30    72     0    71     0                              PRN / # OF OBS      
   C32    85     0    83     0                              PRN / # OF OBS      
   C35   137     0   137     0                              PRN / # OF OBS      
   C45   105     0   103     0                              PRN / # OF OBS      
   C47   137     0   137     0                              PRN / # OF OBS      
   E02   137   137   137   137                              PRN / # OF OBS      
   E10   137   137   137   137                              PRN / # OF OBS      
   E11   137   137   137   137                              PRN / # OF OBS      
   E12     2    16     2    15                              PRN / # OF OBS      
   E16   137   137   137   137                              PRN / # OF OBS      
   E24    20    25    19    25                              PRN / # OF OBS      
   E25   137   137   137   137                              PRN / # OF OBS      
   E36   137   137   137   137                              PRN / # OF OBS      
   G02    12     0     0     0    10     0     0     0      PRN / # OF OBS      
   G08   125     0   119   124   122     0   119   124      PRN / # OF OBS      
   G10   137     0   137   137   137     0   137   137      PRN / # OF OBS      
   G16   137   137     0     0   137   137     0     0      PRN / # OF OBS      
   G18   127     0   121   126   122     0   120   126      PRN / # OF OBS      
   G23   137     0   137   137   137     0   137   137      PRN / # OF OBS      
   G27   137     0   137   137   137     0   137   137      PRN / # OF OBS      
   R01   136     0   135     0                              PRN / # OF OBS      
   R07    74    64    69    62                              PRN / # OF OBS      
   R08   137   137   137   137                              PRN / # OF OBS      
   R14   137   137   137   137                              PRN / # OF OBS      
   R15   135   135   134   134                              PRN / # OF OBS      
   R17    78    39    68    36                              PRN / # OF OBS      
   R23   127     0   121     0                              PRN / # OF OBS      
   R24   137   137   137   137                              PRN / # OF OBS      
DBHZ                                                        SIGNAL STRENGTH UNIT
                                                            END OF HEADER       
>                              2  1
              *** Start of Kinematic Data ***               COMMENT             
> 2025 06 15 08 32 30.0000000  0 29
C05  39186673.973 6  39186672.307 7 204055290.83416 157788492.66817
C08  38450869.676 5  38450868.232 7 200223784.33915 154825704.52917
C13  37607509.671 7  37607511.084 7 195832153.63417 151429830.32117
C20  24069794.198 7                 125337733.57817
C29  21319241.456 8                 111014885.15918
C30  24139261.502 5                 125699476.92815
C32  24185053.338 5                 125937881.18715
C35  23766083.375 6                 123756231.33516
C45  24812809.853 6                 129206807.00516
C47  22182263.483 8                 115508871.06818
E02  24532569.557 7  24532570.224 7 128919519.66817  97526785.46517
E10  24386744.365 8  24386746.385 9 128153203.48118  96947073.55319
E11  23337795.282 7  23337793.987 8 122640944.39017  92777068.50018
E16  25407703.797 7  25407706.700 8 133518375.38917 101005797.47818
E24  27403781.777 6  27403787.569 5 144007840.69616 108940958.02615
E25  24163041.723 8  24163044.414 9 126977645.51118  96057768.84819
E36  24842186.980 8  24842190.997 9 130546576.11818  98757649.27719
G10  21751441.749 8                  21751447.509 7  21751443.849 8 114304590.12318                  89068542.44017  85357339.76218
G16  21077980.565 7  21077983.243 6                                 110765526.40217  86310814.82316                
G18  22158318.486 6                  22158323.367 7  22158325.150 8 116442740.90516                  90734623.41617  86954024.50718
G23  20765250.458 8                  20765254.648 8  20765255.705 8 109122126.76818                  85030244.40018  81487323.53518
G27  20271613.508 8                  20271618.906 8  20271616.044 9 106528042.77718                  83008890.63418  79550175.01319
R01  23027280.864 6                 123094027.38316
R07  22254488.312 6  22254490.738 6 119129980.55116  92656502.77416
R08  21155160.863 8  21155164.276 7 113284929.26418  88110686.39617
R14  20634768.924 8  20634772.409 7 109994926.10618  85551489.80617
R15  21416552.111 7  21416555.087 5 114443536.29117  89011856.95315
R23  20909379.247 7                 111851083.14317
R24  19594204.155 8  19594206.727 8 104779019.78818  81494910.21318
> 2025 06 15 08 32 45.0000000  0 28
C05  39186314.260 5  39186312.190 7 204053415.843 5 157787042.751 7
C08  38453672.263 5  38453671.320 7 200238383.232 5 154836993.319 7
C13  37609177.417 7  37609178.549 7 195840838.473 7 151436545.989 7
C20  24062266.662 8                 125298534.829 8
C29  21319985.078 8                 111018759.872 8
C30  24146552.624 6                 125737435.131 6
C32  24186468.567 4                 125945224.70014
C35  23758849.015 6                 123718564.684 6
C45  24820944.263 6                 129249162.247 6
C47  22186475.164 8                 115530801.744 8
E02  24529323.816 7  24529325.765 7 128902468.560 7  97513886.416 7
E10  24391490.834 8  24391492.645 9 128178145.482 8  96965942.023 9
E11  23338790.486 7  23338788.883 8 122646172.740 7  92781023.703 8
E16  25415587.012 7  25415590.203 8 133559802.665 7 101037136.906 8
E24  27412881.599 6  27412887.695 5 144055663.786 6 108977135.850 5
E25  24168169.699 8  24168172.584 9 127004593.780 8  96078155.033 9
E36  24836440.723 8  24836444.679 8 130516379.497 8  98734805.737 8
G10  21744297.751 8                  21744303.462 7  21744299.799 8 114267046.604 8                  89039287.804 7  85329304.086 8
G16  21083725.909 7  21083728.987 5                                 110795723.025 7  86334344.635 5                
G18  22165635.704 6                  22165640.244 7  22165641.929 8 116481193.804 6                  90764586.757 7  86982739.328 8
G23  20765856.194 8                  20765860.510 8  20765861.793 8 109125310.505 8                  85032725.270 8  81489701.007 8
G27  20267712.276 7                  20267717.219 8  20267714.550 9 106507540.392 7                  82992914.711 8  79534864.775 9
R01  23014937.812 6                 123028048.739 6
R08  21150317.460 8  21150320.136 7 113258990.847 8  88090512.058 7
R14  20640896.749 8  20640900.776 7 110027589.155 8  85576894.379 7
R15  21411312.164 7  21411314.496 5 114415535.314 7  88990078.495 5
R23  20916613.830 7                 111889781.152 7
R24  19590889.815 8  19590892.485 8 104761296.104 8  81481125.112 8
>                              3  5
              *** Start of Occupation ***                   COMMENT             
1002                                                        MARKER NAME         
1002                                                        MARKER NUMBER       
  3914882.9832  1190877.1627  4876882.6006                  APPROX POSITION XYZ 
        1.2650        0.0000        0.0000                  ANTENNA: DELTA H/E/N
> 2025 06 15 08 33  0.0000000  0 28
C05  39185949.809 5  39185947.840 7 204051518.581 5 157785575.696 7
C08  38456474.871 5  38456474.565 6 200252982.026 5 154848282.021 6
C13  37610845.662 7  37610847.356 7 195849527.171 7 151443264.609 7
C20  24054750.614 8                 125259397.280 8
C29  21320739.382 8                 111022685.496 8
C30  24153843.661 5                 125775402.693 5
C32  24187892.684 6                 125952679.790 6
C35  23751619.085 6                 123680909.626 6
C45  24829086.585 6                 129291544.813 6
C47  22190693.898 8                 115552770.246 8
E02  24526093.200 6  24526095.402 8 128885491.848 6  97501043.653 8
E10  24396240.848 8  24396242.892 9 128203109.476 8  96984827.087 9
E11  23339793.759 7  23339792.065 8 122651444.647 7  92785011.877 8
E16  25423476.060 7  25423479.261 8 133601259.970 7 101068499.008 8
E24  27421980.316 6  27421985.594 5 144103476.140 6 109013305.345 5
E25  24173309.922 8  24173313.068 9 127031606.860 8  96098590.203 9
E36  24830699.655 8  24830703.914 8 130486211.791 8  98711984.085 8
G10  21737168.317 8                  21737174.575 7  21737171.338 8 114229585.402 8                  89010097.257 7  85301329.830 8
G16  21089492.601 7  21089495.788 6                                 110826027.033 7  86357958.111 6                
G18  22172958.786 7                  22172964.133 7  22172965.930 8 116519678.009 7                  90794574.428 7  87011477.460 8
G23  20766486.072 7                  20766490.112 8  20766492.029 8 109128620.620 7                  85035304.569 8  81492172.839 8
G27  20263827.575 7                  20263832.303 8  20263829.926 9 106487125.163 7                  82977006.759 8  79519619.634 9
R01  23002596.860 5                 122962082.707 5
R08  21145504.190 7  21145507.239 7 113233216.464 7  88070465.341 7
R14  20647052.470 7  20647056.147 7 110060403.860 7  85602416.933 7
R15  21406102.314 7  21406106.688 6 114387696.538 7  88968426.229 6
R23  20923854.395 7                 111928513.463 7
R24  19587589.425 8  19587592.004 8 104743646.226 8  81467397.438 8
> 2025 06 15 08 33 15.0000000  0 30
C05  39185582.557 5  39185579.731 7 204049603.517 5 157784094.829 7
C08  38459280.792 5  38459279.158 6 200267585.017 5 154859573.947 6
C13  37612516.442 7  37612517.694 7 195858223.944 7 151449989.518 7
C20  24047247.251 8                 125220325.586 8
C29  21321503.755 8                 111026666.438 8
C30  24161137.331 5                 125813383.763 5
C32  24189344.906 5                 125960249.093 5
C35  23744388.063 6                 123643270.604 6
C45  24837224.425 5                 129333958.722 5
C47  22194920.943 8                 115574780.969 8
E02  24522878.448 7  24522879.915 8 128868594.064 7  97488260.621 8
E10  24400996.491 8  24400998.368 9 128228099.728 8  97003732.011 9
E11  23340806.108 7  23340804.391 8 122656764.498 7  92789036.311 8
E12                  26648124.442 5                 105936913.98915
E16  25431372.176 7  25431374.910 8 133642751.426 7 101099886.997 8
E24  27431078.627 5  27431082.436 5 144151281.601 5 109049469.834 5
E25  24178463.208 8  24178466.777 9 127058688.917 8  96119077.609 9
E36  24824966.097 8  24824969.323 8 130456077.389 8  98689187.629 8
G08  22496062.268 6                  22496070.977 4  22496068.541 5 118217799.39416                  92117653.14614  88279465.27715
G10  21730056.932 8                  21730062.618 7  21730058.645 8 114192211.045 8                  88980974.441 7  85273420.455 8
G16  21095280.576 7  21095283.975 6                                 110856442.472 7  86381658.429 6                
G18  22180289.141 7                  22180293.889 7  22180295.837 8 116558197.683 7                  90824589.703 7  87040242.080 8
G23  20767140.653 8                  20767145.133 8  20767146.852 9 109132061.410 8                  85037985.748 8  81494742.289 9
G27  20259959.320 8                  20259965.008 8  20259962.424 9 106466801.698 8                  82961170.318 8  79504443.062 9
R01  22990259.235 5                 122896134.493 5
R08  21140722.574 8  21140725.394 7 113207610.835 8  88050549.843 7
R14  20653238.127 8  20653242.229 7 110093374.603 8  85628060.826 7
R15  21400924.283 7  21400934.264 6 114360024.875 7  88946903.974 6
R23  20931102.034 7                 111967284.239 7
R24  19584303.174 8  19584305.146 7 104726074.541 8  81453730.584 7
> 2025 06 15 08 33 30.0000000  0 31
C05  39185212.071 5  39185209.102 7 204047672.348 5 157782601.548 7
C08  38462087.651 6  38462085.195 6 200282193.826 6 154870870.434 6
C13  37614188.496 7  37614190.310 7 195866930.643 7 151456722.093 7
C20  24039757.242 8                 125181321.799 8
C26  24358948.501 4                 126843442.29814
C29  21322279.081 8                 111030704.453 8
C30  24168438.172 6                 125851380.123 6
C32  24190821.018 6                 125967934.375 6
C35  23737164.923 6                 123605649.439 6
C47  22199155.833 8                 115596835.555 8
E02  24519679.003 7  24519679.700 8 128851777.171 7  97475538.763 8
E10  24405757.849 8  24405759.295 9 128253117.837 8  97022658.041 9
E11  23341827.956 7  23341826.199 8 122662133.972 7  92793098.283 8
E12                  26655011.050 5                 105964284.14815
E16  25439275.324 7  25439277.265 8 133684278.726 7 101131302.054 8
E24  27440173.952 5  27440178.473 5 144199082.004 5 109085630.470 5
E25  24183630.398 8  24183633.597 9 127085841.739 8  96139618.499 9
E36  24819237.909 8  24819241.635 8 130425978.181 8  98666417.778 8
G08  22487220.013 6                  22487229.061 5  22487220.416 5 118171339.559 6                  92081450.814 5  88244770.16115
G10  21722961.670 8                  21722967.778 7  21722963.423 8 114154925.641 8                  88951920.914 7  85245577.463 8
G16  21101090.166 8  21101092.640 6                                 110886970.846 8  86405446.755 6                
G18  22187626.852 6                  22187631.000 7  22187632.410 8 116596754.372 6                  90854633.819 7  87069034.424 8
G23  20767820.653 8                  20767824.766 8  20767826.916 9 109135634.628 8                  85040770.044 8  81497410.579 9
G27  20256110.225 8                  20256115.573 8  20256112.949 9 106446571.982 8                  82945406.886 8  79489336.465 9
R01  22977925.878 5                 122830206.551 5
R07  22276482.774 5  22276479.981 4 119247701.14615  92748069.613 4
R08  21135972.732 8  21135976.297 7 113182176.020 8  88030767.257 7
R14  20659452.690 8  20659456.639 8 110126502.680 8  85653827.088 8
R15  21395778.344 7  21395780.123 5 114332522.654 7  88925513.201 5
R23  20938357.085 7                 112006095.124 7
R24  19581032.448 8  19581034.556 7 104708582.997 8  81440126.063 7
> 2025 06 15 08 33 45.0000000  0 31
C05  39184836.881 5  39184834.626 7 204045722.866 5 157781094.064 7
C08  38464895.484 6  38464890.689 6 200296806.405 6 154882169.826 6
C13  37615860.807 6  37615863.924 7 195875644.951 6 151463460.505 7
C20  24032279.534 8                 125142384.065 8
C29  21323064.932 8                 111034797.362 8
C30  24175738.167 5                 125889389.452 5
C32  24192318.437 5                 125975733.497 5
C35  23729943.063 6                 123568044.009 6
C45  24853535.615 5                 129418880.39515
C47  22203399.659 8                 115618931.750 8
E02  24516493.189 7  24516494.599 8 128835039.054 7  97462876.496 8
E10  24410523.597 8  24410525.170 9 128278161.520 8  97041603.432 9
E11  23342858.631 7  23342856.910 8 122667550.743 7  92797196.020 8
E12                  26661896.373 5                 105991654.01415
E16  25447183.115 7  25447185.985 8 133725839.378 7 101162742.411 8
E24  27449272.157 6  27449273.640 5 144246875.000 6 109121785.443 5
E25  24188810.672 8  24188813.682 9 127113062.909 8  96160211.100 9
E36  24813516.292 8  24813520.082 8 130395911.909 8  98643672.844 8
G08  22478386.492 6                  22478395.091 5  22478387.126 6 118124910.181 6                  92045272.100 5  88210098.920 6
G10  21715882.965 8                  21715889.291 7  21715884.501 8 114117727.168 8                  88922935.085 7  85217799.389 8
G16  21106920.643 8  21106923.163 6                                 110917609.675 8  86429321.163 6                
G18  22194971.312 7                  22194974.553 7  22194976.008 8 116635345.783 7                  90884705.049 7  87097852.678 8
G23  20768525.620 8                  20768529.264 8  20768531.598 8 109139337.939 8                  85043655.741 8  81500176.054 8
G27  20252277.994 8                  20252283.516 8  20252280.968 9 106426433.963 8                  82929714.935 8  79474298.339 9
R01  22965596.431 6                 122764297.048 6
R07  22282054.352 5  22282055.383 4 119277531.380 5  92771271.120 4
R08  21131254.494 8  21131257.981 7 113156910.195 8  88011116.091 7
R14  20665696.789 8  20665700.291 8 110159785.325 8  85679713.550 8
R15  21390661.085 6  21390665.793 5 114305187.512 6  88904252.789 5
R23  20945619.407 6                 112044943.775 6
R24  19577776.313 8  19577778.604 8 104691169.305 8  81426582.063 8
> 2025 06 15 08 34  0.0000000  0 29
C05  39184458.894 5  39184456.436 7 204043753.939 5 157779571.564 7
C08  38467702.257 6  38467697.434 6 200311421.562 6 154893471.172 6
C13  37617535.899 6  37617538.024 7 195884365.517 6 151470203.771 7
C20  24024814.459 8                 125103511.538 8
C29  21323861.174 8                 111038944.008 8
C30  24183041.940 5                 125927410.766 5
C35  23722724.226 6                 123530453.306 6
C45  24861698.183 6                 129461386.294 6
C47  22207650.494 8                 115641068.466 8
E02  24513322.594 7  24513324.401 8 128818378.700 7  97450273.068 8
E10  24415293.188 8  24415295.493 9 128303229.545 8  97060567.219 9
E11  23343898.612 7  23343896.450 8 122673013.660 7  92801328.668 8
E16  25455098.671 7  25455100.629 8 133767432.169 7 101194207.066 8
E24  27458362.400 6  27458367.269 5 144294659.124 6 109157933.741 5
E25  24194003.373 8  24194006.386 9 127140351.190 8  96180854.486 9
E36  24807801.499 8  24807804.791 8 130365877.512 8  98620952.026 8
G08  22469556.950 5                  22469561.406 5  22469558.591 6 118078510.340 5                  92009116.528 5  88175449.683 6
G10  21708820.565 8                  21708826.933 7  21708822.631 8 114080614.782 8                  88894016.356 7  85190085.621 8
G16  21112772.026 7  21112774.582 6                                 110948357.708 7  86453280.658 6                
G18  22202320.489 6                  22202324.938 7  22202326.949 8 116673970.570 6                  90914802.303 7  87126695.855 8
G23  20769254.914 8                  20769258.750 8  20769260.491 9 109143170.161 8                  85046641.873 8  81503037.768 9
G27  20248462.840 8                  20248468.604 8  20248466.168 9 106406386.674 8                  82914093.666 8  79459327.968 9
R01  22953269.813 6                 122698405.381 6
R07  22287647.600 4                 119307516.72414
R08  21126567.820 8  21126570.792 7 113131812.601 8  87991595.773 7
R14  20671968.198 7  20671972.814 8 110193221.170 7  85705719.160 8
R15  21385576.682 4  21385579.364 5 114278018.879 4  88883121.586 5
R23  20952888.928 7                 112083828.928 7
R24  19574533.561 8  19574536.259 8 104673832.489 8  81413097.875 8
> 2025 06 15 08 34 15.0000000  0 30
C05  39184077.769 6  39184075.278 7 204041767.773 6 157778035.697 7
C08  38470509.849 5  38470504.442 6 200326041.146 5 154904775.907 6
C13  37619211.804 6  37619214.135 7 195893094.672 6 151476953.721 7
C20  24017362.387 8                 125064706.645 8
C26  24362542.653 4                 126862176.13614
C29  21324668.647 8                 111043146.576 8
C30  24190338.335 5                 125965446.058 5
C32  24195381.390 5                 125991644.48915
C35  23715507.980 6                 123492879.590 6
C45  24869867.552 6                 129503922.963 6
C47  22211910.075 8                 115663247.717 8
E02  24510167.374 7  24510169.466 8 128801798.438 7  97437730.193 8
E10  24420068.848 8  24420070.758 9 128328323.918 8  97079550.932 9
E11  23344947.032 7  23344945.160 8 122678524.705 7  92805497.740 8
E16  25463019.797 7  25463022.005 8 133809059.033 7 101225697.457 8
E24  27467452.646 6  27467459.327 5 144342436.369 6 109194076.88315
E25  24199209.558 8  24199212.429 9 127167708.602 8  96201550.155 9
E36  24802092.109 8  24802095.953 9 130335877.133 8  98598256.954 9
G08  22460733.179 5                  22460739.425 5  22460735.766 6 118032142.34015                  91972985.688 5  88140824.325 6
G10  21701775.154 8                  21701781.355 7  21701777.358 8 114043590.855 8                  88865166.532 7  85162437.872 8
G16  21118644.352 8  21118646.383 6                                 110979216.782 8  86477326.654 6                
G18  22209677.262 6                  22209682.225 7  22209683.374 8 116712630.711 6                  90944927.053 7  87155565.395 8
G23  20770009.297 8                  20770012.835 8  20770014.726 8 109147133.401 8                  85049730.106 8  81505997.301 8
G27  20244665.781 8                  20244671.276 8  20244669.155 9 106386432.459 8                  82898544.945 8  79444427.090 9
R01  22940947.750 6                 122632534.507 6
R07  22293283.777 6                 119337662.780 6
R08  21121912.397 7  21121915.280 7 113106885.616 7  87972208.106 7
R14  20678270.781 8  20678273.227 7 110226811.777 8  85731845.166 7
R23  20960165.172 6                 112122752.681 6
R24  19571306.497 8  19571308.508 7 104656574.760 8  81399675.200 7
> 2025 06 15 08 34 30.0000000  0 31
C05  39183693.090 5  39183689.848 7 204039761.396 5 157776484.235 7
C08  38473316.825 5  38473312.352 7 200340662.323 5 154916081.945 7
C13  37620889.806 7  37620891.650 7 195901829.418 7 151483707.972 7
C20  24009922.661 8                 125025966.814 8
C29  21325486.102 8                 111047402.221 8
C30  24197645.468 6                 126003492.271 6
C32  24196939.766 5                 125999782.63215
C35  23708293.888 6                 123455320.066 6
C45  24878042.325 6                 129546487.164 6
C47  22216176.579 8                 115685466.596 8
E02  24507026.978 7  24507029.031 8 128785295.465 7  97425245.801 8
E10  24424848.442 8  24424850.396 9 128353441.634 8  97098552.310 9
E11  23346004.339 7  23346002.450 8 122684080.934 7  92809700.985 8
E12                  26682528.156 4                 106073774.48314
E16  25470947.832 8  25470949.203 8 133850716.870 8 101257211.302 8
E24  27476541.401 6  27476549.149 5 144390203.722 6 109230212.47115
E25  24204427.912 8  24204431.034 9 127195132.062 8  96222295.828 9
E36  24796389.448 8  24796392.994 9 130305907.929 8  98575585.472 9
G08  22451915.766 5                  22451919.242 5  22451917.333 6 117985803.649 5                  91936877.630 5  88106220.739 6
G10  21694746.223 8                  21694752.282 7  21694748.066 8 114006652.716 8                  88836383.589 7  85134854.221 8
G16  21124536.985 7  21124539.805 6                                 111010183.683 7  86501456.706 6                
G18  22217040.277 6                  22217044.861 7  22217045.560 8 116751323.168 6                  90975076.969 7  87184459.108 8
G23  20770788.025 8                  20770791.363 8  20770793.161 8 109151224.620 8                  85052918.082 8  81509052.446 8
G27  20240886.058 8                  20240891.496 8  20240888.756 9 106366568.567 8                  82883066.580 8  79429593.646 9
R01  22928628.447 6                 122566681.820 6
R07  22298945.468 6  22298949.097 5 119367964.397 6  92841811.35415
R08  21117289.200 7  21117292.252 7 113082126.807 7  87952951.308 7
R14  20684600.551 8  20684604.039 7 110260554.094 8  85758089.203 7
R15  21375512.213 5  21375505.622 5 114224436.16615  88841251.749 5
R23  20967448.253 7                 112161712.002 7
R24  19568093.338 8  19568095.723 8 104639393.012 8  81386311.616 8
> 2025 06 15 08 34 45.0000000  0 30
C05  39183303.819 5  39183301.510 7 204037738.180 5 157774919.741 7
C08  38476124.010 5  38476121.595 7 200355288.291 5 154927391.650 7
C13  37622569.571 7  37622571.155 7 195910572.813 7 151490468.909 7
C20  24002496.441 8                 124987295.518 8
C29  21326313.871 8                 111051714.134 8
C30  24204956.788 7                 126041552.639 7
C32  24198522.355 4                                
C35  23701085.253 6                 123417777.926 6
C45  24886222.581 6                 129589081.869 6
C47  22220451.451 8                 115707728.322 8
E02  24503901.960 7  24503903.844 8 128768873.178 7  97412822.460 8
E10  24429633.454 8  24429635.148 9 128378585.852 8  97117573.740 9
E11  23347070.583 7  23347069.055 8 122689685.521 7  92813940.827 8
E12                  26689411.992 5                 106101141.48115
E16  25478880.272 7  25478882.901 8 133892408.771 7 101288750.927 8
E24  27485630.863 5  27485637.292 4 144437964.241 5 109266342.90214
E25  24209659.772 8  24209662.770 9 127222624.805 8  96243093.885 9
E36  24790693.375 8  24790696.516 8 130275973.224 8  98552940.095 8
G10  21687733.605 8                  21687740.213 7  21687736.115 8 113969803.864 8                  88807670.244 7  85107337.267 8
G16  21130450.591 7  21130453.786 5                                 111041261.492 7  86525673.149 5                
G18  22224409.759 7                  22224415.224 7  22224416.340 8 116790050.960 7                  91005254.461 7  87213379.155 8
G23  20771591.417 8                  20771594.960 8  20771597.016 8 109155447.050 8                  85056208.293 8  81512205.567 8
G27  20237123.774 8                  20237129.030 8  20237126.610 9 106346798.367 8                  82867661.253 8  79414830.209 9
R01  22916313.835 6                 122500851.112 6
R07  22304632.005 6  22304640.925 5 119398424.739 6  92865502.607 5
R08  21112697.244 8  21112700.614 7 113057539.562 8  87933827.883 7
R14  20690958.966 8  20690963.239 7 110294450.816 8  85784453.238 7
R15  21370517.450 6  21370518.040 6 114197773.054 6  88820513.843 6
R23  20974738.439 7                 112200709.747 7
R24  19564895.903 8  19564896.929 7 104622290.753 8  81373009.861 7
> 2025 06 15 08 35  0.0000000  0 31
C05  39182912.072 5  39182909.651 7 204035698.255 5 157773342.360 7
C08  38478935.094 5  38478930.946 7 200369919.184 5 154938705.191 7
C13  37624249.850 6  37624252.368 7 195919324.991 6 151497236.666 7
C20  23995083.469 8                 124948693.293 8
C29  21327152.719 8                 111056082.484 8
C30  24212268.203 7                 126079627.252 7
C32  24200140.216 6                 126016406.27316
C35  23693879.655 6                 123380253.521 6
C45  24894407.279 6                 129631706.906 6
C47  22224735.477 8                 115730032.953 8
E02  24500792.812 7  24500794.105 8 128752531.911 7  97400460.408 8
E10  24434423.004 8  24434424.939 9 128403756.583 8  97136615.229 9
E11  23348146.519 7  23348144.887 8 122695338.573 7  92818217.314 8
E12                  26696296.942 5                 106128508.90115
E16  25486819.973 7  25486823.017 8 133934134.769 7 101320316.314 8
E24  27494719.869 5  27494731.736 5 144485717.930 5 109302468.60215
E25  24214904.916 8  24214907.569 9 127250186.831 8  96263944.342 9
E36  24785003.633 8  24785006.613 8 130246073.141 8  98530320.889 8
G08  22434296.423 4                  22434302.080 5  22434300.309 7                                  91864738.105 5  88037087.050 7
G10  21680739.154 8                  21680744.801 7  21680741.335 8 113933044.743 8                  88779026.799 7  85079887.294 8
G16  21136386.412 7  21136388.007 6                                 111072450.010 7  86549975.832 6                
G18  22231786.009 7                  22231790.952 7  22231792.033 8 116828814.110 7                  91035459.487 7  87242325.626 8
G23  20772420.007 8                  20772423.273 8  20772425.683 9 109159800.783 8                  85059600.801 8  81515456.730 9
G27  20233379.864 8                  20233385.070 8  20233382.452 9 106327122.306 8                  82852329.276 8  79400137.052 9
R01  22904003.100 6                 122435043.223 6
R07  22310355.053 5  22310356.193 5 119429043.563 5  92889317.088 5
R08  21108137.838 7  21108141.166 7 113033124.522 7  87914838.463 7
R14  20697346.964 8  20697351.346 7 110328501.816 8  85810937.377 7
R15  21365561.104 4  21365558.580 5 114171279.996 4  88799908.110 5
R23  20982036.031 6                 112239746.316 6
R24  19561712.242 8  19561714.037 8 104605268.170 8  81359770.086 8
> 2025 06 15 08 35 15.0000000  0 31
C05  39182517.883 5  39182514.453 7 204033641.498 5 157771751.941 7
C08  38481745.763 5  38481740.984 7 200384554.911 5 154950022.442 7
C13  37625932.035 7  37625934.612 7 195928086.036 7 151504011.276 7
C20  23987682.482 8                 124910160.392 8
C26  24367612.804 4                 126888627.94614
C29  21328002.636 8                 111060507.287 8
C30  24219582.675 7                 126117716.075 7
C32  24201767.531 6                 126024889.038 6
C35  23686676.922 6                 123342746.997 6
C45  24902598.624 6                 129674361.960 6
C47  22229027.234 8                 115752380.482 8
E02  24497698.680 7  24497699.827 8 128736271.767 7  97388159.723 8
E10  24439217.869 8  24439219.875 9 128428953.771 8  97155676.708 9
E11  23349230.972 7  23349229.853 8 122701039.962 7  92822530.365 8
E12                  26703181.747 5                 106155876.70515
E16  25494767.444 7  25494769.970 8 133975894.576 7 101351907.267 8
E24  27503806.679 5  27503825.892 5 144533464.554 5 109338590.08015
E25  24220162.689 8  24220165.628 9 127277817.966 8  96284847.106 9
E36  24779320.293 8  24779323.389 8 130216207.767 8  98507727.952 8
G10  21673760.958 8                  21673766.839 7  21673763.287 8 113896375.550 8                  88750453.435 7  85052504.489 8
G16  21142341.984 8  21142343.659 6                                 111103748.966 8  86574364.605 6                
G18  22239169.197 6                  22239174.688 7  22239176.150 8 116867612.450 6                  91065691.870 7  87271298.378 8
G23  20773273.572 7                  20773276.690 8  20773278.761 8 109164285.727 7                  85063095.561 8  81518805.862 8
G27  20229653.621 8                  20229658.638 8  20229656.230 9 106307540.522 8                  82837070.703 8  79385514.281 9
R01  22891696.070 5                 122369258.810 5
R07  22316108.410 6  22316108.837 6 119459820.487 6  92913254.55816
R08  21103611.140 8  21103613.640 7 113008881.880 8  87895983.042 7
R14  20703763.836 8  20703768.060 8 110362706.604 8  85837541.062 8
R15  21360631.675 6  21360632.873 5 114144948.18316  88779435.390 5
R23  20989341.110 7                 112278821.264 7
R24  19558543.604 8  19558545.673 7 104588325.332 8  81346592.327 7
> 2025 06 15 08 35 30.0000000  0 31
C05  39182120.756 5  39182117.713 7 204031575.872 5 157770154.651 7
C08  38484559.580 5  38484554.580 7 200399203.083 5 154961349.359 7
C13  37627618.325 7  37627620.811 7 195936863.573 7 151510798.604 7
C20  23980297.930 8                 124871704.853 8
C26  24368928.761 5                 126895507.57215
C29  21328864.813 8                 111064996.298 8
C30  24226901.407 7                 126155826.835 7
C35  23679478.675 6                 123305266.234 6
C45  24910797.632 7                 129717054.558 7
C47  22233328.414 8                 115774778.629 8
E02  24494621.217 7  24494622.629 8 128720100.700 7  97375926.413 8
E10  24444019.153 8  24444021.210 9 128454185.059 8  97174763.998 9
E11  23350327.236 7  23350325.370 8 122706797.499 7  92826885.888 8
E12                  26710067.817 5                 106183250.53515
E16  25502722.019 7  25502724.570 8 134017695.863 7 101383529.613 8
E24  27512890.892 4  27512912.147 5 144581211.772 4 109374710.525 5
E25  24225435.517 8  24225438.281 9 127305525.960 8  96305808.012 9
E36  24773644.607 8  24773648.254 8 130186384.954 8  98485167.206 8
G08  22416709.224 5                  22416713.767 5  22416709.899 7                                  91792708.873 5  87968058.777 7
G10  21666801.867 8                  21666808.182 7  21666803.834 8 113859804.421 8                  88721956.467 7  85025194.897 8
G16  21148320.355 8  21148323.152 6                                 111135166.013 8  86598845.438 6                
G18  22246559.954 6                  22246565.788 7  22246567.176 8 116906453.563 6                  91095957.670 7  87300303.087 8
G23  20774153.413 8                  20774156.416 8  20774158.528 8 109168909.609 8                  85066698.563 8  81522258.749 8
G27  20225946.626 8                  20225951.601 8  20225949.641 9 106288060.994 8                  82821891.869 8  79370967.881 9
R01  22879395.432 5                 122303505.979 5
R07  22321886.561 6  22321889.447 6 119490762.926 6  92937320.858 6
R08  21099117.580 7  21099120.989 7 112984820.153 7  87877268.377 7
R14  20710210.447 8  20710215.170 8 110397072.376 8  85864269.959 8
R15  21355740.762 6  21355740.104 5 114118805.111 6  88759101.871 5
R23  20996653.470 7                 112317942.687 7
R24  19555391.347 8  19555393.814 7 104571470.176 8  81333482.760 7
> 2025 06 15 08 35 45.0000000  0 30
C05  39181723.687 6  39181719.993 7 204029504.120 6 157768552.635 7
C08  38487375.235 5  38487370.584 7 200413866.527 5 154972688.083 7
C13  37629307.549 7  37629309.988 7 195945660.457 7 151517600.882 7
C20  23972929.015 8                 124833329.888 8
C26  24370273.920 5                 126902505.372 5
C29  21329739.806 8                 111069552.417 8
C30  24234223.981 7                 126193962.240 7
C35  23672287.336 6                 123267814.045 6
C45  24919003.968 7                 129759787.226 7
C47  22237639.151 8                 115797230.200 8
E02  24491560.709 7  24491562.931 8 128704021.807 7  97363762.826 8
E10  24448827.599 8  24448829.618 9 128479453.321 8  97193879.254 9
E11  23351434.002 7  23351432.192 8 122712613.922 7  92831286.010 8
E12                  26716955.675 5                 106210632.71215
E16  25510684.625 7  25510687.696 8 134059541.446 7 101415185.448 8
E24  27521976.965 5  27521998.726 6 144628962.53115 109410833.470 6
E25  24230722.940 8  24230726.063 9 127333313.612 8  96326829.154 9
E36  24767978.587 8  24767981.817 8 130156607.641 8  98462640.882 8
G08  22407925.548 5                  22407930.014 5  22407927.185 7 117754641.16915                  91756744.810 5  87933593.397 7
G10  21659861.769 8                  21659867.727 7  21659863.497 8 113823334.450 8                  88693538.318 7  84997960.841 8
G16  21154321.605 7  21154324.071 6                                 111166703.819 7  86623420.312 6                
G18  22253959.715 6                  22253965.337 7  22253966.240 7 116945340.313 6                  91126259.025 7  87329341.854 7
G23  20775059.803 7                  20775063.340 8  20775065.164 8 109173675.262 7                  85070412.042 8  81525817.502 8
G27  20222259.803 8                  20222265.121 8  20222262.664 9 106268686.854 8                  82806795.137 8  79356500.188 9
R07  22327694.379 5  22327699.395 6 119521873.74615  92961518.120 6
R08  21094658.808 7  21094660.753 7 112960942.465 7  87858696.860 7
R14  20716688.552 8  20716692.607 8 110431602.240 8  85891126.470 8
R15  21350884.615 5  21350877.484 4 114092844.105 5
R23  21003976.925 7                 112357113.172 7
R24  19552256.744 8  19552258.993 8 104554705.787 8  81320443.795 8
> 2025 06 15 08 36  0.0000000  0 32
C05  39181324.598 5  39181320.211 6 204027422.991 5 157766943.380 6
C08  38490193.049 5  38490189.360 7 200428541.900 5 154984035.987 7
C13  37630999.221 6  37631002.371 7 195954473.343 6 151524415.564 7
C20  23965574.191 8                 124795032.488 8
C26  24371653.361 5                 126909617.334 5
C29  21330627.024 8                 111074172.351 8
C30  24241551.892 7                 126232119.049 7
C32  24206796.177 5                 126051068.65815
C35  23665098.559 6                 123230387.354 6
C45  24927217.394 7                 129802556.361 7
C47  22241960.344 8                 115819731.826 8
E02  24488518.425 7  24488520.223 8 128688031.868 7  97351666.533 8
E10  24453642.627 8  24453644.471 9 128504755.032 8  97213019.816 9
E11  23352551.673 7  23352549.531 8 122718485.925 7  92835728.130 8
E12                  26723844.293 5                 106238020.67715
E16  25518655.868 7  25518658.530 8 134101427.698 7 101446872.081 8
E24  27531064.924 4  27531085.647 5 144676712.97314 109446956.375 5
E25  24236025.170 8  24236028.442 9 127361177.427 8  96347907.922 9
E36  24762319.881 8  24762323.218 8 130126872.503 8  98440146.465 8
G08  22399149.479 5                  22399155.269 6  22399152.999 7 117708528.89715                  91720813.120 6  87899158.849 7
G10  21652940.088 8                  21652945.923 7  21652942.522 8 113786962.575 8                  88665196.642 7  84970800.039 8
G16  21160345.835 7  21160348.416 6                                 111198358.734 7  86648086.470 6                
G18  22261367.759 6                  22261372.431 7  22261374.037 7 116984269.146 6                  91156593.163 7  87358412.068 7
G23  20775993.336 7                  20775996.708 8  20775998.487 8 109178579.249 7                  85074233.354 8  81529479.603 8
G27  20218592.633 8                  20218597.662 8  20218595.232 9 106249414.883 8                  82791778.015 8  79342108.796 9
R01  22854812.852 5                 122172104.09615
R07  22333541.138 6  22333542.304 6 119553149.237 6  92985843.252 6
R08  21090233.357 7  21090236.178 7 112937245.668 7  87840266.058 7
R14  20723196.328 8  20723200.130 7 110466292.180 8  85918107.524 7
R15  21346061.305 5  21346057.459 6 114067062.243 5  88718647.56116
R23  21011308.103 6                 112396329.403 6
R24  19549138.105 8  19549140.519 8 104538028.898 8  81307472.882 8
> 2025 06 15 08 36 15.0000000  0 31
C05  39180921.246 5  39180917.788 7 204025326.086 5 157765321.920 7
C08  38493012.560 5  38493008.743 7 200443222.734 5 154995388.130 7
C13  37632693.614 7  37632696.537 7 195963295.594 7 151531237.457 7
C20  23958232.822 8                 124756806.455 8
C26  24373025.992 4                 126916837.02914
C29  21331525.145 8                 111078849.671 8
C30  24248881.813 6                 126270290.599 6
C32  24208510.665 5                 126060036.92515
C35  23657915.917 6                 123192979.719 6
C45  24935436.076 7                 129845355.151 7
C47  22246290.498 8                 115842277.024 8
E02  24485490.247 7  24485492.994 8 128672124.476 7  97339632.676 8
E10  24458462.262 8  24458464.432 9 128530083.573 8  97232180.686 9
E11  23353678.059 7  23353676.212 8 122724406.812 7  92840207.230 8
E16  25526632.978 7  25526635.771 8 134143347.939 7 101478584.436 8
E24  27540146.755 4  27540171.715 5                 109483073.993 5
E25  24241340.628 8  24241343.985 9 127389110.761 8  96369039.270 9
E36  24756668.453 8  24756671.680 8 130097173.062 8  98417679.027 8
G08  22390381.478 6                  22390387.491 6  22390384.570 7 117662451.510 6                  91684908.808 6  87864750.509 7
G10  21646036.763 8                  21646042.125 7  21646038.568 8 113750682.525 8                  88636926.487 7  84943707.808 8
G16  21166390.625 7  21166393.310 6                                 111230124.076 7  86672838.660 6                
G18  22268782.388 7                  22268787.172 7  22268789.071 7 117023233.286 7                  91186954.843 7  87387508.691 7
G23  20776951.750 8                  20776955.069 8  20776957.102 8 109183615.052 8                  85078157.333 8  81533240.095 8
G27  20214943.227 8                  20214948.607 8  20214946.317 9 106230238.769 8                  82776835.585 8  79327788.965 9
R01  22842530.643 5                 122106445.812 5
R07  22339411.465 6  22339415.166 6 119584581.966 6  93010291.070 6
R08  21085840.770 8  21085844.422 7 112913723.692 8  87821971.196 7
R14  20729732.735 8  20729736.896 8 110501135.281 8  85945207.714 8
R15  21341264.729 5  21341266.298 6 114041453.169 5  88698729.590 6
R23  21018646.130 6                 112435584.574 6
R24  19546034.301 8  19546036.235 8 104521432.804 8  81294564.791 8
> 2025 06 15 08 36 30.0000000  0 31
C05  39180515.298 5  39180512.005 6 204023213.514 5 157763688.345 6
C08  38495831.921 5  38495828.943 7 200457909.097 5 155006744.505 7
C13  37634388.406 6  37634392.123 7 195972127.492 6 151538066.830 7
C20  23950906.551 8                 124718652.284 8
C26  24374442.636 5                 126924164.19415
C29  21332434.819 8                 111083584.506 8
C30  24256216.251 6                 126308477.126 6
C32  24210256.699 5                 126069120.683 5
C35  23650735.810 7                 123155591.503 7
C45  24943659.832 6                 129888183.529 6
C47  22250628.840 8                 115864865.959 8
E02  24482479.290 7  24482481.771 8 128656299.982 7  97327661.548 8
E10  24463287.420 8  24463289.445 9 128555439.045 8  97251361.921 9
E11  23354813.934 7  23354812.271 8 122730376.735 7  92844723.427 8
E16  25534615.969 7  25534619.436 8 134185302.164 7 101510322.512 8
E25  24246670.001 8  24246672.727 8 127417113.641 8  96390223.245 8
E36  24751023.208 8  24751026.923 8 130067509.561 8  98395238.799 8
G08  22381619.066 5                  22381627.089 6  22381622.047 7 117616409.776 5                  91649032.170 6  87830368.715 7
G10  21639150.648 8                  21639155.738 7  21639152.984 8 113714494.641 8                  88608728.139 7  84916684.416 8
G16  21172455.933 8  21172458.698 6                                 111261999.699 8  86697676.786 6                
G18  22276204.144 7                  22276209.060 7  22276211.008 8 117062232.823 7                  91217344.055 7  87416631.697 8
G23  20777935.086 8                  20777938.423 8  20777940.204 8 109188782.679 8                  85082184.064 8  81537099.039 8
G27  20211312.443 8                  20211317.618 8  20211315.297 9 106211158.829 8                  82761968.095 8  79313540.981 9
R01  22830252.850 6                 122040815.183 6
R07  22345312.810 6  22345316.535 6 119616172.162 6  93034861.260 6
R08  21081480.821 8  21081484.440 7 112890376.739 8  87803812.480 7
R14  20736297.868 8  20736302.480 8 110536131.178 8  85972426.703 8
R15  21336531.643 4  21336507.218 7 114016002.35514  88678946.290 7
R17  22890602.670 5  22890601.581 5 122492249.93015  95271755.52315
R23  21025991.658 6                 112474878.448 6
R24  19542946.055 8  19542947.895 8 104504917.771 8  81281719.767 8
> 2025 06 15 08 36 45.0000000  0 31
C05  39180106.668 5  39180103.658 6 204021087.053 5 157762044.008 6
C08  38498653.528 5  38498650.659 7 200472602.679 5 155018106.512 7
C13  37636086.817 6  37636090.018 6 195980970.428 6 151544904.743 6
C20  23943592.567 8                 124680571.943 8
C26  24375859.922 4                 126931600.55614
C29  21333354.876 8                 111088378.581 8
C30  24263548.071 6                 126346680.205 6
C32  24212024.012 5                 126078321.796 5
C35  23643559.437 7                 123118224.443 7
C45  24951887.551 5                 129931042.802 5
C47  22254975.201 8                 115887500.228 8
E02  24479484.186 7  24479486.531 8 128640560.152 7  97315754.459 8
E10  24468117.964 8  24468119.832 9 128580823.029 8  97270564.703 9
E11  23355959.556 7  23355957.972 8 122736397.309 7  92849277.922 8
E16  25542606.350 7  25542609.859 8 134227291.940 7 101542087.454 8
E24                  27558339.736 5                 109555295.01615
E25  24252012.618 8  24252015.062 9 127445187.641 8  96411461.042 9
E36  24745386.080 8  24745389.340 9 130037883.667 8  98372827.027 9
G08  22372865.589 6                  22372870.722 6  22372868.269 7 117570405.467 6                  91613184.659 6  87796014.895 7
G10  21632281.927 8                  21632287.688 7  21632283.818 8 113678400.950 8                  88580603.181 7  84889731.367 8
G16  21178542.921 7  21178545.748 6                                 111293987.037 7  86722601.949 6                
G18  22283632.823 6                  22283637.798 7  22283640.216 8 117101269.278 6                  91247762.059 7  87445782.257 8
G23  20778943.443 8                  20778947.020 8  20778948.918 9 109194083.767 8                  85086314.806 8  81541057.664 9
G27  20207699.997 8                  20207705.421 8  20207703.060 9 106192176.977 8                  82747177.038 8  79299366.216 9
R01  22817981.380 5                 121975213.844 5
R07  22351244.287 7  22351247.416 6 119647921.271 7  93059554.903 6
R08  21077153.615 7  21077156.834 7 112867206.967 7  87785791.540 7
R14  20742891.908 8  20742896.762 8 110571281.539 8  85999765.840 8
R17  22881108.474 4  22881116.020 5 122441454.103 4  95232247.407 5
R23  21033344.764 7                 112514212.899 7
R24  19539872.986 8  19539875.157 7 104488485.438 8  81268939.077 7
> 2025 06 15 08 37  0.0000000  0 31
C05  39179695.371 5  39179692.113 7 204018945.115 5 157760387.704 7
C08  38501476.731 6  38501473.884 7 200487301.841 6 155029472.803 7
C13  37637785.903 6  37637790.085 6 195989823.099 6 151551750.179 6
C20  23936293.941 8                 124642564.171 8
C26  24377311.654 5                 126939144.606 5
C29  21334286.897 8                 111093230.394 8
C30  24270890.832 5                 126384898.191 5
C35  23636387.171 7                 123080877.062 7
C45  24960127.219 6                 129973931.258 6
C47  22259330.383 8                 115910178.274 8
E02  24476505.041 7  24476507.256 8 128624903.655 7  97303910.429 8
E10  24472953.258 8  24472955.380 9 128606233.862 8  97289787.817 9
E11  23357114.560 7  23357113.005 8 122742466.854 7  92853869.517 8
E16  25550603.546 7  25550606.699 8 134269315.521 7 101573877.970 8
E24                  27567404.025 5                 109591363.14115
E25  24257368.064 8  24257370.656 9 127473331.150 8  96432751.390 9
E36  24739755.277 8  24739758.597 8 130008293.929 8  98350442.601 8
G08  22364118.394 5                  22364123.028 6  22364121.462 7 117524437.335 5                  91577365.341 6  87761688.124 7
G10  21625430.962 8                  21625436.810 7  21625433.168 8 113642400.117 8                  88552550.620 7  84862847.670 8
G16  21184651.081 7  21184653.732 6                                 111326084.278 7  86747612.771 6                
G18  22291067.872 7                  22291072.346 7  22291075.529 8 117140340.928 7                  91278207.462 7  87474959.073 8
G23  20779977.480 7                  20779980.996 8  20779983.049 9 109199516.723 7                  85090548.253 8  81545114.712 9
G27  20204106.339 8                  20204112.001 8  20204109.372 9 106173291.771 8                  82732461.337 8  79285263.658 9
R01  22805714.519 5                 121909641.027 5
R07  22357205.544 6  22357206.866 6 119679827.032 6  93084370.423 6
R08  21072860.205 7  21072862.889 7 112844213.105 7  87767907.380 7
R14  20749515.053 8  20749518.995 8 110606583.796 8  86027223.127 8
R15  21327081.257 5  21327084.516 7                  88639787.668 7
R17  22871619.923 5                 122390669.03815
R23  21040705.527 7                 112553585.929 7
R24  19536815.440 8  19536817.058 7 104472134.532 8  81256221.713 7
> 2025 06 15 08 37 15.0000000  0 30
C05  39179281.062 5  39179277.773 7 204016786.642 5 157758718.637 7
C08  38504300.135 6  38504297.344 7 200502005.393 6 155040842.522 7
C13  37639488.388 6  37639491.727 6 195998684.195 6 151558602.173 6
C20  23929009.001 8                 124604628.273 8
C29  21335229.570 8                 111098138.851 8
C30  24278234.948 6                 126423130.146 6
C35  23629218.854 7                 123043548.451 7
C45  24968369.723 6                 130016847.500 6
C47  22263693.229 8                 115932898.995 8
E02  24473541.797 7  24473543.596 8 128609329.445 7  97292128.665 8
E10  24477794.070 8  24477795.838 9 128631670.362 8  97309030.356 9
E11  23358279.141 7  23358277.160 8 122748584.302 7  92858497.310 8
E16  25558606.657 7  25558609.733 8 134311371.700 7 101605693.110 8
E24                  27576484.502 5                 109627459.99115
E25  24262736.579 8  24262739.111 9 127501542.890 8  96454093.364 9
E36  24734131.476 8  24734134.428 9 129978739.302 8  98328084.711 9
G08  22355378.151 5                  22355382.169 6  22355380.623 7 117478504.58415                  91541573.527 6  87727387.686 7
G10  21618597.903 8                  21618603.309 7  21618599.671 8 113606491.332 8                  88524569.762 7  84836032.694 8
G16  21190779.502 8  21190782.573 6                                 111358290.170 8  86772708.262 6                
G18  22298509.417 7                  22298513.692 7  22298516.629 8 117179446.552 7                  91308679.363 7  87504161.264 8
G23  20781036.311 7                  20781039.913 8  20781041.690 8 109205080.385 7                  85094883.573 8  81549269.385 8
G27  20200530.781 8                  20200536.366 8  20200533.482 9 106154502.411 8                  82717820.284 8  79271232.630 9
R01  22793452.865 4                                
R07  22363191.582 6  22363195.803 5 119711888.117 6  93109307.019 5
R08  21068598.433 8  21068601.643 7 112821394.353 8  87750159.503 7
R14  20756165.876 8  20756170.078 7 110642036.801 8  86054797.694 7
R15  21322419.428 5  21322421.981 7 113940724.00415  88620410.953 7
R17  22862131.164 5                 122339893.695 5
R23  21048072.599 7                 112592996.718 7
R24  19533772.832 8  19533775.006 8 104455863.963 8  81243566.830 8
> 2025 06 15 08 37 30.0000000  0 31
C05  39178864.074 5  39178860.775 7 204014616.500 5 157757040.532 7
C08  38507126.198 6  38507122.464 7 200516718.107 6 155052219.304 7
C13  37641192.236 6  37641195.541 6 196007558.569 6 151565464.425 6
C20  23921739.412 8                 124566769.304 8
C26  24380269.923 5                 126954555.07015
C29  21336183.976 8                 111103108.857 8
C30  24285579.490 6                 126461380.719 6
C35  23622055.850 7                 123006243.522 7
C45  24976617.725 6                 130059796.075 6
C47  22268065.693 8                 115955667.240 8
E02  24470594.126 6  24470596.497 8 128593842.616 6  97280413.015 8
E10  24482640.121 8  24482641.943 9 128657137.313 8  97328295.936 9
E11  23359453.007 7  23359451.306 8 122754754.406 7  92863164.949 8
E16  25566616.160 7  25566619.914 8 134353465.086 7 101637536.441 8
E24  27585556.292 5  27585565.081 6 144963128.71315 109663554.14616
E25  24268118.760 8  24268121.593 9 127529827.670 8  96475490.604 9
E36  24728514.913 8  24728517.964 9 129949224.677 8  98305757.114 9
G08  22346642.985 4                  22346649.544 5  22346648.358 7 117432612.186 4                  91505813.319 5  87693117.459 7
G10  21611782.857 8                  21611788.795 7  21611785.140 8 113570679.663 8                  88496664.604 7  84809290.244 8
G16  21196929.470 7  21196932.874 6                                 111390609.417 7  86797892.079 6                
G18  22305959.047 7                  22305962.904 7  22305964.351 8 117218590.806 7                  91339181.360 7  87533392.354 8
G23  20782120.608 8                  20782124.389 8  20782126.411 9 109210779.550 8                  85099324.482 8  81553525.236 9
G27  20196974.732 8                  20196979.810 8  20196977.372 9 106135813.895 8                  82703257.806 8  79257276.925 9
R01  22781196.822 5                 121778584.77115
R07  22369213.990 6  22369214.746 6 119744109.311 6  93134367.799 6
R08  21064371.153 8  21064374.859 7 112798756.122 8  87732552.040 7
R14  20762845.912 8  20762849.670 8 110677644.941 8  86082492.856 8
R15  21317791.856 6  21317793.703 7 113915989.527 6  88601173.014 7
R17  22852643.732 4  22852642.787 5 122289133.351 4  95113732.92715
R23  21055448.418 7                 112632449.908 7
R24  19530745.727 8  19530748.483 8 104439678.596 8  81230978.226 8
> 2025 06 15 08 37 45.0000000  0 30
C05  39178444.739 5  39178441.570 7 204012433.196 5 157755352.255 7
C08  38509952.409 5  38509949.339 7 200531438.549 5 155063602.084 7
C13  37642899.114 6  37642902.241 6 196016444.699 6 151572335.720 6
C20  23914482.553 8                 124528986.104 8
C26  24381784.909 5                 126962426.46515
C29  21337150.036 8                 111108138.855 8
C30  24292927.230 6                 126499648.395 6
C35  23614896.180 7                 122968960.792 7
C45  24984872.215 7                 130102775.223 7
C47  22272447.255 8                 115978481.350 8
E02  24467664.420 7  24467665.859 8 128578441.772 7  97268762.401 8
E10  24487491.011 8  24487493.439 9 128682633.060 8  97347583.289 9
E11  23360636.562 7  23360635.198 8 122760975.592 7  92867871.237 8
E16  25574633.301 7  25574636.736 8 134395593.967 7 101669406.644 8
E24  27594636.060 5  27594643.692 6 145010835.862 5 109699644.233 6
E25  24273514.323 8  24273517.466 9 127558183.849 8  96496941.828 9
E36  24722906.165 8  24722908.752 8 129919748.576 8  98283458.655 8
G10  21604986.481 8                  21604992.221 7  21604988.552 8 113534963.891 8                  88468834.151 7  84782619.401 8
G16  21203101.023 8  21203104.722 6                                 111423039.996 8  86823162.619 6                
G18  22313414.494 7                  22313418.529 7  22313420.728 8 117257772.026 7                  91369712.178 7  87562651.093 8
G23  20783230.533 8                  20783234.552 8  20783236.464 9 109216612.534 8                  85103869.676 8  81557881.045 9
G27  20193437.215 8                  20193442.812 8  20193439.988 9 106117224.936 8                  82688772.887 8  79243395.533 9
R01  22768948.240 5                 121713106.116 5
R07  22375258.510 6  22375264.210 6 119776488.557 6  93159551.555 6
R08  21060177.017 8  21060181.000 7 112776296.964 8  87715083.822 7
R14  20769554.504 8  20769558.373 8 110713406.429 8  86110307.354 8
R15  21313193.930 6  21313197.348 7 113891432.170 6  88582072.850 7
R17  22843173.309 5  22843165.861 5 122238429.69915  95074262.990 5
R23  21062831.858 7                 112671943.785 7
R24  19527734.628 8  19527736.803 7 104423577.063 8  81218454.801 7
> 2025 06 15 08 38  0.0000000  0 31
C05  39178022.709 6  39178019.115 7 204010234.274 6 157753651.895 7
C08  38512780.414 6  38512777.775 6 200546163.982 6 155074988.730 6
C13  37644608.506 7  37644609.923 6 196025339.932 7 151579214.079 6
C20  23907241.286 8                 124491276.361 8
C26  24383317.142 4                 126970404.958 4
C29  21338127.003 8                 111113226.301 8
C30  24300279.611 6                 126537930.588 6
C35  23607739.230 6                 122931697.922 6
C45  24993130.363 7                 130145782.001 7
C47  22276836.673 8                 116001338.729 8
E02  24464749.131 7  24464751.140 8 128563124.534 7  97257174.979 8
E10  24492347.555 8  24492350.108 9 128708154.947 8  97366890.401 9
E11  23361829.760 7  23361828.241 8 122767245.146 7  92872614.126 8
E16  25582656.377 7  25582660.019 8 134437755.681 7 101701301.627 8
E24  27603716.127 6  27603720.543 5 145058535.064 6 109735728.25515
E25  24278924.016 8  24278926.571 9 127586608.691 8  96518444.996 9
E36  24717303.362 8  24717306.532 9 129890308.439 8  98261187.399 9
G08  22329200.755 5                  22329205.463 5  22329202.823 6 117340932.57215                  91434382.500 5  87624662.951 6
G10  21598208.031 8                  21598213.512 7  21598210.392 8 113499341.624 8                  88441076.568 7  84756018.393 8
G16  21209293.089 7  21209297.336 6                                 111455579.027 7  86848517.683 6                
G18  22320876.733 7                  22320881.097 7  22320883.826 7 117296987.508 7                  91400269.668 7  87591935.348 7
G23  20784365.310 8                  20784369.321 8  20784371.084 8 109222576.732 8                  85108517.101 8  81562334.828 8
G27  20189918.714 8                  20189923.931 8  20189921.095 9 106098733.038 8                  82674363.592 8  79229586.642 9
R01  22756704.570 6                 121647657.891 6
R07  22381333.962 6  22381343.501 6 119809022.891 6  93184856.082 6
R08  21056015.311 7  21056018.998 7 112754014.483 7  87697753.037 7
R14  20776291.422 8  20776295.803 8 110749318.328 8  86138238.812 8
R15  21308631.558 7  21308634.031 7 113867049.691 7  88563108.698 7
R17  22833686.608 5  22833676.444 4 122187693.671 5
R23  21070221.164 7                 112711475.685 7
R24  19524738.884 8  19524740.446 7 104407556.844 8  81205994.584 7
> 2025 06 15 08 38 15.0000000  0 31
C05  39177596.202 5  39177593.330 6 204008014.72215 157751935.86416
C08  38515608.167 6  38515604.978 7 200560888.551 6 155086374.653 7
C13  37646317.007 7  37646319.202 6 196034238.414 7 151586094.940 6
C20  23900012.255 8                 124453634.610 8
C26  24384865.114 4                 126978480.30414
C29  21339113.944 8                 111118365.398 8
C30  24307633.940 5                 126576221.224 5
C32  24223089.523 5                 126135934.60115
C35  23600586.421 7                 122894449.092 7
C45  25001393.525 7                 130188810.249 7
C47  22281233.566 8                 116024233.611 8
E02  24461849.414 7  24461851.024 8 128547885.022 7  97245646.416 8
