     3.04           OBSERVATION DATA    Mixed(MIXED)        RINEX VERSION / TYPE
cnvtToRINEX 3.14.0  convertToRINEX OPR  20250615 162727 UTC PGM / RUN BY / DATE 
----------------------------------------------------------- COMMENT             
35.1B                                                       MARKER NAME         
35.1B                                                       MARKER NUMBER       
GEODETIC                                                    MARKER TYPE         
GNSS Observer       Trimble                                 OBSERVER / AGENCY   
6203S17886          Geo Explorer 3      5.53                REC # / TYPE / VERS 
                    UNKNOWN EXT     NONE                    ANT # / TYPE        
  3913458.4064  1190449.2685  4878209.1893                  APPROX POSITION XYZ 
        1.4350        0.0000        0.0000                  ANTENNA: DELTA H/E/N
G    6 C1C C2W C2X L1C L2W L2X                              SYS / # / OBS TYPES 
R    4 C1C C2C L1C L2C                                      SYS / # / OBS TYPES 
C    4 C2I C7I L2I L7I                                      SYS / # / OBS TYPES 
E    4 C1X C8X L1X L8X                                      SYS / # / OBS TYPES 
     5.000                                                  INTERVAL            
  2025     6    15     9    40   50.0000000     GPS         TIME OF FIRST OBS   
  2025     6    15    10    40   20.0000000     GPS         TIME OF LAST OBS    
     0                                                      RCV CLOCK OFFS APPL 
  9 R01  1 R02 -4 R08  6 R14 -7 R15  0 R16 -1 R17  4 R18 -3 GLONASS SLOT / FRQ #
    R24  2                                                  GLONASS SLOT / FRQ #
G L2X -0.25000                                              SYS / PHASE SHIFT   
R L2C -0.25000                                              SYS / PHASE SHIFT   
    18                                                      LEAP SECONDS        
    31                                                      # OF SATELLITES     
   C13   458   458   458   458                              PRN / # OF OBS      
   C19   459     0   459     0                              PRN / # OF OBS      
   C20   459     0   459     0                              PRN / # OF OBS      
   C26    61     0    61     0                              PRN / # OF OBS      
   C29   459     0   459     0                              PRN / # OF OBS      
   E02   459   459   459   459                              PRN / # OF OBS      
   E04     1     1     1     1                              PRN / # OF OBS      
   E06     1     1     1     1                              PRN / # OF OBS      
   E10   176   167   174   167                              PRN / # OF OBS      
   E11   459   459   459   459                              PRN / # OF OBS      
   E25   237   237   237   237                              PRN / # OF OBS      
   E30   449   442   447   442                              PRN / # OF OBS      
   E34   212   207   210   207                              PRN / # OF OBS      
   E36   459   459   459   459                              PRN / # OF OBS      
   G01    39     0    39    39     0    39                  PRN / # OF OBS      
   G02   459   459     0   459   459     0                  PRN / # OF OBS      
   G08   459     0   459   459     0   459                  PRN / # OF OBS      
   G10   459     0   459   459     0   459                  PRN / # OF OBS      
   G16   238   229     0   235   229     0                  PRN / # OF OBS      
   G23   287     0   258   275     0   258                  PRN / # OF OBS      
   G27   459     0   459   459     0   459                  PRN / # OF OBS      
   G32     8     0     5     7     0     5                  PRN / # OF OBS      
   R01   459     0   459     0                              PRN / # OF OBS      
   R02   237   234   235   232                              PRN / # OF OBS      
   R08   441   423   439   418                              PRN / # OF OBS      
   R14    49    49    49    49                              PRN / # OF OBS      
   R15   451   442   448   439                              PRN / # OF OBS      
   R16   454   441   453   438                              PRN / # OF OBS      
   R17   459   459   459   459                              PRN / # OF OBS      
   R18     1     1     1     1                              PRN / # OF OBS      
   R24   459   459   459   459                              PRN / # OF OBS      
DBHZ                                                        SIGNAL STRENGTH UNIT
                                                            END OF HEADER       
>                              2  1
              *** Start of Kinematic Data ***               COMMENT             
> 2025 06 15 09 40 50.0000000  0 24
C13  38339059.410 6  38339064.080 6 199641557.84416 154375521.26416
C19  24117620.271 7                 125586837.75417
C20  22898836.982 7                 119240318.79017
C26  25578029.261 5                 133191420.57415
C29  22172563.657 7                 115458595.28817
E02  24519228.259 7  24519229.445 8 128849383.37317  97473751.11618
E10  26058354.032 7  26058356.660 8 136937618.65817 103592391.55818
E11  24150208.391 7  24150206.690 8 126910214.68317  96006734.31418
E25  26210446.269 7  26210451.116 8 137736864.40717 104197025.90018
E30  27109792.267 6  27109796.383 5 142462919.25016 107772288.35515
E36  23774842.838 8  23774845.397 8 124937642.37318  94514522.36518
G02  22713350.083 5  22713353.412 2                 119359472.08115  93007368.87912
G08  20722449.430 8                  20722455.461 7 108897440.64218                  84854998.19217
G10  20785378.316 8                  20785384.354 7 109227983.94918                  85112675.85917
G16  23503868.258 6  23503876.147 4                 123513618.23416  96244426.94614
G23  22014778.356 7                  22014783.732 7 115688440.19217                  90146858.78117
G27  20196071.183 8                  20196077.678 8 106131200.41418                  82699546.35418
R01  20381326.552 7                 108950038.77917
R08  21359127.796 7  21359133.188 7 114377250.87017  88960030.91117
R14  23355582.526 7  23355589.922 6 124498339.22917  96832120.70916
R15  21500958.347 6  21500961.858 6 114894607.10116  89362484.60716
R16  22616329.438 7  22616335.873 6 120812399.63817  93965201.94816
R17  20809590.753 7  20809596.818 7 111356475.06317  86610503.25117
R24  19511679.718 8  19511682.881 7 104337851.91518  81151572.26517
> 2025 06 15 09 40 55.0000000  0 24
C13  38338827.265 6  38338831.211 6 199640348.069 6 154374585.796 6
C19  24113557.810 7                 125565685.897 7
C20  22897227.882 7                 119231938.156 7
C26  25579071.885 5                 133196844.988 5
C29  22172972.523 7                 115460726.599 7
E02  24518897.213 7  24518898.030 8 128847641.785 7  97472433.612 8
E10  26059362.254 7  26059364.316 7 136942914.359 7 103596397.703 7
E11  24150377.777 7  24150375.760 8 126911103.663 7  96007406.840 8
E25  26212164.738 7  26212169.318 8 137745893.708 7 104203856.474 8
E30  27106870.825 5  27106883.994 5 142447565.780 5 107760673.02115
E36  23772745.334 8  23772747.322 9 124926617.001 8  94506181.738 9
G02  22709867.559 5  22709869.246 2                 119341164.968 5  92993103.722 2
G08  20719788.251 8                  20719794.525 7 108883457.487 8                  84844102.231 7
G10  20784074.820 8                  20784081.172 8 109221135.344 8                  85107339.291 8
G16  23506187.303 7  23506194.578 4                 123525800.797 7  96253919.828 4
G23  22016041.963 7                  22016047.479 7 115695079.421 7                  90152032.175 7
G27  20195840.181 8                  20195846.383 8 106129986.203 8                  82698600.230 8
R01  20377986.704 7                 108932183.168 7
R08  21359817.598 7  21359824.076 7 114380952.548 7  88962910.030 7
R14  23358347.146 6  23358356.761 5 124513084.539 6  96843589.218 5
R15  21501489.242 5  21501492.759 6 114897441.370 5  89364689.000 6
R16  22613317.885 7  22613323.469 6 120796310.373 7  93952688.110 6
R17  20805997.715 8  20806002.535 7 111337241.008 8  86595543.386 7
R24  19511193.399 8  19511197.237 7 104335253.228 8  81149551.077 7
>                              3  5
              *** Start of Occupation ***                   COMMENT             
35.1B                                                       MARKER NAME         
35.1B                                                       MARKER NUMBER       
  3913458.4064  1190449.2685  4878209.1893                  APPROX POSITION XYZ 
        1.4350        0.0000        0.0000                  ANTENNA: DELTA H/E/N
> 2025 06 15 09 41  0.0000000  0 24
C13  38338595.347 6  38338598.957 6 199639138.540 6 154373650.544 6
C19  24109498.368 7                 125544540.562 7
C20  22895620.960 7                 119223571.592 7
C26  25580118.802 5                 133202276.260 5
C29  22173383.512 7                 115462864.772 7
E02  24518568.538 7  24518568.653 8 128845911.426 7  97471124.579 8
E10  26060369.857 7  26060372.159 7 136948211.360 7 103600404.873 7
E11  24150547.396 7  24150545.711 8 126911996.577 7  96008082.338 8
E25  26213883.225 7  26213888.267 8 137754926.184 7 104210689.485 8
E30  27103951.451 5  27103963.821 5 142432220.876 5 107749064.75415
E36  23770647.819 8  23770650.340 8 124915596.784 8  94497845.023 8
G02  22706386.096 6  22706385.985 2                 119322862.205 6  92978841.823 2
G08  20717129.606 8                  20717135.778 7 108869486.090 8                  84833215.429 7
G10  20782774.363 7                  20782780.591 7 109214300.737 7                  85102013.630 7
G16  23508505.911 6  23508513.969 3                 123537986.929 6  96263415.526 3
G23  22017306.764 7                  22017312.159 7 115701727.842 7                  90157212.811 7
G27  20195611.757 7                  20195618.347 8 106128785.746 7                  82697664.799 8
R01  20374650.657 7                 108914346.408 7
R08  21360513.853 7  21360518.735 7 114384673.725 7  88965804.270 7
R14  23361114.037 5  23361123.280 5 124527832.666 5  96855059.998 5
R15  21502023.717 6  21502027.407 6 114900294.939 6  89366908.445 6
R16  22610310.560 6  22610314.488 6 120780239.983 6  93940188.854 6
R17  20802403.754 7  20802409.415 7 111318012.549 7  86580587.939 7
R24  19510709.272 8  19510713.158 7 104332665.218 8  81147538.185 7
> 2025 06 15 09 41  5.0000000  0 23
C13  38338362.869 6  38338367.022 6 199637929.838 6 154372715.881 6
C19  24105437.928 6                 125523402.321 6
C20  22894017.259 7                 119215219.599 7
C29  22173795.253 7                 115465010.358 7
E02  24518241.106 7  24518241.470 8 128844192.524 7  97469824.237 8
E10  26061378.830 7  26061380.464 7 136953510.099 7 103604413.351 7
E11  24150718.962 7  24150716.586 8 126912893.935 7  96008761.170 8
E25  26215603.326 7  26215608.003 8 137763962.380 7 104217525.289 8
E30  27101035.372 4  27101045.284 4 142416884.913 4 107737463.210 4
E36  23768551.722 8  23768554.362 8 124904582.088 8  94489512.484 8
G02  22702903.178 6  22702904.452 3                 119304564.354 6  92964583.769 3
G08  20714473.538 7                  20714479.522 7 108855526.800 7                  84822338.058 7
G10  20781475.935 7                  20781482.419 7 109207480.614 7                  85096699.271 7
G16  23510826.567 6  23510833.672 3                 123550176.967 6  96272914.227 3
G23  22018573.795 7                  22018579.084 7 115708386.014 7                  90162401.008 7
G27  20195386.743 8                  20195392.377 8 106127599.431 8                  82696740.386 8
R01  20371316.707 7                 108896529.131 7
R08  21361212.943 7  21361217.398 7 114388414.771 7  88968713.982 7
R14  23363890.793 5  23363890.049 5 124542584.111 5  96866533.337 5
R15  21502559.543 6  21502564.334 5 114903167.873 6  89369142.979 5
R16  22607306.063 7  22607309.399 6 120764188.955 7  93927704.763 6
R17  20798813.296 7  20798816.877 7 111298790.297 7  86565637.291 7
R24  19510227.688 8  19510232.037 7 104330088.384 8  81145533.955 7
> 2025 06 15 09 41 10.0000000  0 24
C13  38338131.154 6  38338134.860 6 199636722.179 6 154371782.007 6
C19  24101380.209 7                 125502271.531 7
C20  22892416.593 7                 119206882.559 7
C26  25582206.146 5                 133213156.87615
C29  22174208.488 7                 115467163.650 7
E02  24517915.360 8  24517916.768 8 128842485.396 8  97468532.825 8
E10  26062386.966 7  26062389.091 7 136958810.971 7 103608423.388 7
E11  24150890.822 7  24150887.945 8 126913796.080 7  96009443.601 8
E25  26217323.341 7  26217327.969 8 137773002.515 7 104224364.050 8
E30  27098112.749 5  27098128.630 5 142401558.36815 107725868.77915
E36  23766457.240 8  23766459.311 9 124893573.211 8  94481184.345 9
G02  22699421.530 6  22699423.503 3                 119286271.618 6  92950329.608 3
G08  20711818.935 8                  20711825.296 7 108841579.930 8                  84811470.372 7
G10  20780182.027 8                  20780188.155 8 109200675.334 8                  85091396.439 8
G16  23513146.167 7  23513153.949 4                 123562371.228 7  96282416.202 4
G23  22019842.786 7                  22019848.369 7 115715054.279 7                  90167597.014 7
G27  20195163.174 8                  20195169.300 7 106126427.645 8                  82695827.306 7
R01  20367987.820 7                 108878731.896 7
R08  21361914.674 7  21361919.584 7 114392175.979 7  88971639.342 7
R14  23366648.209 7  23366657.676 6 124557339.164 7  96878009.292 6
R15  21503101.616 6  21503105.733 6 114906060.790 6  89371392.920 6
R16  22604303.805 7  22604309.483 7 120748157.693 7  93915235.994 7
R17  20795221.105 8  20795225.738 7 111279574.362 8  86550691.583 7
R24  19509747.905 8  19509751.538 7 104327523.143 8  81143538.749 7
> 2025 06 15 09 41 15.0000000  0 24
C13  38337899.924 6  38337903.266 6 199635515.704 6 154370849.095 6
C19  24097323.839 7                 125481148.175 7
C20  22890818.768 7                 119198560.438 7
C26  25583252.400 5                 133218610.608 5
C29  22174623.322 7                 115469324.652 7
E02  24517593.269 7  24517594.224 8 128840790.334 7  97467250.521 8
E10  26063396.605 7  26063398.124 7 136964113.989 7 103612435.070 7
E11  24151062.962 7  24151060.459 8 126914702.979 7  96010129.663 8
E25  26219044.673 7  26219048.878 8 137782046.701 7 104231205.881 8
E30  27095201.030 5  27095213.777 4 142386241.166 5 107714281.44314
E36  23764363.212 8  23764365.539 9 124882570.377 8  94472860.765 9
G02  22695940.887 6  22695943.034 3                 119267984.246 6  92936079.747 3
G08  20709167.392 8                  20709173.959 7 108827645.688 8                  84800612.536 7
G10  20778889.669 8                  20778895.885 8 109193884.895 8                  85086105.193 8
G16  23515466.928 7  23515475.499 4                 123574569.823 7  96291921.571 4
G23  22021113.049 7                  22021119.892 7 115721732.596 7                  90172800.906 7
G27  20194942.660 8                  20194948.831 8 106125270.476 8                  82694925.610 8
R01  20364661.753 7                 108860954.546 7
R08  21362621.750 8  21362625.181 7 114395957.444 8  88974580.437 7
R14  23369418.666 7  23369426.320 6 124572097.682 7  96889488.134 6
R15  21503646.279 6  21503650.788 6 114908973.516 6  89373658.446 6
R16  22601306.360 7  22601311.580 6 120732146.253 7  93902782.665 6
R17  20791631.382 8  20791636.269 7 111260365.029 8  86535751.008 7
R24  19509269.691 8  19509273.864 7 104324969.385 8  81141552.498 7
> 2025 06 15 09 41 20.0000000  0 24
C13  38337668.514 6  38337672.115 6 199634310.242 6 154369916.964 6
C19  24093268.438 7                 125460032.227 7
C20  22889223.278 7                 119190253.153 7
C26  25584301.287 5                 133224072.031 5
C29  22175039.608 7                 115471493.341 7
E02  24517272.648 7  24517273.899 8 128839107.144 7  97465977.194 8
E10  26064405.891 7  26064407.550 7 136969419.057 7 103616448.318 7
E11  24151236.482 7  24151233.980 8 126915614.630 7  96010819.321 8
E25  26220766.533 7  26220770.829 8 137791094.932 7 104238050.797 8
E30  27092287.491 5  27092300.527 4 142370933.374 5 107702701.259 4
E36  23762270.631 8  23762272.939 9 124871573.381 8  94464541.625 9
G02  22692461.414 6  22692464.499 3                 119249702.040 6  92921833.872 3
G08  20706517.637 8                  20706524.747 7 108813723.964 8                  84789764.424 7
G10  20777599.757 8                  20777606.381 8 109187109.274 8                  85080825.465 8
G16  23517790.180 7  23517797.180 4                 123586772.682 7  96301430.257 4
G23  22022385.924 7                  22022392.235 7 115728420.900 7                  90178012.538 7
G27  20194725.117 8                  20194731.652 8 106124127.775 8                  82694035.210 8
R01  20361339.098 7                 108843197.017 7
R08  21363331.331 7  21363335.248 7 114399758.977 7  88977537.222 7
R14  23372187.466 6  23372196.152 6 124586859.651 6  96900969.669 6
R15  21504194.208 6  21504199.039 6 114911906.323 6  89375939.524 6
R16  22598311.318 7  22598318.610 6 120716154.541 7  93890344.639 6
R17  20788042.717 7  20788047.345 7 111241162.155 7  86520815.432 7
R24  19508794.717 8  19508798.732 7 104322427.231 8  81139575.260 7
> 2025 06 15 09 41 25.0000000  0 24
C13  38337436.827 6  38337440.707 6 199633105.251 6 154368985.177 6
C19  24089215.269 7                 125438923.096 7
C20  22887629.997 7                 119181960.186 7
C26  25585351.225 5                 133229540.311 5
C29  22175457.621 7                 115473669.145 7
E02  24516954.670 7  24516955.815 8 128837435.252 7  97464712.403 8
E10  26065415.524 7  26065417.112 7 136974725.613 7 103620462.691 7
E11  24151410.549 7  24151408.297 8 126916530.425 7  96011512.116 8
E25  26222488.204 7  26222493.138 8 137800146.518 7 104244898.225 8
E30  27089375.927 5  27089388.851 4 142355634.396 5 107691127.608 4
E36  23760179.230 8  23760181.296 9 124860581.718 8  94456226.509 9
G02  22688985.553 6  22688986.380 3                 119231424.524 6  92907591.715 3
G08  20703871.245 8                  20703877.697 7 108799814.167 8                  84778925.609 7
G10  20776313.569 8                  20776319.643 8 109180347.848 8                  85075556.838 8
G16  23520113.139 7  23520120.076 4                 123598979.134 7  96310941.746 4
G23  22023660.805 7                  22023667.100 7 115735118.597 7                  90183231.521 7
G27  20194510.638 8                  20194516.895 8 106122999.038 8                  82693155.658 8
R01  20358022.005 7                 108825458.863 7
R08  21364044.673 8  21364048.781 7 114403580.063 8  88980509.193 7
R14  23374958.145 7  23374965.629 6 124601624.554 7  96912453.395 6
R15  21504746.722 6  21504751.278 6 114914858.209 6  89378235.426 6
R16  22595321.962 7  22595327.900 6 120700182.013 7  93877921.552 6
R17  20784454.410 8  20784460.128 7 111221965.205 8  86505884.490 7
R24  19508321.522 8  19508325.117 7 104319895.967 8  81137606.505 7
> 2025 06 15 09 41 30.0000000  0 24
C13  38337206.018 6  38337209.416 6 199631901.824 6 154368054.619 6
C19  24085162.501 7                 125417821.915 7
C20  22886040.581 7                 119173682.579 7
C26  25586403.008 5                 133235016.568 5
C29  22175876.775 7                 115475853.095 7
E02  24516639.117 8  24516640.080 8 128835775.695 8  97463456.951 8
E10  26066425.804 7  26066427.390 7 136980034.756 7 103624479.016 7
E11  24151585.560 7  24151583.675 8 126917451.465 7  96012208.878 8
E25  26224211.735 7  26224216.460 8 137809202.545 7 104251749.059 8
E30  27086468.345 5  27086478.706 5 142340345.218 5 107679561.477 5
E36  23758088.393 8  23758090.758 9 124849596.430 8  94447916.218 9
G02  22685507.167 6  22685508.809 3                 119213152.670 6  92893353.918 3
G08  20701226.417 8                  20701233.464 7 108785917.388 8                  84768096.958 7
G10  20775029.864 8                  20775036.050 8 109173601.725 8                  85070300.133 8
G16  23522435.639 7  23522443.525 4                 123611190.277 7  96320456.905 4
G23  22024936.871 7                  22024943.367 7 115741826.791 7                  90188458.679 7
G27  20194298.746 8                  20194304.745 8 106121885.292 8                  82692287.804 8
R01  20354707.469 7                 108807741.061 7
R08  21364761.550 7  21364766.101 7 114407421.916 7  88983497.263 7
R14  23377728.066 7  23377736.952 6 124616393.375 7  96923940.269 6
R15  21505305.094 7  21505307.913 6 114917830.540 7  89380547.198 6
R16  22592336.574 6  22592341.875 6 120684229.892 6  93865514.329 6
R17  20780868.340 8  20780874.199 7 111202775.251 8  86490958.973 7
R24  19507850.469 8  19507853.910 7 104317376.704 8  81135647.086 7
> 2025 06 15 09 41 35.0000000  0 24
C13  38336975.219 6  38336978.356 6 199630699.463 6 154367124.866 6
C19  24081110.751 6                 125396728.192 6
C20  22884453.333 7                 119165419.884 7
C26  25587454.931 5                 133240500.436 5
C29  22176297.523 7                 115478044.771 7
E02  24516326.306 8  24516326.542 8 128834128.044 8  97462210.515 8
E10  26067436.448 7  26067438.094 7 136985345.969 7 103628496.904 7
E11  24151762.091 7  24151759.885 8 126918377.258 7  96012909.230 8
E25  26225935.304 7  26225940.614 8 137818262.549 7 104258602.885 8
E30  27083561.601 5  27083570.523 5 142325065.498 5 107668002.458 5
E36  23755999.086 8  23756001.421 9 124838617.051 8  94439610.390 9
G02  22682031.312 6  22682032.845 3                 119194886.145 6  92879120.234 3
G08  20698584.361 8                  20698591.157 7 108772033.169 8                  84757278.082 7
G10  20773748.611 8                  20773755.258 8 109166870.421 8                  85065054.960 8
G16  23524760.656 7  23524767.875 4                 123623405.614 7  96329975.335 4
G23  22026215.537 7                  22026221.534 7 115748544.955 7                  90193693.613 7
G27  20194089.450 8                  20194095.857 8 106120786.089 8                  82691431.288 8
R01  20351396.458 7                 108790043.104 7
R08  21365484.216 8  21365488.334 7 114411283.813 8  88986500.912 7
R14  23380499.677 7  23380508.195 6 124631165.704 7  96935429.790 6
R15  21505863.020 6  21505867.758 6 114920822.616 6  89382874.387 6
R16  22589353.400 6  22589359.207 7 120668297.355 6  93853122.386 7
R17  20777284.414 7  20777289.073 7 111183591.838 7  86476038.521 7
R24  19507381.529 8  19507385.219 7 104314868.943 8  81133696.604 7
> 2025 06 15 09 41 40.0000000  0 24
C13  38336744.697 6  38336747.914 6 199629498.829 6 154366196.468 6
C19  24077061.599 7                 125375642.542 7
C20  22882869.842 7                 119157172.686 7
C26  25588509.861 5                 133245992.514 5
C29  22176720.287 7                 115480244.710 7
E02  24516014.669 8  24516015.405 8 128832492.889 8  97460973.524 8
E10  26068448.057 7  26068449.307 7 136990659.917 7 103632516.850 7
E11  24151939.464 7  24151937.076 8 126919308.411 7  96013613.633 8
E25  26227660.437 7  26227665.644 8 137827327.156 7 104265460.168 8
E30  27080655.032 6  27080664.521 6 142309795.683 6 107656450.960 6
E36  23753910.901 8  23753913.509 9 124827644.178 8  94431309.481 9
G02  22678558.179 5  22678557.898 2                 119176625.431 5  92864891.096 2
G08  20695944.885 8                  20695952.178 7 108758162.094 8                  84746469.473 7
G10  20772470.551 8                  20772476.968 8 109160154.540 8                  85059821.791 8
G16  23527086.347 7  23527093.503 4                 123635625.728 7  96339497.465 4
G23  22027495.956 7                  22027501.605 7 115755273.725 7                  90198936.824 7
G27  20193883.306 8                  20193889.490 8 106119702.017 8                  82690586.538 8
R01  20348089.210 7                 108772365.765 7
R08  21366208.496 8  21366213.450 7 114415166.523 8  88989520.797 7
R14  23383271.202 7  23383280.142 6 124645942.072 7  96946922.521 6
R15  21506427.993 7  21506432.013 6 114923835.145 7  89385217.407 6
R16  22586376.828 7  22586380.216 7 120652385.317 7  93840746.366 7
R17  20773699.645 7  20773705.214 7 111164415.496 7  86461123.636 7
R24  19506915.261 8  19506918.394 7 104312373.261 8  81131755.504 7
> 2025 06 15 09 41 45.0000000  0 24
C13  38336514.457 6  38336517.180 6 199628298.650 6 154365268.406 6
C19  24073014.161 7                 125354563.702 7
C20  22881288.764 7                 119148939.721 7
C26  25589566.591 6                 133251491.439 6
C29  22177144.392 7                 115482451.712 7
E02  24515705.484 8  24515706.404 8 128830868.931 8  97459744.999 8
E10  26069459.225 7  26069460.692 7 136995975.243 7 103636537.854 7
E11  24152117.253 7  24152115.142 8 126920243.645 7  96014321.116 8
E25  26229386.212 7  26229391.251 8 137836395.016 7 104272319.927 8
E30  27077751.981 6  27077760.659 5 142294534.628 6 107644906.017 5
E36  23751824.075 8  23751826.300 9 124816676.560 8  94423012.553 9
G02  22675081.328 6  22675084.126 3                 119158369.318 6  92850665.620 3
G08  20693307.659 8                  20693314.949 7 108744302.925 8                  84735670.108 7
G10  20771195.501 8                  20771202.068 8 109153452.792 8                  85054599.656 8
G16  23529412.012 7  23529419.139 4                 123647849.351 7  96349022.347 4
G23  22028777.762 7                  22028783.544 7 115762011.834 7                  90204187.271 7
G27  20193679.555 8                  20193685.890 8 106118631.790 8                  82689752.606 8
R01  20344786.725 7                 108754707.706 7
R08  21366937.881 8  21366941.775 7 114419068.667 8  88992555.776 7
R14  23386044.748 7  23386053.088 6 124660721.261 7  96958417.354 6
R15  21506996.753 6  21506999.213 6 114926866.915 6  89387575.359 6
R16  22583400.259 7  22583404.506 6 120636492.448 7  93828385.243 6
R17  20770117.201 8  20770123.140 7 111145244.951 8  86446213.221 7
R24  19506450.819 8  19506453.723 7 104309888.509 8  81129822.911 7
> 2025 06 15 09 41 50.0000000  0 24
C13  38336283.490 6  38336286.947 6 199627099.157 6 154364340.881 6
C19  24068967.625 7                 125333492.003 7
C20  22879710.026 7                 119140721.338 7
C26  25590623.634 6                 133256997.527 6
C29  22177568.958 7                 115484666.035 7
E02  24515398.678 8  24515399.627 8 128829256.528 8  97458525.221 8
E10  26070471.272 7  26070472.534 7 137001292.311 7 103640560.175 7
E11  24152296.018 7  24152294.064 8 126921183.266 7  96015031.934 8
E25  26231112.424 7  26231117.484 8 137845466.485 7 104279182.397 8
E30  27074847.824 6  27074858.546 5 142279282.663 6 107633368.025 5
E36  23749737.703 8  23749740.305 9 124805714.490 8  94414719.822 9
G02  22671608.240 5  22671611.077 3                 119140118.074 5  92836443.938 3
G08  20690672.473 8                  20690679.752 7 108730455.997 8                  84724880.282 7
G10  20769922.850 8                  20769928.917 8 109146765.499 8                  85049388.779 8
G16  23531738.321 7  23531745.524 4                 123660076.814 7  96358550.201 4
G23  22030062.788 7                  22030067.925 7 115768759.562 7                  90209445.222 7
G27  20193478.340 8                  20193484.929 8 106117575.754 8                  82688929.707 8
R01  20341486.661 7                 108737069.266 7
R08  21367668.823 8  21367674.449 7 114422990.442 8  88995606.037 7
R14  23388818.440 7  23388826.637 6 124675503.438 7  96969914.559 6
R15  21507568.289 6  21507570.270 6 114929918.022 6  89389948.435 6
R16  22580427.838 7  22580432.925 6 120620619.064 7  93816039.329 6
R17  20766536.208 8  20766541.702 7 111126080.701 8  86431307.664 7
R24  19505987.897 8  19505991.648 7 104307414.978 8  81127899.067 7
> 2025 06 15 09 41 55.0000000  0 24
C13  38336053.161 6  38336056.592 6 199625900.469 6 154363413.966 6
C19  24064922.479 7                 125312427.539 7
C20  22878134.882 7                 119132517.562 7
C26  25591681.342 5                 133262510.826 5
C29  22177996.280 7                 115486887.754 7
E02  24515094.325 8  24515095.007 8 128827655.708 8  97457314.203 8
E10  26071483.460 7  26071484.682 7 137006611.192 7 103644583.868 7
E11  24152475.957 7  24152473.822 8 126922127.331 7  96015746.111 8
E25  26232839.362 7  26232844.507 8 137854541.605 7 104286047.662 8
E30  27071949.378 6  27071957.848 6 142264039.856 6 107621836.963 6
E36  23747652.843 8  23747655.344 9 124794758.028 8  94406431.331 9
G02  22668137.586 6  22668139.103 3                 119121871.782 6  92822226.020 3
G08  20688040.251 8                  20688047.200 7 108716621.362 8                  84714100.037 7
G10  20768653.117 8                  20768659.783 8 109140092.764 8                  85044189.234 8
G16  23534066.561 7  23534072.812 4                 123672308.148 7  96368081.082 4
G23  22031348.408 7                  22031353.871 7 115775516.937 7                  90214710.665 7
G27  20193280.393 8                  20193286.696 8 106116533.936 8                  82688117.911 8
R01  20338190.843 7                 108719450.563 7
R08  21368404.946 8  21368409.804 7 114426932.095 8  88998671.788 7
R14  23391591.051 7  23391600.367 6 124690288.635 7  96981414.169 6
R15  21508143.332 7  21508144.782 6 114932988.455 7  89392336.583 6
R16  22577460.435 6  22577464.515 6 120604765.269 6  93803708.569 6
R17  20762956.644 8  20762962.086 7 111106922.680 8  86416406.994 7
R24  19505526.891 8  19505530.415 7 104304952.653 8  81125983.925 7
> 2025 06 15 09 42  0.0000000  0 24
C13  38335823.889 6  38335827.021 6 199624703.211 6 154362488.161 6
C19  24060879.639 7                 125291371.018 7
C20  22876562.876 7                 119124329.114 7
C26  25592741.457 6                 133268032.060 6
C29  22178424.472 7                 115489117.589 7
E02  24514791.509 7  24514792.744 8 128826067.192 7  97456112.495 8
E10  26072495.984 7  26072497.401 7 137011932.531 7 103648609.425 7
E11  24152656.722 7  24152654.559 8 126923076.561 7  96016464.208 8
E25  26234567.353 7  26234572.397 8 137863621.070 7 104292916.188 8
E30  27069050.408 6  27069059.612 6 142248806.815 6 107610313.262 6
E36  23745569.573 8  23745571.606 9 124783807.907 8  94398147.638 9
G02  22664665.544 6  22664667.581 3                 119103631.210 6  92808012.636 3
G08  20685410.082 8                  20685417.220 7 108702799.729 8                  84703329.939 7
G10  20767386.212 8                  20767392.656 8 109133435.214 8                  85039001.551 8
G16  23536394.996 7  23536401.135 4                 123684544.030 7  96377615.526 4
G23  22032636.553 7                  22032642.047 7 115782284.663 7                  90219984.190 7
G27  20193085.124 8                  20193091.299 8 106115507.048 8                  82687317.729 8
R01  20334897.950 7                 108701852.340 7
R08  21369145.774 8  21369149.891 7 114430894.262 8  89001753.476 7
R14  23394366.098 7  23394373.826 6 124705077.780 7  96992916.830 6
R15  21508720.329 6  21508722.904 6 114936079.184 6  89394740.482 6
R16  22574496.556 6  22574500.666 6 120588931.885 6  93791393.741 6
R17  20759377.964 8  20759382.508 7 111087771.686 8  86401511.778 7
R24  19505069.233 8  19505072.883 7 104302502.260 8  81124078.035 7
> 2025 06 15 09 42  5.0000000  0 24
C13  38335593.968 6  38335596.822 6 199623505.953 6 154361562.379 6
C19  24056837.424 7                 125270320.922 7
C20  22874994.014 7                 119116154.470 7
C26  25593804.652 6                 133273559.686 6
C29  22178854.479 7                 115491354.019 7
E02  24514491.020 7  24514492.569 8 128824489.421 7  97454918.928 8
E10  26073508.771 7  26073510.195 7 137017254.847 7 103652635.718 7
E11  24152837.552 7  24152835.916 8 126924029.418 7  96017185.051 8
E25  26236295.420 7  26236300.675 8 137872703.352 7 104299786.847 8
E30  27066152.209 5  27066162.798 5 142233582.136 5 107598795.901 5
E36  23743486.957 8  23743488.788 9 124772862.576 8  94389867.573 9
G02  22661196.216 6  22661197.390 3                 119085394.845 6  92793802.464 3
G08  20682781.715 7                  20682789.200 7 108688989.577 7                  84692568.798 7
G10  20766122.170 8                  20766128.635 8 109126791.395 8                  85033824.544 8
G16  23538724.629 7  23538729.613 4                 123696782.931 7  96387152.300 4
G23  22033926.199 7                  22033931.757 7 115789061.223 7                  90225264.632 7
G27  20192892.123 8                  20192898.486 8 106114493.601 8                  82686528.031 8
R01  20331610.109 7                 108684272.894 7
R08  21369889.538 8  21369893.465 7 114434875.365 8  89004849.884 7
R14  23397139.874 7  23397148.959 6 124719869.023 7  97004421.119 6
R15  21509302.885 6  21509304.454 6 114939188.642 6  89397158.954 6
R16  22571536.243 6  22571540.157 6 120573117.048 6  93779093.309 6
R17  20755799.867 8  20755805.241 7 111068626.032 8  86386620.720 7
R24  19504612.582 8  19504616.293 7 104300062.347 8  81122180.320 7
> 2025 06 15 09 42 10.0000000  0 24
C13  38335363.487 6  38335367.202 6 199622310.781 6 154360638.170 6
C19  24052795.954 7                 125249279.390 7
C20  22873426.689 7                 119107995.763 7
C26  25594867.274 6                 133279095.806 6
C29  22179285.381 7                 115493599.141 7
E02  24514193.667 7  24514194.793 8 128822924.564 7  97453735.117 8
E10  26074522.077 7  26074523.775 7 137022580.298 7 103656664.358 7
E11  24153020.222 7  24153018.287 8 126924988.038 7  96017910.236 8
E25  26238024.586 7  26238029.922 8 137881790.595 7 104306661.266 8
E30  27063257.280 5  27063267.645 6 142218367.990 5 107587286.512 6
E36  23741405.449 8  23741407.328 9 124761924.179 8  94381592.750 9
G02  22657727.402 7  22657728.304 4                 119067164.787 7  92779597.232 4
G08  20680156.489 8                  20680163.777 7 108675193.061 8                  84681818.259 7
G10  20764860.556 8                  20764866.890 8 109120163.378 8                  85028659.860 8
G16  23541053.861 7  23541058.995 4                 123709026.982 7  96396693.100 4
G23  22035218.140 7                  22035223.271 7 115795848.734 7                  90230553.582 7
G27  20192702.372 8                  20192708.797 8 106113495.674 8                  82685750.425 8
R01  20328324.308 7                 108666714.584 7
R08  21370636.239 8  21370640.801 7 114438877.473 8  89007962.641 7
R14  23399915.422 7  23399924.487 5 124734664.675 7  97015928.795 5
R15  21509886.851 6  21509890.437 6 114942318.821 6  89399593.514 6
R16  22568577.256 6  22568583.903 6 120557323.271 6  93766809.257 6
R17  20752223.853 8  20752229.090 7 111049488.009 8  86371735.606 7
R24  19504159.406 8  19504162.296 7 104297635.001 8  81120292.380 7
> 2025 06 15 09 42 15.0000000  0 24
C13  38335134.256 6  38335138.208 6 199621117.360 6 154359715.353 6
C19  24048756.708 7                 125228246.096 7
C20  22871862.836 7                 119099852.695 7
C26  25595931.335 6                 133284640.106 6
C29  22179718.486 7                 115495852.644 7
E02  24513898.268 7  24513899.369 8 128821372.273 7  97452560.816 8
E10  26075535.662 7  26075538.004 7 137027908.528 7 103660695.114 7
E11  24153203.436 7  24153201.699 8 126925952.105 7  96018639.558 8
E25  26239754.756 7  26239760.051 8 137890882.407 7 104313539.158 8
E30  27060364.971 6  27060374.401 5 142203163.964 6 107575784.76915
E36  23739324.926 8  23739327.032 9 124750992.394 8  94373322.927 9
G02  22654261.618 7  22654260.440 4                 119048940.761 7  92765396.654 4
G08  20677533.211 7                  20677540.918 7 108661409.857 7                  84671078.120 7
G10  20763602.029 8                  20763608.497 8 109113550.881 8                  85023507.270 8
G16  23543384.749 7  23543389.931 4                 123721275.800 7  96406237.604 4
G23  22036511.270 7                  22036517.052 7 115802646.851 7                  90235850.789 7
G27  20192515.499 8                  20192521.988 8 106112512.990 8                  82684984.703 8
R01  20325044.089 7                 108649177.055 7
R08  21371387.968 7  21371392.434 7 114442900.396 7  89011091.571 7
R14  23402692.065 6  23402700.678 6 124749464.330 6  97027439.607 6
R15  21510478.649 6  21510479.708 6 114945469.563 6  89402044.044 6
R16  22565626.331 6  22565630.955 6 120541550.110 6  93754541.276 6
R17  20748649.057 8  20748654.006 7 111030357.339 8  86356856.201 7
R24  19503707.572 8  19503710.284 7 104295219.928 8  81118413.999 7
> 2025 06 15 09 42 20.0000000  0 24
C13  38334905.665 6  38334909.314 6 199619924.505 6 154358792.968 6
C19  24044718.477 7                 125207219.961 7
C20  22870302.019 7                 119091724.094 7
C26  25596998.143 6                 133290191.395 6
C29  22180152.703 7                 115498113.441 7
E02  24513604.673 8  24513606.243 8 128819831.431 8  97451395.181 8
E10  26076550.472 7  26076552.306 7 137033238.396 7 103664727.124 7
E11  24153387.451 7  24153385.856 8 126926920.471 7  96019372.119 8
E25  26241485.838 7  26241490.915 8 137899977.748 7 104320419.694 8
E30  27057472.628 6  27057482.814 5 142187968.906 6 107564289.86315
E36  23737245.951 8  23737247.830 9 124740066.116 8  94365057.267 9
G02  22650792.958 6  22650793.786 4                 119030721.536 6  92751199.878 4
G08  20674912.765 8                  20674920.163 7 108647638.873 8                  84660347.496 7
G10  20762346.327 8                  20762352.693 8 109106952.779 8                  85018365.892 8
G16  23545716.485 7  23545721.456 4                 123733528.297 7  96415784.968 4
G23  22037807.091 7                  22037812.120 7 115809454.422 7                  90241155.411 7
G27  20192330.775 8                  20192337.636 8 106111544.395 8                  82684229.940 8
R01  20321767.678 7                 108631659.210 7
R08  21372142.535 7  21372147.213 7 114446942.909 7  89014235.754 7
R14  23405469.280 6  23405477.838 5 124764266.655 6  97038952.464 5
R15  21511070.528 6  21511072.923 6 114948639.396 6  89404509.472 6
R16  22562678.163 6  22562681.580 6 120525796.521 6  93742288.465 6
R17  20745074.684 8  20745079.822 7 111011232.659 8  86341981.423 7
R24  19503258.073 8  19503261.129 7 104292815.924 8  81116544.215 7
> 2025 06 15 09 42 25.0000000  0 24
C13  38334676.583 6  38334680.114 6 199618731.247 6 154357870.262 6
C19  24040681.512 7                 125186199.806 7
C20  22868743.599 7                 119083608.870 7
C26  25598065.951 6                 133295748.614 6
C29  22180587.561 7                 115500380.385 7
E02  24513313.715 8  24513314.948 8 128818300.881 8  97450237.320 8
E10  26077564.762 7  26077566.819 7 137038568.729 7 103668759.472 7
E11  24153572.729 7  24153570.661 8 126927892.018 7  96020107.076 8
E25  26243216.865 7  26243222.124 8 137909075.383 7 104327301.975 8
E30  27054582.712 6  27054593.226 5 142172781.806 6 107552800.88815
E36  23735167.424 8  23735169.480 9 124729144.161 8  94356794.870 9
G02  22647325.853 7  22647327.617 4                 119012505.963 7  92737005.951 4
G08  20672294.461 8                  20672301.831 7 108633878.976 8                  84649625.478 7
G10  20761093.717 8                  20761099.955 7 109100367.887 8                  85013234.795 7
G16  23548049.136 7  23548054.003 4                 123745783.297 7  96425334.310 4
G23  22039103.645 7                  22039109.714 7 115816270.323 7                  90246466.507 7
G27  20192149.364 8                  20192156.148 8 106110588.734 8                  82683485.272 8
R01  20318493.617 7                 108614159.813 7
R08  21372901.297 7  21372905.678 7 114451003.742 7  89017394.146 7
R14  23408245.008 6  23408255.382 5 124779070.970 6  97050466.912 5
R15  21511666.788 5  21511669.724 6 114951827.424 5  89406989.024 6
R16  22559730.705 6  22559735.822 6 120510061.119 6  93730049.842 6
R17  20741500.938 7  20741506.973 7 110992113.002 7  86327110.607 7
R24  19502810.480 8  19502813.411 7 104290421.858 8  81114682.166 7
> 2025 06 15 09 42 30.0000000  0 24
C13  38334447.273 6  38334450.999 6 199617537.700 6 154356947.334 6
C19  24036646.096 7                 125165185.931 7
C20  22867187.768 7                 119075507.212 7
C26  25599135.021 6                 133301311.922 6
C29  22181024.164 7                 115502653.645 7
E02  24513024.819 8  24513025.698 8 128816780.829 8  97449087.405 8
E10  26078579.152 7  26078581.360 7 137043899.836 7 103672792.398 7
E11  24153757.889 7  24153756.115 8 126928866.929 7  96020844.578 8
E25  26244948.430 7  26244953.802 8 137918175.555 7 104334186.178 8
E30  27051694.080 6  27051704.796 5 142157602.842 6 107541318.12815
E36  23733090.130 8  23733091.976 9 124718226.760 8  94348535.929 9
G02  22643859.614 6  22643862.378 4                 118994294.326 6  92722815.063 4
G08  20669678.556 8                  20669685.736 7 108620130.328 8                  84638912.272 7
G10  20759843.266 8                  20759849.680 8 109093796.435 8                  85008114.197 8
G16  23550381.657 7  23550386.893 4                 123758041.024 7  96434885.761 4
G23  22040402.058 7                  22040408.370 7 115823094.763 7                  90251784.255 7
G27  20191969.318 8                  20191976.265 8 106109646.239 8                  82682750.858 8
R01  20315223.197 7                 108596679.094 7
R08  21373662.013 7  21373667.395 7 114455083.239 7  89020567.095 7
R14  23411022.496 6  23411032.158 5 124793876.836 6  97061982.612 5
R15  21512268.869 6  21512269.801 6 114955033.782 6  89409482.872 6
R16  22556788.417 6  22556794.619 6 120494344.401 6  93717825.758 6
R17  20737929.236 8  20737934.943 7 110972998.515 8  86312243.815 7
R24  19502364.303 8  19502367.878 7 104288038.033 8  81112828.096 7
> 2025 06 15 09 42 35.0000000  0 24
C13  38334217.821 6  38334221.691 6 199616344.511 6 154356024.666 6
C19  24032611.255 7                 125144178.955 7
C20  22865634.177 7                 119067419.818 7
C26  25600205.671 6                 133306882.036 6
C29  22181461.548 7                 115504933.944 7
E02  24512736.542 8  24512738.555 8 128815272.001 8  97447945.992 8
E10  26079594.627 7  26079596.302 7 137049232.334 7 103676826.393 7
E11  24153944.375 7  24153942.348 8 126929845.931 7  96021585.176 8
E25  26246680.708 7  26246686.107 8 137927278.942 7 104341072.815 8
E30  27048808.210 6  27048817.954 5 142142432.647 6 107529841.932 5
E36  23731013.443 8  23731015.431 9 124707314.599 8  94340280.954 9
G02  22640394.217 6  22640397.798 4                 118976087.358 6  92708627.837 4
G08  20667064.568 8                  20667071.715 7 108606393.691 8                  84628208.389 7
G10  20758595.090 7                  20758602.070 8 109087239.117 7                  85003004.581 8
G16  23552714.482 7  23552719.936 4                 123770302.153 7  96444439.887 4
G23  22041702.930 7                  22041708.269 7 115829928.388 7                  90257109.141 7
G27  20191793.088 8                  20191799.794 8 106108717.601 8                  82682027.246 8
R01  20311957.350 7                 108579217.844 7
R08  21374428.871 7  21374432.580 7 114459182.078 7  89023755.072 7
R14  23413800.900 6  23413810.278 6 124808685.502 6  97073500.453 6
R15  21512870.042 6  21512873.086 7 114958259.003 6  89411991.387 7
R16  22553850.468 6  22553855.416 6 120478646.901 6  93705616.540 6
R17  20734357.812 8  20734364.139 7 110953890.069 8  86297381.673 7
R24  19501919.841 8  19501923.851 7 104285664.973 8  81110982.371 7
> 2025 06 15 09 42 40.0000000  0 24
C13  38333989.057 6  38333992.676 6 199615151.849 6 154355102.423 6
C19  24028578.838 7                 125123179.025 7
C20  22864083.584 7                 119059346.773 7
C26  25601276.937 6                 133312458.933 6
C29  22181900.649 7                 115507221.353 7
E02  24512451.625 7  24512453.591 8 128813774.424 7  97446813.084 8
E10  26080609.633 7  26080611.414 7 137054566.311 7 103680861.495 7
E11  24154131.282 7  24154129.467 8 126930829.082 7  96022328.925 8
E25  26248413.278 7  26248418.945 8 137936385.630 7 104347961.942 8
E30  27045923.019 6  27045932.417 5 142127271.401 6 107518372.537 5
E36  23728938.193 8  23728939.945 9 124696407.770 8  94332030.006 9
G02  22636930.489 6  22636933.712 4                 118957885.060 6  92694444.264 4
G08  20664452.914 8                  20664459.992 7 108592669.110 8                  84617513.915 7
G10  20757350.340 7                  20757356.492 8 109080696.022 7                  84997906.066 8
G16  23555048.372 7  23555053.383 4                 123782566.750 7  96453996.690 4
G23  22043004.829 7                  22043010.438 7 115836771.347 7                  90262441.271 7
G27  20191618.979 8                  20191625.556 8 106107802.897 8                  82681314.476 8
R01  20308695.199 7                 108561776.226 7
R08  21375198.289 7  21375201.714 7 114463300.266 7  89026958.100 7
R14  23416581.155 6  23416589.105 6 124823496.829 6  97085020.318 6
R15  21513479.204 6  21513480.121 7 114961503.406 6  89414514.808 7
R16  22550916.531 6  22550919.937 6 120462968.699 6  93693422.340 6
R17  20730788.127 7  20730793.749 7 110934787.548 7  86282524.179 7
R24  19501478.969 8  19501482.283 7 104283303.006 8  81109145.279 7
> 2025 06 15 09 42 45.0000000  0 24
C13  38333761.107 6  38333763.744 6 199613960.909 6 154354181.521 6
C19  24024547.442 7                 125102187.345 7
C20  22862536.108 7                 119051289.312 7
C26  25602348.878 6                 133318043.941 6
C29  22182341.712 7                 115509517.109 7
E02  24512169.096 7  24512170.997 8 128812289.396 7  97445689.659 8
E10  26081625.094 7  26081626.975 7 137059903.005 7 103684898.666 7
E11  24154319.527 7  24154317.609 8 126931817.575 7  96023076.708 8
E25  26250147.631 7  26250152.768 8 137945496.843 7 104354854.490 8
E30  27043040.831 6  27043049.083 6 142112120.393 6 107506910.876 6
E36  23726863.756 8  23726865.710 9 124685507.515 8  94323784.031 9
G02  22633469.841 7  22633471.353 4                 118939688.722 7  92680265.298 4
G08  20661843.799 8                  20661850.833 7 108578957.872 8                  84606829.813 7
G10  20756107.829 8                  20756114.495 8 109074168.388 8                  84992819.592 8
G16  23557383.405 7  23557388.580 4                 123794836.034 7  96463557.142 4
G23  22044309.142 7                  22044314.222 7 115843624.738 7                  90267781.585 7
G27  20191447.777 8                  20191454.487 8 106106903.347 8                  82680613.528 8
R01  20305436.243 7                 108544355.365 7
R08  21375969.958 7  21375974.887 7 114467439.128 7  89030177.197 7
R14  23419359.634 7  23419368.773 6 124838311.974 7  97096543.216 6
R15  21514086.174 6  21514091.931 7 114964767.995 6  89417053.980 7
R16  22547987.148 6  22547989.544 6 120447311.238 6  93681244.338 6
R17  20727220.731 8  20727225.586 7 110915692.254 8  86267672.281 7
R24  19501039.200 8  19501042.671 7 104280953.117 8  81107317.563 7
> 2025 06 15 09 42 50.0000000  0 24
C13  38333532.066 6  38333535.420 6 199612771.609 6 154353261.871 6
C19  24020517.887 7                 125081203.902 7
C20  22860992.190 7                 119043247.367 7
C26  25603422.230 6                 133323636.996 6
C29  22182784.275 7                 115511821.119 7
E02  24511889.627 7  24511890.800 8 128810816.794 7  97444575.638 8
E10  26082640.622 7  26082643.097 7 137065242.390 7 103688937.844 7
E11  24154509.223 7  24154506.796 8 126932811.396 7  96023828.522 8
E25  26251882.015 7  26251887.391 8 137954612.490 7 104361750.406 8
E30  27040158.112 6  27040167.429 6 142096979.405 6 107495456.82416
E36  23724790.890 8  23724792.745 9 124674613.750 8  94315542.979 9
G02  22630007.679 7  22630009.905 4                 118921498.262 7  92666090.928 4
G08  20659236.786 8                  20659244.054 7 108565259.896 8                  84596156.065 7
G10  20754868.798 8                  20754875.233 8 109067656.131 8                  84987745.119 8
G16  23559718.933 7  23559724.343 4                 123807109.933 7  96473121.188 4
G23  22045614.686 7                  22045620.578 7 115850488.619 7                  90273130.029 7
G27  20191279.005 8                  20191286.590 8 106106018.908 8                  82679924.354 8
R01  20302179.850 7                 108526955.263 7
R08  21376747.183 7  21376751.206 7 114471598.495 7  89033412.263 7
R14  23422139.344 6  23422148.156 6 124853130.892 6  97108068.981 6
R15  21514702.979 6  21514706.032 6 114968053.035 6  89419608.977 6
R16  22545057.212 6  22545062.972 6 120431674.237 6  93669082.276 6
R17  20723653.133 8  20723658.649 7 110896604.328 8  86252826.135 7
R24  19500602.219 8  19500605.393 7 104278615.507 8  81105499.420 7
> 2025 06 15 09 42 55.0000000  0 24
C13  38333303.980 6  38333307.199 6 199611582.807 6 154352342.607 6
C19  24016490.028 7                 125060227.546 7
C20  22859450.717 7                 119035219.780 7
C26  25604496.639 5                 133329236.809 5
C29  22183228.103 7                 115514132.287 7
E02  24511611.408 7  24511612.767 8 128809355.481 7  97443470.158 8
E10  26083656.688 7  26083659.529 7 137070583.250 7 103692978.165 7
E11  24154699.121 7  24154696.750 8 126933809.359 7  96024583.480 8
E25  26253617.613 7  26253622.672 8 137963731.434 7 104368648.809 8
E30  27037277.494 6  27037287.485 6 142081847.238 6 107484009.513 6
E36  23722718.977 8  23722720.754 9 124663725.367 8  94307305.984 9
G02  22626544.532 6  22626549.691 4                 118903312.563 6  92651920.264 4
G08  20656632.586 8                  20656639.659 7 108551574.073 8                  84585491.789 7
G10  20753632.404 8                  20753638.832 8 109061158.098 8                  84982681.720 8
G16  23562055.044 7  23562061.155 4                 123819387.263 7  96482687.931 4
G23  22046923.163 7                  22046928.438 7 115857361.755 7                  90278485.722 7
G27  20191113.655 8                  20191120.450 8 106105148.429 8                  82679246.056 8
R01  20298928.857 7                 108509574.709 7
R08  21377527.692 7  21377532.165 7 114475777.293 7  89036662.422 7
R14  23424920.401 6  23424929.401 6 124867952.328 6  97119596.732 6
R15  21515319.106 6  21515324.119 6 114971356.953 6  89422178.688 6
R16  22542133.046 6  22542138.926 6 120416056.791 6  93656935.383 6
R17  20720087.699 8  20720092.730 7 110877522.423 8  86237984.646 7
R24  19500167.516 8  19500170.152 7 104276288.779 8  81103689.747 7
> 2025 06 15 09 43  0.0000000  0 24
C13  38333075.041 6  38333079.062 6 199610394.974 6 154351424.090 6
C19  24012463.702 7                 125039258.687 7
C20  22857911.534 7                 119027207.007 7
C26  25605575.124 5                 133334843.896 5
C29  22183673.449 7                 115516450.956 7
E02  24511335.421 8  24511336.973 8 128807905.897 8  97442373.553 8
E10  26084674.120 7  26084676.272 7 137075926.030 7 103697019.939 7
E11  24154889.842 7  24154887.635 8 126934811.931 7  96025341.919 8
E25  26255353.817 7  26255358.696 8 137972854.098 7 104375550.014 8
E30  27034399.876 6  27034409.475 5 142066724.594 6 107472569.296 5
E36  23720647.835 8  23720649.901 9 124652842.715 8  94299073.329 9
G02  22623086.805 6  22623089.793 4                 118885131.985 6  92637753.618 4
G08  20654031.277 8                  20654037.568 7 108537900.781 8                  84574837.272 7
G10  20752398.799 8                  20752405.029 8 109054674.720 8                  84977629.726 8
G16  23564392.148 7  23564398.130 4                 123831668.415 7  96492257.644 4
G23  22048233.294 7                  22048238.128 7 115864244.569 7                  90283848.942 7
G27  20190951.216 8                  20190958.003 8 106104292.301 8                  82678578.942 8
R01  20295681.293 7                 108492214.161 7
R08  21378311.305 7  21378316.284 7 114479975.805 7  89039927.959 7
R14  23427701.790 7  23427710.554 6 124882776.735 7  97131126.756 6
R15  21515943.299 6  21515946.185 6 114974680.556 6  89424763.666 6
R16  22539214.311 6  22539218.119 6 120400459.212 6  93644803.930 6
R17  20716522.512 8  20716527.671 7 110858446.895 8  86223148.140 7
R24  19499734.390 8  19499737.132 7 104273973.455 8  81101888.958 7
> 2025 06 15 09 43  5.0000000  0 24
C13  38332847.340 6  38332851.072 6 199609208.057 6 154350506.287 6
C19  24008437.683 7                 125018297.402 7
C20  22856375.798 7                 119019209.088 7
C26  25606654.772 6                 133340458.254 6
C29  22184120.312 7                 115518777.237 7
E02  24511062.429 8  24511063.315 8 128806468.074 8  97441285.839 8
E10  26085690.646 6  26085693.404 7 137081270.784 6 103701063.198 7
E11  24155081.661 7  24155079.360 8 126935819.129 7  96026103.854 8
E25  26257090.204 7  26257095.442 8 137981980.478 7 104382454.057 8
E30  27031523.970 6  27031533.296 5 142051611.358 6 107461136.200 5
E36  23718578.479 8  23718580.124 9 124641965.915 8  94290845.105 9
G02  22619628.155 7  22619630.584 4                 118866956.615 7  92623591.006 4
G08  20651431.463 8                  20651437.874 7 108524240.103 8                  84564192.599 7
G10  20751167.882 8                  20751174.145 8 109048206.041 8                  84972589.206 8
G16  23566730.872 7  23566736.315 4                 123843953.527 7  96501830.425 4
G23  22049544.990 7                  22049550.405 7 115871137.128 7                  90289219.746 7
G27  20190790.498 8                  20190797.854 8 106103450.598 8                  82677923.064 8
R01  20292438.197 7                 108474873.774 7
R08  21379099.050 7  21379103.601 7 114484194.062 7  89043208.831 7
R14  23430483.867 7  23430492.727 6 124897604.355 7  97142659.297 6
R15  21516567.892 6  21516571.428 6 114978023.494 6  89427363.737 6
R16  22536296.867 6  22536303.372 6 120384881.513 6  93632688.008 6
R17  20712958.728 8  20712964.880 7 110839377.998 8  86208316.775 7
R24  19499302.483 8  19499306.467 7 104271669.618 8  81100097.084 7
> 2025 06 15 09 43 10.0000000  0 24
C13  38332619.677 6  38332623.314 6 199608022.228 6 154349589.326 6
C19  24004413.435 7                 124997343.837 7
C20  22854842.641 7                 119011226.147 7
C26  25607732.997 5                 133346079.974 5
C29  22184568.197 7                 115521111.240 7
E02  24510790.435 8  24510792.022 8 128805042.141 8  97440207.122 8
E10  26086708.375 6  26086710.933 7 137086617.636 6 103705108.066 7
E11  24155274.028 7  24155272.015 8 126936831.092 7  96026869.396 8
E25  26258827.701 7  26258832.930 8 137991110.756 7 104389361.021 8
E30  27028650.706 6  27028659.251 5 142036507.743 6 107449710.534 5
E36  23716509.398 8  23716511.458 9 124631095.079 8  94282621.394 9
G02  22616169.478 6  22616173.068 4                 118848786.645 6  92609432.574 4
G08  20648834.057 8                  20648841.000 7 108510592.158 8                  84553557.842 7
G10  20749939.592 8                  20749945.740 8 109041752.197 8                  84967560.243 8
G16  23569068.261 7  23569074.835 4                 123856242.625 7  96511406.336 4
G23  22050858.320 7                  22050863.391 7 115878039.506 7                  90294598.217 7
G27  20190633.410 8                  20190640.285 8 106102623.451 8                  82677278.518 8
R01  20289198.294 8                 108457553.594 8
R08  21379890.446 8  21379895.296 7 114488432.368 8  89046505.303 7
R14  23433265.631 7  23433274.232 6 124912434.893 7  97154194.119 6
R15  21517200.017 6  21517200.733 6 114981386.140 6  89429979.130 6
R16  22533383.776 7  22533390.116 6 120369324.059 7  93620587.795 6
R17  20709398.003 8  20709402.628 7 110820315.725 8  86193490.553 7
R24  19498874.265 8  19498877.954 7 104269377.239 8  81098314.129 7
> 2025 06 15 09 43 15.0000000  0 24
C13  38332392.006 6  38332395.517 6 199606837.130 6 154348672.932 6
C19  24000390.767 7                 124976397.603 7
C20  22853311.653 7                 119003257.797 7
C26  25608814.009 5                 133351708.722 5
C29  22185018.384 7                 115523452.555 7
E02  24510521.931 7  24510522.835 8 128803627.697 7  97439137.089 8
E10  26087725.669 6  26087728.722 7 137091966.220 6 103709154.185 7
E11  24155467.131 7  24155465.446 8 126937847.372 7  96027638.205 8
E25  26260565.651 7  26260570.944 8 138000244.481 7 104396270.599 8
E30  27025779.869 7  27025787.291 5 142021413.262 7 107438291.670 5
E36  23714441.506 8  23714443.873 9 124620229.793 8  94274401.883 9
G02  22612712.926 6  22612716.034 4                 118830621.564 6  92595278.008 4
G08  20646239.551 8                  20646246.193 7 108496956.626 8                  84542932.763 7
G10  20748713.925 8                  20748720.394 8 109035312.793 8                  84962542.529 8
G16  23571407.639 7  23571414.057 4                 123868535.318 7  96520985.060 4
G23  22052173.686 6                  22052178.694 7 115884951.306 6                  90299984.034 7
G27  20190478.629 8                  20190485.613 8 106101810.440 8                  82676644.999 8
R01  20285961.016 7                 108440253.373 7
R08  21380685.623 8  21380690.467 7 114492690.171 8  89049816.900 7
R14  23436047.250 7  23436057.398 6 124927268.317 7  97165731.193 6
R15  21517832.415 6  21517833.084 6 114984768.069 6  89432609.455 6
R16  22530477.061 6  22530481.740 6 120353786.223 6  93608502.763 6
R17  20705836.421 8  20705841.531 7 110801259.739 8  86178669.231 7
R24  19498448.333 8  19498451.695 7 104267096.333 8  81096540.063 7
> 2025 06 15 09 43 20.0000000  0 24
C13  38332164.676 6  38332168.359 6 199605653.119 6 154347757.380 6
C19  23996370.216 7                 124955459.057 7
C20  22851784.094 7                 118995304.455 7
C26  25609894.241 5                 133357344.879 5
C29  22185469.412 7                 115525801.583 7
E02  24510254.949 7  24510255.977 8 128802225.107 7  97438076.033 8
E10  26088743.350 6  26088746.981 7 137097316.878 6 103713201.892 7
E11  24155661.236 7  24155659.767 8 126938868.429 7  96028410.617 8
E25  26262304.926 7  26262309.826 8 138009382.012 7 104403183.070 8
E30  27022908.185 6  27022916.787 4 142006328.415 6 107426879.988 4
E36  23712375.243 8  23712377.415 9 124609370.442 8  94266186.854 9
G02  22609256.574 6  22609260.219 4                 118812461.881 6  92581127.598 4
G08  20643646.859 8                  20643653.633 7 108483333.826 8                  84532317.593 7
G10  20747491.859 8                  20747497.643 8 109028888.207 8                  84957536.335 8
G16  23573747.648 7  23573753.745 4                 123880832.023 7  96530566.875 4
G23  22053489.748 6                  22053496.113 7 115891872.927 6                  90305377.493 7
G27  20190326.129 7                  20190333.768 8 106101011.965 7                  82676022.805 8
R01  20282729.001 7                 108422973.353 7
R08  21381485.009 8  21381488.575 7 114496967.875 8  89053143.987 7
R14  23438831.858 7  23438840.785 6 124942104.682 7  97177270.517 6
