     3.04           OBSERVATION DATA    Mixed(MIXED)        RINEX VERSION / TYPE
cnvtToRINEX 3.14.0  convertToRINEX OPR  20250615 162739 UTC PGM / RUN BY / DATE 
----------------------------------------------------------- COMMENT             
44K                                                         MARKER NAME         
44K                                                         MARKER NUMBER       
GEODETIC                                                    MARKER TYPE         
GNSS Observer       Trimble                                 OBSERVER / AGENCY   
6203S17886          Geo Explorer 3      5.53                REC # / TYPE / VERS 
                    UNKNOWN EXT     NONE                    ANT # / TYPE        
  3912275.4243  1190403.9626  4879350.7121                  APPROX POSITION XYZ 
        1.1590        0.0000        0.0000                  ANTENNA: DELTA H/E/N
G    6 C1C C2W C2X L1C L2W L2X                              SYS / # / OBS TYPES 
C    4 C2I C7I L2I L7I                                      SYS / # / OBS TYPES 
R    4 C1C C2C L1C L2C                                      SYS / # / OBS TYPES 
E    4 C1X C8X L1X L8X                                      SYS / # / OBS TYPES 
     5.000                                                  INTERVAL            
  2025     6    15    14    50   45.0000000     GPS         TIME OF FIRST OBS   
  2025     6    15    15    31   10.0000000     GPS         TIME OF LAST OBS    
     0                                                      RCV CLOCK OFFS APPL 
 10 R03  5 R04  6 R05  1 R12 -1 R13 -2 R14 -7 R18 -3 R19  3 GLONASS SLOT / FRQ #
    R20  2 R21  4                                           GLONASS SLOT / FRQ #
G L2X -0.25000                                              SYS / PHASE SHIFT   
R L2C -0.25000                                              SYS / PHASE SHIFT   
    18                                                      LEAP SECONDS        
    34                                                      # OF SATELLITES     
   C05   452   452   452   452                              PRN / # OF OBS      
   C06   482   482   482   482                              PRN / # OF OBS      
   C11   482   482   482   482                              PRN / # OF OBS      
   C12   482   482   482   482                              PRN / # OF OBS      
   C16   482   482   482   482                              PRN / # OF OBS      
   C21   482     0   482     0                              PRN / # OF OBS      
   C22   482     0   482     0                              PRN / # OF OBS      
   E03   482   482   482   482                              PRN / # OF OBS      
   E05   482   482   482   482                              PRN / # OF OBS      
   E08   243   243   243   243                              PRN / # OF OBS      
   E13   479   479   479   479                              PRN / # OF OBS      
   E15   482   482   482   482                              PRN / # OF OBS      
   E34   482   482   482   482                              PRN / # OF OBS      
   G01   482     0   482   482     0   482                  PRN / # OF OBS      
   G02    67    67     0    67    67     0                  PRN / # OF OBS      
   G03   482     0   482   482     0   482                  PRN / # OF OBS      
   G04   482     0   482   482     0   482                  PRN / # OF OBS      
   G06   482     0   482   482     0   482                  PRN / # OF OBS      
   G09   482     0   482   482     0   482                  PRN / # OF OBS      
   G11    15     0    14    15     0    14                  PRN / # OF OBS      
   G17   482     0   481   481     0   481                  PRN / # OF OBS      
   G19   482   482     0   482   482     0                  PRN / # OF OBS      
   G28    41     0    31    33     0    31                  PRN / # OF OBS      
   G31   482     0   482   482     0   482                  PRN / # OF OBS      
   R03   482   482   482   482                              PRN / # OF OBS      
   R04   482   482   482   482                              PRN / # OF OBS      
   R05   482   482   482   482                              PRN / # OF OBS      
   R12   290   254   280   243                              PRN / # OF OBS      
   R13   347     0   347     0                              PRN / # OF OBS      
   R14    77    75    75    75                              PRN / # OF OBS      
   R18   276   276   276   276                              PRN / # OF OBS      
   R19   482   482   482   482                              PRN / # OF OBS      
   R20   482   482   482   482                              PRN / # OF OBS      
   R21    47    47    47    47                              PRN / # OF OBS      
DBHZ                                                        SIGNAL STRENGTH UNIT
                                                            END OF HEADER       
>                              2  1
              *** Start of Kinematic Data ***               COMMENT             
> 2025 06 15 14 50 45.0000000  0 26
C06  38394644.041 6  38394638.743 7 199930923.05116 154599297.40017
C11  23388207.288 7  23388203.450 7 121788549.90317  94174597.62217
C12  23260193.230 7  23260190.190 7 121122118.21517  93659147.40317
C16  38997905.954 6  38997907.716 7 203072431.55116 157028412.64217
C21  22258355.233 7                 115905177.42417
C22  22610647.033 7                 117739748.22317
E03  24400838.642 8  24400840.655 8 128227451.15718  97003104.78718
E05  22358016.085 8  22358017.653 9 117492131.73218  88882064.30919
E15  24069529.546 8  24069531.859 8 126486344.41718  95686022.55718
E34  24163724.256 8  24163726.317 9 126981476.89118  96060481.08119
G01  22085075.380 7                  22085081.097 7 116058059.76417                  90434720.43317
G02  24778278.105 6  24778284.003 4                 130210727.99216 101462922.71614
G03  20335051.291 8                  20335057.297 7 106861513.33418                  83268675.59617
G04  20541006.941 7                  20541012.231 8 107943935.82017                  84112014.62518
G06  23242995.858 7                  23243002.995 7 122142735.03217                  95176207.53817
G09  22519491.070 7                  22519497.577 7 118340886.35117                  92213579.14217
G17  23316316.683 7                  23316322.620 6 122528201.35217                  95476449.76616
G19  22391829.294 7  22391832.181 5                 117669777.62317  91690815.26115
G28  24045127.512 5                  24045132.215 6 126358054.86715                  98460799.22916
G31  22395447.238 7                  22395452.403 7 117688974.25817                  91705647.20617
R03  20862295.143 8  20862300.303 7 111677610.98018  86860295.41217
R04  19395407.105 8  19395410.980 7 103861574.06818  80781200.42317
R05  22052018.919 7  22052024.769 6 117880808.07917  91684985.18016
R18  22526897.310 7  22526904.083 7 120250287.53017  93527892.97717
R19  19701895.438 8  19701897.041 7 105391887.64318  81971450.81517
R20  21267661.450 6  21267668.763 7 113727770.68016  88454943.70517
> 2025 06 15 14 50 50.0000000  0 26
C06  38393533.330 6  38393528.440 7 199925142.419 6 154594827.459 7
C11  23386469.185 7  23386465.727 7 121779500.771 7  94167600.248 7
C12  23261510.066 6  23261507.142 7 121128975.367 6  93664449.782 7
C16  38996942.101 6  38996943.207 7 203067409.828 6 157024529.530 7
C21  22256481.289 8                 115895421.462 8
C22  22611487.987 7                 117744129.328 7
E03  24398108.385 8  24398110.706 8 128213105.159 8  96992252.147 8
E05  22357926.351 8  22357928.262 9 117491662.027 8  88881708.975 9
E15  24067472.834 8  24067474.834 8 126475534.640 8  95677845.029 8
E34  24164409.328 8  24164411.629 8 126985078.489 8  96063205.660 8
G01  22086994.977 7                  22087000.286 7 116068145.506 7                  90442579.450 7
G02  24780647.865 6  24780653.300 4                 130223179.110 6 101472624.845 4
G03  20335240.428 8                  20335246.036 7 106862505.900 8                  83269449.026 7
G04  20538764.065 7                  20538769.295 8 107932150.454 7                  84102831.233 8
G06  23239181.646 7                  23239189.234 7 122122693.513 7                  95160590.761 7
G09  22515512.648 7                  22515519.805 7 118319982.475 7                  92197290.412 7
G17  23317431.365 7                  23317436.817 6 122534056.911 7                  95481012.538 6
G19  22391595.056 7  22391597.935 5                 117668545.916 7  91689855.486 5
G28  24046247.039 5                  24046254.082 6 126363948.568 5                  98465391.707 6
G31  22394988.957 7                  22394993.897 7 117686563.843 7                  91703768.934 7
R03  20863953.786 8  20863958.120 7 111686486.856 8  86867198.881 7
R04  19394089.949 8  19394093.035 7 103854515.525 8  80775710.448 7
R05  22048043.643 7  22048049.164 7 117859558.705 7  91668457.948 7
R18  22530068.451 7  22530075.553 7 120267215.884 7  93541059.443 7
R19  19702279.403 8  19702281.505 7 105393942.934 8  81973049.371 7
R20  21263905.262 6  21263912.132 7 113707681.980 6  88439319.171 7
>                              3  5
              *** Start of Occupation ***                   COMMENT             
44K                                                         MARKER NAME         
44K                                                         MARKER NUMBER       
  3912275.4243  1190403.9626  4879350.7121                  APPROX POSITION XYZ 
        1.1590        0.0000        0.0000                  ANTENNA: DELTA H/E/N
> 2025 06 15 14 50 55.0000000  0 25
C06  38392423.241 6  38392418.703 7 199919362.666 6 154590358.188 7
C11  23384733.562 7  23384729.991 7 121770462.028 7  94160610.936 7
C12  23262829.010 7  23262825.186 7 121135839.428 7  93669757.503 7
C16  38995977.606 6  38995978.979 6 203062388.671 6 157020646.858 6
C21  22254609.003 7                 115885670.388 7
C22  22612330.289 7                 117748512.851 7
E03  24395379.179 8  24395381.618 8 128198763.620 8  96981402.871 8
E05  22357838.116 8  22357839.848 9 117491197.650 8  88881357.680 9
E15  24065416.740 8  24065418.898 8 126464730.329 8  95669671.642 8
E34  24165095.812 8  24165098.003 8 126988685.538 8  96065934.363 8
G01  22088915.210 7                  22088920.394 7 116078236.853 7                  90450442.833 7
G02  24783017.314 6  24783022.742 4                 130235629.171 6 101482326.163 4
G03  20335430.724 8                  20335436.004 7 106863505.135 8                  83270227.650 7
G04  20536523.145 7                  20536528.719 8 107920374.707 7                  84093655.330 8
G06  23235368.579 6                  23235376.079 7 122102656.118 6                  95144977.231 7
G09  22511535.812 7                  22511542.692 7 118299082.212 7                  92181004.511 7
G17  23318546.511 7                  23318551.841 6 122539919.010 7                  95485580.391 6
G19  22391363.227 7  22391365.901 5                 117667327.808 7  91688906.308 5
G31  22394533.321 7                  22394538.053 7 117684167.980 7                  91701902.007 7
R03  20865612.055 8  20865616.777 7 111695366.294 8  86874105.100 7
R04  19392772.900 8  19392777.020 7 103847467.600 8  80770228.736 7
R05  22044069.480 7  22044075.291 7 117838313.481 7  91651933.889 7
R18  22533241.192 7  22533247.337 7 120284147.354 7  93554228.348 7
R19  19702667.015 8  19702669.454 7 105396016.354 8  81974662.035 7
R20  21260152.395 6  21260157.861 7 113687604.941 6  88423703.704 7
> 2025 06 15 14 51  0.0000000  0 27
C06  38391313.656 6  38391309.359 7 199913584.479 6 154585890.125 7
C11  23382999.399 7  23382996.232 7 121761434.432 7  94153630.217 7
C12  23264148.066 7  23264144.780 7 121142711.150 7  93675071.151 7
C16  38995013.887 6  38995015.090 6 203057368.870 6 157016765.236 6
C21  22252737.529 8                 115875924.931 8
C22  22613172.633 7                 117752899.522 7
E03  24392651.070 8  24392653.511 9 128184427.268 8  96970557.521 9
E05  22357750.930 8  22357752.620 9 117490739.321 8  88881010.947 9
E13  27927800.567 6  27927804.396 6 146761587.79516 111024198.64116
E15  24063362.038 8  24063364.056 8 126453932.221 8  95661502.947 8
E34  24165783.275 8  24165785.650 8 126992298.751 8  96068667.723 8
G01  22090836.585 7                  22090842.072 7 116088334.485 7                  90458311.111 7
G02  24785387.043 6  24785391.884 4                 130248078.819 6 101492027.147 4
G03  20335621.813 8                  20335627.599 7 106864511.775 8                  83271012.042 7
G04  20534284.424 7                  20534289.547 8 107908609.331 7                  84084487.511 8
G06  23231557.085 6                  23231564.406 7 122082623.627 6                  95129367.500 7
G09  22507559.312 7                  22507566.289 7 118278186.307 7                  92164722.000 7
G17  23319664.280 7                  23319668.878 6 122545788.369 7                  95490153.928 6
G19  22391133.831 7  22391136.872 5                 117666124.089 7  91687968.341 5
G28  24048496.151 5                                 126375764.36615                
G31  22394079.352 7                  22394084.962 7 117681787.285 7                  91700046.932 7
R03  20867271.569 8  20867276.648 7 111704250.344 8  86881014.909 7
R04  19391459.836 8  19391463.098 7 103840431.012 8  80764755.844 7
R05  22040095.643 7  22040101.302 7 117817073.302 7  91635413.735 7
R18  22536414.039 7  22536420.060 7 120301082.558 7  93567400.146 7
R19  19703058.025 8  19703060.447 7 105398108.495 8  81976289.252 7
R20  21256398.902 6  21256405.257 7 113667540.434 6  88408097.968 7
> 2025 06 15 14 51  5.0000000  0 27
C06  38390204.360 6  38390199.585 7 199907807.432 6 154581422.940 7
C11  23381268.040 7  23381264.497 7 121752417.613 7  94146657.836 7
C12  23265469.490 7  23265465.917 7 121149590.156 7  93680390.443 7
C16  38994049.548 6  38994051.228 7 203052350.066 6 157012884.382 7
C21  22250867.300 8                 115866184.731 8
C22  22614015.956 7                 117757289.018 7
E03  24389924.144 8  24389926.313 8 128170095.738 8  96959715.818 8
E05  22357664.908 8  22357666.497 9 117490286.698 8  88880668.543 9
E13  27924063.641 6  27924067.715 7 146741951.632 6 111009344.022 7
E15  24061308.410 8  24061310.359 8 126443139.962 8  95653338.679 8
E34  24166472.189 8  24166474.297 8 126995917.788 8  96071405.497 8
G01  22092759.074 7                  22092764.285 7 116098438.096 7                  90466184.046 7
G02  24787754.867 6  24787760.901 4                 130260527.771 6 101501727.619 4
G03  20335814.612 8                  20335820.593 7 106865525.436 8                  83271801.901 7
G04  20532047.267 7                  20532052.708 8 107896853.976 7                  84075327.484 8
G06  23227745.839 7                  23227753.150 7 122062595.641 7                  95113761.299 7
G09  22503582.731 7                  22503590.950 7 118257294.362 7                  92148442.594 7
G17  23320781.706 7                  23320786.854 6 122551664.672 7                  95494732.873 6
G19  22390907.347 7  22390910.649 5                 117664934.398 7  91687041.295 5
G28  24049622.244 5                  24049629.838 6 126381687.771 5                  98479211.25016
G31  22393629.666 7                  22393634.180 7 117679421.502 7                  91698203.456 7
R03  20868932.071 8  20868937.157 7 111713138.141 8  86887927.632 7
R04  19390147.023 8  19390150.841 7 103833405.602 8  80759291.643 7
R05  22036124.370 7  22036128.976 7 117795837.637 7  91618897.113 7
R18  22539586.732 7  22539592.726 7 120318021.190 7  93580574.627 7
R19  19703452.041 8  19703455.038 7 105400219.102 8  81977930.818 7
R20  21252649.746 6  21252655.710 7 113647488.165 6  88392501.759 7
> 2025 06 15 14 51 10.0000000  0 27
C06  38389094.451 6  38389090.488 7 199902031.344 6 154576956.500 7
C11  23379538.354 7  23379534.938 7 121743411.377 7  94139693.650 7
C12  23266792.353 7  23266788.347 7 121156476.291 7  93685715.226 7
C16  38993085.434 6  38993087.586 7 203047332.114 6 157009004.162 7
C21  22248997.918 8                 115856449.598 8
C22  22614859.106 7                 117761681.107 7
E03  24387197.578 8  24387199.990 8 128155768.851 8  96948877.625 8
E05  22357579.667 8  22357581.405 9 117489839.571 8  88880330.297 9
E13  27920326.254 6  27920330.657 6 146722313.504 6 110994487.908 6
E15  24059255.869 8  24059257.762 9 126432353.379 8  95645178.694 9
E34  24167161.408 8  24167163.966 9 126999542.450 8  96074147.518 9
G01  22094682.400 7                  22094688.505 7 116108547.418 7                  90474061.422 7
G02  24790123.728 6  24790129.501 4                 130272975.808 6 101511427.347 4
G03  20336009.082 8                  20336014.703 7 106866545.948 8                  83272597.103 7
G04  20529811.936 7                  20529817.612 8 107885108.463 7                  84066175.140 8
G06  23223934.986 6                  23223942.685 7 122042572.021 6                  95098158.469 7
G09  22499608.986 7                  22499615.645 7 118236406.238 7                  92132166.145 7
G17  23321901.672 7                  23321906.914 6 122557547.710 7                  95499317.060 6
G19  22390683.321 7  22390686.112 5                 117663758.452 7  91686124.987 5
G28  24050753.419 4                  24050759.285 6 126387620.85114                  98483834.41816
G31  22393182.174 7                  22393186.775 6 117677070.405 7                  91696371.407 6
R03  20870593.148 8  20870597.818 7 111722030.014 8  86894843.528 7
R04  19388836.818 8  19388840.885 7 103826390.978 8  80753835.820 7
R05  22032150.898 7  22032157.330 7 117774606.297 7  91602383.906 7
R18  22542760.876 7  22542766.462 7 120334963.110 7  93593751.665 7
R19  19703851.220 8  19703852.945 7 105402348.005 8  81979586.637 7
R20  21248901.691 6  21248907.883 7 113627447.762 6  88376914.784 7
> 2025 06 15 14 51 15.0000000  0 27
C06  38387985.850 6  38387981.046 7 199896255.883 6 154572490.560 7
C11  23377810.765 7  23377807.191 7 121734415.404 7  94132737.388 7
C12  23268116.058 7  23268112.072 7 121163369.131 7  93691045.193 7
C16  38992121.983 6  38992123.995 7 203042314.563 6 157005124.276 7
C21  22247129.457 8                 115846719.179 8
C22  22615703.044 7                 117766075.429 7
E03  24384472.138 8  24384474.436 9 128141446.237 8  96938042.673 9
E05  22357495.650 8  22357497.278 9 117489397.569 8  88879995.921 9
E13  27916589.430 6  27916593.182 6 146702673.037 6 110979630.042 6
E15  24057203.983 8  24057206.167 8 126421572.078 8  95637022.718 8
E34  24167852.610 8  24167854.763 9 127003172.360 8  96076893.524 9
G01  22096607.241 7                  22096613.254 7 116118662.115 7                  90481943.008 7
G02  24792491.715 6  24792498.049 4                 130285422.498 6 101521126.025 4
G03  20336204.665 8                  20336210.010 7 106867572.921 8                  83273397.333 7
G04  20527578.971 7                  20527584.318 8 107873372.390 7                  84057030.142 8
G06  23220125.348 6                  23220133.354 7 122022552.359 6                  95082558.741 7
G09  22495634.538 7                  22495641.774 7 118215521.564 7                  92115892.398 7
G17  23323021.079 7                  23323027.345 6 122563437.047 7                  95503906.160 6
G19  22390462.607 7  22390465.164 5                 117662595.961 7  91685219.152 5
G28  24051881.571 4                  24051890.363 6 126393563.327 4                  98488464.876 6
G31  22392737.462 7                  22392741.631 6 117674733.596 7                  91694550.503 6
R03  20872254.996 8  20872259.679 7 111730925.306 8  86901762.078 7
R04  19387528.728 8  19387533.010 7 103819386.762 8  80748388.109 7
R05  22028179.999 7  22028186.614 7 117753378.943 7  91585873.753 7
R18  22545935.507 7  22545940.871 7 120351907.800 7  93606930.853 7
R19  19704252.092 8  19704254.245 7 105404494.945 8  81981256.477 7
R20  21245155.726 6  21245162.950 7 113607418.951 6  88361336.825 7
> 2025 06 15 14 51 20.0000000  0 26
C06  38386877.297 6  38386872.044 7 199890480.630 6 154568024.753 7
C11  23376084.590 7  23376081.461 7 121725429.158 7  94125788.654 7
C12  23269439.760 6  23269436.936 7 121170268.180 6  93696379.968 7
C16  38991158.539 6  38991160.379 7 203037296.967 6 157001244.354 7
C21  22245261.708 7                 115836992.991 7
C22  22616546.933 7                 117770471.490 7
E03  24381747.405 8  24381749.610 9 128127127.423 8  96927210.585 9
E05  22357412.411 8  22357414.038 9 117488960.229 8  88879665.071 9
E13  27912850.952 6  27912855.181 6 146683029.869 6 110964770.117 6
E15  24055153.470 8  24055155.427 8 126410795.617 8  95628870.393 8
E34  24168544.046 7  24168546.478 9 127006807.032 7  96079643.122 9
G01  22098533.502 7                  22098538.954 7 116128781.686 7                  90489828.363 7
G02  24794860.073 6  24794866.493 4                 130297867.396 6 101530823.321 4
G03  20336401.119 8                  20336406.386 7 106868605.870 8                  83274202.229 7
G04  20525347.465 7                  20525352.640 8 107861645.294 7                  84047892.146 8
G06  23216316.856 6                  23216323.997 7 122002536.259 6                  95066961.791 7
G09  22491661.744 7                  22491668.500 7 118194639.835 7                  92099620.941 7
G17  23324143.800 7                  23324148.941 7 122569332.264 7                  95508499.802 7
G19  22390244.277 7  22390246.801 5                 117661446.415 7  91684323.394 5
G31  22392295.448 7                  22392300.176 7 117672410.628 7                  91692740.418 7
R03  20873918.036 8  20873921.826 7 111739823.549 8  86908682.922 7
R04  19386222.379 8  19386227.231 7 103812392.532 8  80742948.156 7
R05  22024210.537 7  22024215.861 7 117732155.134 7  91569366.340 7
R18  22549110.148 8  22549115.436 7 120368854.789 8  93620111.821 7
R19  19704656.802 8  19704658.546 7 105406659.290 8  81982939.841 7
R20  21241412.910 6  21241418.919 7 113587401.383 6  88345767.618 7
> 2025 06 15 14 51 25.0000000  0 26
C06  38385767.702 6  38385763.316 6 199884706.749 6 154563560.050 6
C11  23374361.628 7  23374357.982 7 121716453.991 7  94118848.475 7
C12  23270766.014 6  23270763.619 7 121177174.819 6  93701720.617 7
C16  38990194.931 6  38990196.983 7 203032280.630 6 156997365.406 7
C21  22243394.664 7                 115827272.351 7
C22  22617391.976 7                 117774870.669 7
E03  24379023.496 8  24379025.890 8 128112813.719 8  96916382.368 8
E05  22357330.116 8  22357331.938 9 117488528.832 8  88879338.723 9
E13  27909113.352 6  27909116.873 6 146663385.118 6 110949909.003 6
E15  24053104.074 8  24053105.876 8 126400025.312 8  95620722.731 8
E34  24169236.907 7  24169239.306 8 127010447.794 7  96082397.328 8
G01  22100460.617 7                  22100466.094 7 116138907.473 7                  90497718.562 7
G02  24797228.782 6  24797234.595 4                 130310311.848 6 101540520.270 4
G03  20336598.944 8                  20336604.391 7 106869646.143 8                  83275012.830 7
G04  20523118.103 7                  20523123.215 8 107849928.519 7                  84038762.191 8
G06  23212508.138 6                  23212516.517 7 121982525.005 6                  95051368.620 7
G09  22487687.900 7                  22487695.314 7 118173762.439 7                  92083352.848 7
G17  23325267.344 7                  23325272.947 7 122575234.603 7                  95513098.998 7
G19  22390027.934 7  22390030.600 5                 117660311.086 7  91683438.729 5
G31  22391856.562 7                  22391860.698 6 117670102.792 7                  91690942.109 6
R03  20875580.297 8  20875585.159 7 111748726.195 8  86915607.179 7
R04  19384918.839 8  19384923.396 7 103805409.626 8  80737517.013 7
R05  22020239.837 7  22020246.394 7 117710936.188 7  91552862.742 7
R18  22552285.536 7  22552290.667 7 120385805.479 7  93633295.656 7
R19  19705064.687 8  19705067.151 7 105408842.325 8  81984637.764 7
R20  21237673.022 6  21237677.844 7 113567396.463 6  88330208.238 7
> 2025 06 15 14 51 30.0000000  0 26
C06  38384659.730 6  38384654.406 6 199878934.194 6 154559096.345 6
C11  23372639.682 7  23372636.408 7 121707489.767 7  94111916.759 7
C12  23272094.025 6  23272091.130 7 121184088.816 6  93707066.958 7
C16  38989231.651 6  38989233.924 7 203027265.470 6 156993487.346 7
C21  22241529.250 7                 115817557.063 7
C22  22618236.877 7                 117779272.690 7
E03  24376300.829 8  24376302.943 8 128098504.981 8  96905557.902 8
E05  22357249.269 8  22357250.964 9 117488103.235 8  88879016.756 9
E13  27905374.447 6  27905378.288 7 146643738.844 6 110935046.725 7
E15  24051055.365 8  24051057.473 8 126389260.998 8  95612579.604 8
E34  24169930.517 8  24169933.189 8 127014094.461 8  96085156.009 8
G01  22102387.896 7                  22102393.972 7 116149039.248 7                  90505613.443 7
G02  24799597.008 6  24799602.189 4                 130322755.563 6 101550216.644 4
G03  20336798.417 8                  20336803.670 7 106870693.561 8                  83275829.006 7
G04  20520890.422 7                  20520895.427 8 107838221.897 7                  84029640.155 8
G06  23208701.536 6                  23208709.015 7 121962518.427 6                  95035779.102 7
G09  22483715.504 7                  22483723.286 7 118152889.164 7                  92067087.960 7
G17  23326391.382 7                  23326397.690 7 122581143.964 7                  95517703.701 7
G19  22389814.753 7  22389817.008 5                 117659189.865 7  91682565.033 5
G31  22391420.249 7                  22391424.572 7 117667809.989 7                  91689155.512 7
R03  20877244.735 8  20877249.007 7 111757632.887 8  86922534.616 7
R04  19383616.621 8  19383621.339 7 103798437.940 8  80732094.576 7
R05  22016272.425 7  22016278.088 7 117689722.041 7  91536362.867 7
R18  22555461.407 7  22555467.372 7 120402759.578 7  93646482.139 7
R19  19705476.079 8  19705478.252 7 105411043.871 8  81986350.071 7
R20  21233933.385 6  21233939.454 7 113547403.913 6  88314658.500 7
> 2025 06 15 14 51 35.0000000  0 26
C06  38383550.514 6  38383546.195 6 199873162.040 6 154554632.937 6
C11  23370919.679 7  23370916.830 7 121698535.498 7  94104992.762 7
C12  23273422.498 6  23273420.124 7 121191009.213 6  93712418.234 7
C16  38988268.891 6  38988271.078 7 203022250.379 6 156989609.391 7
C21  22239664.260 7                 115807846.222 7
C22  22619082.929 7                 117783676.677 7
E03  24373578.689 8  24373580.876 8 128084200.245 8  96894736.473 8
E05  22357169.119 8  22357170.901 9 117487682.460 8  88878698.440 9
E13  27901635.342 6  27901639.240 7 146624089.964 6 110920182.480 7
E15  24049008.505 8  24049010.082 8 126378501.760 8  95604440.313 8
E34  24170625.835 8  24170628.094 9 127017746.128 8  96087918.471 9
G01  22104317.346 7                  22104323.112 7 116159176.113 7                  90513512.277 7
G02  24801964.124 6  24801969.721 3                 130335197.671 6 101559911.771 3
G03  20336998.926 8                  20337004.304 7 106871747.162 8                  83276649.993 7
G04  20518663.967 7                  20518669.720 8 107826524.463 7                  84020525.266 8
G06  23204894.738 6                  23204902.683 7 121942515.663 6                  95020192.522 7
G09  22479743.920 7                  22479751.946 7 118132019.086 7                  92050825.570 7
G17  23327516.770 7                  23327523.049 7 122587059.355 7                  95522313.074 7
G19  22389603.800 7  22389606.080 5                 117658081.754 7  91681701.573 5
G31  22390986.899 7                  22390990.996 7 117665531.204 7                  91687379.832 7
R03  20878909.103 8  20878913.192 7 111766542.670 8  86929464.438 7
R04  19382317.146 8  19382321.097 7 103791476.427 8  80726680.060 7
R05  22012304.295 7  22012309.959 7 117668511.576 7  91519865.843 7
R18  22558637.052 7  22558643.506 7 120419716.183 7  93659670.596 7
R19  19705891.187 8  19705893.031 7 105413263.082 8  81988076.120 7
R20  21230196.028 6  21230202.793 7 113527422.810 6  88299117.639 7
> 2025 06 15 14 51 40.0000000  0 26
C06  38382442.135 6  38382437.828 6 199867392.049 6 154550171.229 6
C11  23369203.092 7  23369199.500 7 121689593.073 7  94098077.910 7
C12  23274752.717 6  23274751.049 7 121197937.882 6  93717775.905 7
C16  38987305.750 6  38987308.334 7 203017237.327 6 156985732.978 7
C21  22237800.812 8                 115798141.661 8
C22  22619929.381 7                 117788084.459 7
E03  24370857.632 8  24370859.852 8 128069901.405 8  96883919.502 8
E05  22357090.455 8  22357092.136 9 117487268.380 8  88878385.197 9
E13  27897896.482 6  27897900.197 7 146604440.397 6 110905317.729 7
E15  24046962.044 8  24046963.958 8 126367749.424 8  95596306.242 8
E34  24171322.088 8  24171324.281 9 127021404.630 8  96090686.091 9
G01  22106247.684 7                  22106253.537 7 116169319.864 7                  90521416.503 7
G02  24804332.214 6  24804337.306 4                 130347640.059 6 101569607.115 4
G03  20337200.241 8                  20337206.383 7 106872808.811 8                  83277477.248 7
G04  20516440.187 7                  20516445.534 8 107814838.093 7                  84011419.003 8
G06  23201089.610 6                  23201097.364 7 121922518.555 6                  95004610.379 7
G09  22475773.286 6                  22475781.142 7 118111154.127 6                  92034567.168 7
G17  23328644.957 7                  23328649.988 7 122592982.598 7                  95526928.565 7
G19  22389395.578 7  22389397.829 5                 117656988.604 7  91680849.780 5
G31  22390556.287 7                  22390560.340 7 117663268.280 7                  91685616.528 7
R03  20880574.935 8  20880578.276 7 111775457.490 8  86936398.193 7
R04  19381019.558 8  19381023.298 7 103784526.893 8  80721274.867 7
R05  22008338.318 7  22008343.632 7 117647306.729 7  91503373.189 7
R18  22561815.599 7  22561820.715 7 120436677.140 7  93672862.410 7
R19  19706309.550 8  19706311.619 7 105415501.712 8  81989817.271 7
R20  21226461.752 6  21226468.792 7 113507455.002 6  88283587.129 7
> 2025 06 15 14 51 45.0000000  0 27
C06  38381333.876 6  38381329.857 6 199861622.519 6 154545709.855 6
C11  23367487.820 7  23367484.262 7 121680660.755 7  94091170.885 7
C12  23276085.285 7  23276082.818 7 121204873.049 7  93723138.607 7
C16  38986343.456 6  38986345.347 7 203012224.582 6 156981856.810 7
C21  22235937.912 8                 115788441.662 8
C22  22620775.804 7                 117792494.284 7
E03  24368137.618 8  24368139.626 8 128055606.690 8  96873105.639 8
E05  22357012.344 8  22357014.189 9 117486859.257 8  88878075.697 9
E13  27894156.238 6  27894160.506 6 146584788.403 6 110890451.116 6
E15  24044916.931 8  24044918.837 8 126357002.281 8  95588176.101 8
E34  24172019.468 8  24172021.527 9 127025068.198 8  96093457.553 9
G01  22108179.353 7                  22108184.509 7 116179468.802 7                  90529324.757 7
G02  24806699.344 6  24806704.986 4                 130360080.928 6 101579301.250 4
G03  20337403.860 8                  20337409.691 7 106873876.746 8                  83278309.411 7
G04  20514218.734 7                  20514223.502 8 107803161.036 7                  84002319.997 8
G06  23197284.556 6                  23197292.670 7 121902525.322 6                  94989031.237 7
G09  22471804.268 7                  22471811.407 7 118090292.445 7                  92018311.317 7
G17  23329773.958 7                  23329778.615 7 122598911.967 7                  95531548.857 7
G19  22389190.599 7  22389192.462 5                 117655908.767 7  91680008.323 5
G28  24058709.430 5                                 126429411.86215                
G31  22390128.165 7                  22390132.236 7 117661019.509 7                  91683864.221 7
R03  20882240.192 8  20882244.586 7 111784375.545 8  86943334.453 7
R04  19379723.307 8  19379727.478 7 103777587.706 8  80715877.725 7
R05  22004372.044 7  22004377.436 7 117626105.804 7  91486883.583 7
R18  22564993.039 7  22564998.626 7 120453640.616 7  93686056.201 7
R19  19706731.369 8  19706733.486 7 105417758.034 8  81991572.189 7
R20  21222730.012 6  21222736.563 7 113487498.663 6  88268065.548 7
> 2025 06 15 14 51 50.0000000  0 28
C06  38380226.521 6  38380222.108 6 199855854.113 6 154541249.347 6
C11  23365774.885 7  23365770.938 7 121671739.144 7  94084272.135 7
C12  23277417.827 7  23277416.147 7 121211815.361 7  93728506.834 7
C16  38985381.140 6  38985382.879 6 203007212.693 6 156977981.290 6
C21  22234075.724 8                 115778746.832 8
C22  22621623.437 7                 117796906.784 7
E03  24365418.187 8  24365420.317 8 128041316.721 8  96862295.389 8
E05  22356935.428 8  22356937.446 9 117486455.675 8  88877770.396 9
E13  27890416.573 6  27890420.546 7 146565134.605 6 110875583.154 7
E15  24042872.958 8  24042874.805 8 126346260.928 8  95580050.348 8
E34  24172717.583 8  24172719.727 8 127028737.475 8  96096233.332 8
G01  22110111.566 7                  22110117.182 7 116189623.471 7                  90537237.482 7
G02  24809066.603 6  24809071.940 4                 130372520.878 6 101588994.684 4
G03  20337608.425 8                  20337614.411 7 106874951.656 8                  83279147.000 7
G04  20511998.465 7                  20512003.365 8 107791493.934 7                  83993228.747 8
G06  23193480.702 6                  23193489.360 7 121882536.630 6                  94973455.655 7
G09  22467834.463 7                  22467842.068 7 118069434.716 7                  92002058.564 7
G17  23330902.436 7                  23330908.209 7 122604848.072 7                  95536174.389 7
G19  22388987.657 7  22388989.459 5                 117654842.710 7  91679177.636 5
G28  24059851.233 5                  24059857.010 6 126435421.725 5                  98521092.17716
G31  22389702.698 7                  22389707.087 7 117658785.475 7                  91682123.402 7
R03  20883907.108 8  20883911.128 7 111793297.592 8  86950273.826 7
R04  19378429.651 8  19378433.625 7 103770659.442 8  80710489.071 7
R05  22000405.936 7  22000412.009 7 117604909.361 7  91470397.502 7
R12  23159962.832 5                                
R18  22568172.437 7  22568177.292 7 120470607.290 7  93699252.479 7
R19  19707156.914 8  19707158.628 7 105420032.784 8  81993341.423 7
R20  21219002.078 6  21219007.042 7 113467554.617 6  88252553.511 7
> 2025 06 15 14 51 55.0000000  0 28
C06  38379119.560 6  38379114.559 6 199850086.379 6 154536789.359 6
C11  23364063.390 7  23364059.539 7 121662827.954 7  94077381.449 7
C12  23278752.859 7  23278750.849 7 121218764.458 7  93733880.310 7
C16  38984418.944 6  38984420.593 6 203002201.394 6 156974106.247 6
C21  22232214.936 7                 115769056.854 7
C22  22622471.357 7                 117801321.639 7
E03  24362699.359 8  24362701.895 8 128027031.195 8  96851488.483 8
E05  22356859.732 8  22356861.711 9 117486057.354 8  88877469.069 9
E13  27886676.706 6  27886680.081 7 146545478.722 6 110860713.620 7
E15  24040829.950 8  24040831.851 9 126335525.095 8  95571928.756 9
E34  24173416.759 8  24173419.028 8 127032412.122 8  96099013.176 8
G01  22112044.815 7                  22112050.682 7 116199783.621 7                  90545154.488 7
G02  24811433.608 6  24811438.856 4                 130384959.571 6 101598687.129 4
G03  20337814.330 8                  20337820.230 7 106876033.124 8                  83279989.699 7
G04  20509780.214 7                  20509784.959 8 107779836.456 7                  83984145.000 8
G06  23189678.538 6                  23189686.506 7 121862552.186 6                  94957883.349 7
G09  22463866.543 7                  22463874.009 7 118048580.648 7                  91985808.682 7
G17  23332032.936 7                  23332039.019 6 122610790.651 7                  95540804.962 6
G19  22388787.171 7  22388789.116 5                 117653790.212 7  91678357.522 5
G28  24060994.507 5                  24061003.124 6 126441441.005 5                  98525782.572 6
G31  22389280.667 7                  22389284.705 7 117656565.836 7                  91680393.849 7
R03  20885574.285 8  20885578.513 7 111802223.037 8  86957215.830 7
R04  19377137.805 8  19377142.134 7 103763741.751 8  80705108.654 7
R05  21996441.226 7  21996447.612 7 117583717.092 7  91453914.625 7
R12  23159672.207 5  23159675.937 4 123714822.864 5  96222644.89214
R18  22571351.198 7  22571355.917 7 120487576.774 7  93712450.956 7
R19  19707584.661 8  19707587.097 7 105422325.540 8  81995124.689 7
R20  21215273.856 6  21215280.285 7 113447622.484 6  88237050.756 7
> 2025 06 15 14 52  0.0000000  0 28
C06  38378011.915 6  38378007.011 6 199844319.799 6 154532330.288 6
C11  23362354.096 7  23362350.481 7 121653927.498 7  94070499.056 7
C12  23280088.529 6  23280086.624 7 121225720.659 6  93739259.266 7
C16  38983456.872 6  38983458.231 7 202997190.979 6 156970231.876 7
C21  22230354.870 7                 115759372.021 7
C22  22623319.321 7                 117805739.123 7
E03  24359981.906 8  24359984.313 9 128012750.432 8  96840685.192 9
E05  22356785.031 8  22356786.938 9 117485664.555 8  88877171.912 9
E13  27882934.842 6  27882939.549 7 146525821.004 6 110845842.697 7
E15  24038788.226 8  24038790.001 8 126324795.066 8  95563811.557 8
E34  24174116.982 8  24174119.344 9 127036092.473 8  96101797.337 9
G01  22113979.287 7                  22113984.813 7 116209949.505 7                  90553075.935 7
G02  24813802.020 6  24813805.755 4                 130397397.368 6 101608378.896 4
G03  20338021.081 8                  20338026.892 7 106877121.534 8                  83280837.800 7
G04  20507563.494 7                  20507568.506 8 107768188.911 7                  83975068.994 8
G06  23185875.989 6                  23185884.589 7 121842572.283 6                  94942314.622 7
G09  22459898.237 7                  22459906.645 7 118027730.549 7                  91969561.867 7
G17  23333165.399 7                  23333170.970 6 122616739.858 7                  95545440.688 6
G19  22388589.860 7  22388591.649 5                 117652751.572 7  91677548.190 5
G28  24062144.584 5                  24062149.940 6 126447470.039 5                  98530480.478 6
G31  22388861.076 7                  22388864.952 6 117654360.992 7                  91678675.768 6
R03  20887241.639 8  20887246.844 7 111811152.572 8  86964161.022 7
R04  19375848.541 8  19375851.736 7 103756834.910 8  80699736.668 7
R05  21992478.166 7  21992484.032 7 117562529.303 7  91437435.277 7
R12  23159381.175 5  23159387.136 5 123713283.833 5  96221447.881 5
R18  22574529.442 7  22574535.293 7 120504549.419 7  93725651.865 7
R19  19708017.079 8  19708019.670 7 105424636.551 8  81996922.137 7
R20  21211549.955 6  21211554.352 7 113427702.638 6  88221557.539 7
> 2025 06 15 14 52  5.0000000  0 28
C06  38376904.132 6  38376899.754 7 199838554.091 6 154527871.888 7
C11  23360646.726 7  23360643.137 7 121645037.630 7  94063624.854 7
C12  23281426.175 6  23281423.787 7 121232683.812 6  93744643.624 7
C16  38982494.551 6  38982496.305 6 202992181.304 6 156966358.092 6
C21  22228495.956 7                 115749692.212 7
C22  22624168.355 7                 117810159.086 7
E03  24357265.542 8  24357267.616 8 127998474.286 8  96829885.389 8
E05  22356711.380 8  22356713.216 9 117485277.187 8  88876878.867 9
E13  27879194.164 6  27879198.390 7 146506161.350 6 110830970.311 7
E15  24036747.545 8  24036749.155 8 126314070.719 8  95555698.655 8
E34  24174818.273 8  24174820.689 9 127039778.355 8  96104585.682 9
G01  22115914.279 7                  22115920.529 7 116220120.995 7                  90561001.762 7
G02  24816168.921 6  24816172.492 3                 130409834.077 6 101618069.774 3
G03  20338229.546 8                  20338235.858 7 106878216.658 8                  83281691.146 7
G04  20505349.115 7                  20505353.949 8 107756551.163 7                  83966000.625 8
G06  23182074.863 6                  23182083.353 7 121822596.817 6                  94926749.358 7
G09  22455931.736 7                  22455940.433 7 118006884.271 7                  91953318.047 7
G17  23334299.209 7                  23334304.207 7 122622695.606 7                  95550081.519 7
G19  22388394.698 7  22388396.622 5                 117651726.604 7  91676749.522 5
G28  24063292.377 5                                                                
G31  22388444.047 7                  22388448.392 6 117652170.724 7                  91676969.097 6
R03  20888910.693 8  20888915.536 7 111820085.646 8  86971108.956 7
R04  19374560.859 8  19374564.352 7 103749938.931 8  80694373.130 7
R05  21988515.401 7  21988520.834 6 117541345.884 7  91420959.306 6
R12  23159099.272 5  23159101.809 4 123711762.561 5  96220264.628 4
R18  22577709.311 7  22577715.720 7 120521525.028 7  93738855.099 7
R19  19708452.321 8  19708454.970 7 105426965.682 8  81998733.695 7
R20  21207826.208 6  21207831.741 7 113407794.854 6  88206073.717 7
> 2025 06 15 14 52 10.0000000  0 28
C06  38375797.609 6  38375792.947 6 199832790.387 6 154523415.015 6
C11  23358941.265 7  23358938.446 7 121636159.407 7  94056759.639 7
C12  23282763.893 7  23282762.743 7 121239654.951 7  93750034.136 7
C16  38981533.319 6  38981534.617 6 202987173.438 6 156962485.679 6
C21  22226638.040 7                 115740018.489 7
C22  22625018.139 7                 117814582.630 7
E03  24354549.554 8  24354552.018 8 127984203.804 8  96819089.864 8
E05  22356638.836 8  22356640.741 9 117484896.252 8  88876590.688 9
E13  27875452.190 6  27875456.989 7 146486500.838 6 110816097.273 7
E15  24034708.083 8  24034709.702 8 126303353.110 8  95547590.859 8
E34  24175521.284 8  24175523.337 8 127043470.859 8  96107379.022 8
G01  22117851.313 7                  22117857.361 7 116230299.150 7                  90568932.765 7
G02  24818534.394 6  24818539.187 3                 130422270.761 6 101627760.644 3
G03  20338439.317 8                  20338445.471 7 106879319.627 8                  83282550.595 7
G04  20503136.460 7                  20503141.546 8 107744924.279 7                  83956940.728 8
G06  23178274.128 6                  23178283.146 7 121802626.859 6                  94911188.338 7
G09  22451965.566 7                  22451974.281 7 117986042.932 7                  91937078.055 7
G17  23335433.921 7                  23335438.726 7 122628658.970 7                  95554728.272 7
G19  22388202.658 7  22388204.454 5                 117650716.399 7  91675962.341 5
G28  24064443.601 5                  24064449.866 6 126459557.57315                  98539899.37816
G31  22388030.431 7                  22388034.517 6 117649996.132 7                  91675274.602 6
R03  20890580.210 8  20890585.379 7 111829023.451 8  86978060.578 7
R04  19373274.941 8  19373278.559 7 103743054.783 8  80689018.792 7
R05  21984554.742 8  21984558.527 7 117520168.043 8  91404487.656 7
R12  23158815.731 5  23158820.190 4 123710259.992 5  96219095.968 4
R18  22580890.333 7  22580897.002 7 120538504.663 7  93752061.459 7
R19  19708891.330 8  19708893.904 7 105429313.997 8  82000560.147 7
R20  21204105.738 6  21204111.319 7 113387900.287 6  88190600.169 7
> 2025 06 15 14 52 15.0000000  0 28
C06  38374690.378 6  38374686.398 6 199827028.322 6 154518959.431 6
C11  23357238.827 7  23357235.840 7 121627292.456 7  94049903.166 7
C12  23284105.178 6  23284102.574 7 121246633.716 6  93755430.556 7
C16  38980571.467 6  38980572.982 7 202982166.975 6 156958614.362 7
C21  22224781.589 7                 115730350.444 7
C22  22625867.834 7                 117819009.373 7
E03  24351835.275 8  24351837.468 8 127969938.656 8  96808298.379 8
E05  22356567.525 8  22356569.383 9 117484521.387 8  88876307.106 9
E13  27871709.997 6  27871715.473 7 146466839.099 6 110801223.314 7
E15  24032669.607 8  24032671.360 8 126292641.876 8  95539487.883 8
E34  24176225.090 8  24176227.230 8 127047169.587 8  96110177.090 8
G01  22119789.201 7                  22119795.226 7 116240483.563 7                  90576868.671 7
G02  24820901.329 6  24820906.273 4                 130434707.035 6 101637451.226 4
G03  20338650.372 7                  20338656.842 7 106880430.040 7                  83283415.869 7
G04  20500925.787 7                  20500931.095 8 107733307.893 7                  83947889.011 8
G06  23174475.969 6                  23174483.942 7 121782662.020 6                  94895631.329 7
G09  22448000.391 7                  22448008.760 7 117965206.126 7                  91920841.604 7
G17  23336569.974 7                  23336575.232 7 122634629.541 7                  95559380.636 7
G19  22388013.108 7  22388015.203 5                 117649720.559 7  91675186.363 5
G28  24065596.963 5                  24065602.558 6 126465616.811 5                  98544620.836 6
G31  22387619.901 7                  22387623.682 6 117647836.852 7                  91673592.047 6
R03  20892251.341 8  20892256.329 7 111837965.720 8  86985015.665 7
R04  19371991.432 8  19371995.192 7 103736182.026 8  80683673.321 7
R05  21980593.388 7  21980597.871 7 117498995.261 7  91388019.947 7
R12  23158535.067 4  23158540.822 3 123708775.847 4  96217941.591 3
R18  22584072.130 7  22584078.044 7 120555487.937 7  93765270.648 7
R19  19709334.369 8  19709336.433 7 105431681.202 8  82002401.294 7
R20  21200386.878 6  21200393.509 7 113368018.674 6  88175136.708 7
> 2025 06 15 14 52 20.0000000  0 28
C06  38373584.441 6  38373579.852 6 199821267.263 6 154514504.614 6
C11  23355538.355 7  23355534.570 7 121618436.230 7  94043054.964 7
C12  23285445.931 6  23285444.088 7 121253619.478 6  93760832.374 7
C16  38979610.150 6  38979612.023 6 202977161.352 6 156954743.686 6
C21  22222925.840 8                 115720687.520 8
C22  22626718.295 7                 117823438.675 7
E03  24349121.346 8  24349123.735 8 127955678.217 8  96797510.450 8
E05  22356497.439 8  22356499.103 8 117484152.019 8  88876027.684 8
E13  27867968.828 6  27867973.656 6 146447175.548 6 110786347.968 6
E15  24030632.116 8  24030634.205 8 126281936.431 8  95531389.280 8
E34  24176930.241 8  24176932.113 9 127050873.951 8  96112979.408 9
G01  22121729.098 7                  22121734.472 7 116250673.644 7                  90584808.982 7
G02  24823267.533 6  24823272.627 4                 130447142.259 6 101647140.986 4
G03  20338863.350 8                  20338869.356 7 106881547.321 8                  83284286.492 7
G04  20498717.460 7                  20498722.460 8 107721701.415 7                  83938845.021 8
G06  23170676.728 6                  23170685.730 7 121762701.802 6                  94880077.934 7
G09  22444035.353 6                  22444044.184 7 117944373.240 6                  91904608.188 7
G17  23337706.586 7                  23337712.865 7 122640606.705 7                  95564038.188 7
G19  22387826.327 7  22387828.173 5                 117648738.481 7  91674421.118 5
G28  24066752.028 5                  24066757.419 6 126471685.729 5                  98549349.862 6
G31  22387211.708 7                  22387215.617 6 117645692.232 7                  91671920.926 6
R03  20893922.367 8  20893927.134 7 111846911.729 8  86991973.665 7
R04  19370709.811 8  19370714.300 7 103729320.177 8  80678336.336 7
R05  21976633.405 8  21976638.371 7 117477826.968 8  91371555.742 7
R12  23158257.337 4  23158266.842 4 123707309.37014
R18  22587254.613 7  22587260.344 7 120572474.242 7  93778482.175 7
R19  19709780.204 8  19709782.603 7 105434066.702 8  82004256.684 7
R20  21196672.270 6  21196677.323 7 113348149.313 6  88159682.763 7
> 2025 06 15 14 52 25.0000000  0 27
C06  38372478.429 6  38372473.869 6 199815507.560 6 154510050.840 6
C11  23353839.963 7  23353835.961 7 121609591.032 7  94036215.304 7
C12  23286789.187 6  23286786.941 7 121260612.618 6  93766239.896 7
C16  38978649.279 6  38978650.695 7 202972156.868 6 156950873.918 7
C21  22221071.488 8                 115711030.039 8
C22  22627569.773 7                 117827870.876 7
E03  24346408.703 8  24346411.056 8 127941422.811 8  96786726.341 8
E05  22356428.237 8  22356429.970 9 117483788.441 8  88875752.635 9
E13  27864226.466 6  27864231.491 6 146427510.536 6 110771471.520 6
E15  24028596.495 8  24028598.233 8 126271237.112 8  95523295.322 8
E34  24177636.273 8  24177638.154 8 127054584.257 8  96115786.234 8
G01  22123669.307 7                  22123674.679 7 116260869.715 7                  90592753.967 7
G02  24825634.029 6  24825638.731 4                 130459576.758 6 101656830.204 4
G03  20339076.626 7                  20339083.590 7 106882671.785 7                  83285162.689 7
G04  20496510.674 7                  20496515.610 8 107710105.167 7                  83929808.979 8
G06  23166880.248 6                  23166888.529 7 121742746.405 6                  94864528.261 7
G09  22440072.384 6                  22440080.696 7 117923544.623 6                  91888378.146 7
G17  23338845.028 7                  23338851.653 7 122646590.739 7                  95568701.046 7
G19  22387641.459 7  22387644.106 5                 117647770.485 7  91673666.818 5
G28  24067908.341 5                  24067914.356 5 126477764.371 5                  98554086.463 5
G31  22386806.104 7                  22386810.462 6 117643562.657 7                  91670261.532 6
R03  20895595.061 8  20895598.827 7 111855861.775 8  86998934.810 7
R04  19369430.531 8  19369434.879 7 103722469.439 8  80673007.984 7
R05  21972673.705 7  21972679.151 6 117456663.440 7  91355095.208 6
R18  22590437.570 7  22590442.700 7 120589463.873 7  93791696.304 7
R19  19710229.692 8  19710232.029 7 105436470.786 8  82006126.526 7
R20  21192958.937 6  21192964.208 7 113328292.661 6  88144238.696 7
> 2025 06 15 14 52 30.0000000  0 27
C06  38371372.325 6  38371368.532 6 199809750.188 6 154505598.848 6
C11  23352143.315 7  23352139.837 7 121600757.811 7  94029384.897 7
C12  23288133.251 6  23288131.459 7 121267614.036 6  93771653.835 7
C16  38977689.201 6  38977690.086 6 202967154.517 6 156947005.789 6
C21  22219218.108 8                 115701378.965 8
C22  22628421.685 7                 117832306.965 7
E03  24343697.469 8  24343699.509 9 127927173.458 8  96775946.795 9
E05  22356360.467 8  22356362.098 9 117483431.647 8  88875482.721 9
E13  27860485.059 6  27860489.191 6 146407844.996 6 110756594.660 6
E15  24026561.751 8  24026563.576 9 126260544.915 8  95515206.748 9
E34  24178343.797 8  24178345.550 9 127058301.541 8  96118598.324 9
G01  22125610.915 7                  22125616.286 7 116271072.729 7                  90600704.360 7
G02  24827999.502 6  24828005.208 4                 130472011.591 6 101666519.634 4
G03  20339292.319 7                  20339299.026 7 106883804.401 7                  83286045.250 7
G04  20494306.185 7                  20494310.880 8 107698520.133 7                  83920781.679 8
G06  23163084.010 6                  23163092.199 7 121722796.913 6                  94848983.214 7
G09  22436110.062 6                  22436117.875 7 117902721.285 6                  91872152.177 7
G17  23339986.271 7                  23339991.690 7 122652582.672 7                  95573370.077 7
G19  22387460.558 7  22387462.917 5                 117646817.541 7  91672924.271 5
G28  24069066.677 5                  24069072.824 6 126483854.055 5                  98558831.635 6
G31  22386403.783 7                  22386408.095 7 117641449.063 7                  91668614.582 7
R03  20897267.992 8  20897272.338 7 111864816.896 8  87005899.880 7
R04  19368153.112 8  19368157.460 7 103715630.965 8  80667689.174 7
R05  21968716.688 7  21968721.515 7 117435505.820 7  91338639.308 7
R18  22593620.969 7  22593626.795 7 120606457.828 7  93804913.822 7
R19  19710682.693 8  19710684.631 7 105438894.411 8  82008011.563 7
R20  21189247.873 6  21189253.563 7 113308449.815 6  88128805.359 7
> 2025 06 15 14 52 35.0000000  0 27
C06  38370267.428 6  38370262.953 6 199803993.974 6 154501147.801 6
C11  23350448.862 7  23350445.344 7 121591935.530 7  94022562.947 7
C12  23289479.703 6  23289477.362 7 121274622.597 6  93777073.293 7
C16  38976728.654 6  38976729.579 6 202962153.185 6 156943138.442 6
C21  22217366.065 8                 115691733.182 8
C22  22629274.324 7                 117836745.783 7
E03  24340986.660 8  24340988.850 8 127912929.001 8  96765170.966 8
E05  22356293.309 8  22356295.298 9 117483080.494 8  88875217.073 9
E13  27856742.397 6  27856746.748 6 146388177.877 6 110741716.610 6
E15  24024528.145 8  24024530.042 8 126249858.696 8  95507122.696 8
E34  24179052.322 8  24179054.058 9 127062024.617 8  96121414.803 9
G01  22127553.605 7                  22127558.941 7 116281281.595 7                  90608659.305 7
G02  24830365.207 6  24830371.133 4                 130484445.551 6 101676208.404 4
G03  20339509.461 7                  20339516.052 7 106884944.050 7                  83286933.294 7
G04  20492103.579 7                  20492108.335 8 107686945.193 7                  83911762.245 8
G06  23159287.886 6                  23159297.037 7 121702852.214 6                  94833441.921 7
G09  22432148.435 6                  22432156.459 7 117881902.142 6                  91855929.463 7
G17  23341127.224 7                  23341132.981 7 122658581.378 7                  95578044.401 7
G19  22387281.955 7  22387284.122 5                 117645878.483 7  91672192.550 5
G28  24070227.365 5                  24070233.300 6 126489953.429 5                  98563584.391 6
G31  22386004.433 7                  22386008.522 7 117639350.341 7                  91666979.194 7
R03  20898941.484 8  20898945.349 7 111873776.023 8  87012868.072 7
R04  19366878.698 8  19366882.540 7 103708803.359 8  80662378.818 7
R05  21964759.348 7  21964763.837 6 117414352.952 7  91322187.095 6
R18  22596806.418 7  22596811.004 7 120623454.965 7  93818133.763 7
R19  19711138.908 8  19711141.126 7 105441336.524 8  82009910.980 7
R20  21185539.090 6  21185545.659 7 113288619.586 6  88113381.864 7
> 2025 06 15 14 52 40.0000000  0 27
C06  38369161.707 6  38369157.921 6 199798239.857 6 154496698.355 6
C11  23348757.235 7  23348753.379 7 121583124.951 7  94015750.043 7
C12  23290826.843 6  23290824.924 7 121281639.181 6  93782498.957 7
C16  38975768.746 6  38975769.408 6 202957153.716 6 156939272.549 6
C21  22215514.968 7                 115682093.544 7
C22  22630127.774 7                 117841188.215 7
E03  24338277.329 8  24338279.319 8 127898690.307 8  96754399.496 8
E05  22356228.089 8  22356229.681 9 117482735.834 8  88874956.344 9
E13  27852999.887 6  27853004.051 6 146368509.989 6 110726837.985 6
E15  24022495.929 8  24022497.851 8 126239179.327 8  95499043.830 8
E34  24179761.935 8  24179763.804 9 127065754.358 8  96124236.324 9
G01  22129497.351 7                  22129502.928 7 116291497.116 7                  90616619.447 7
G02  24832731.722 6  24832737.581 4                 130496879.537 6 101685897.176 4
G03  20339727.747 7                  20339734.336 7 106886091.603 7                  83287827.483 7
G04  20489903.023 7                  20489907.703 8 107675381.192 7                  83902751.343 8
G06  23155493.460 6                  23155502.390 7 121682913.109 6                  94817904.979 7
G09  22428187.567 6                  22428194.949 7 117861088.006 6                  91839710.654 7
G17  23342269.782 7                  23342276.026 7 122664587.693 7                  95582724.656 7
G19  22387106.117 7  22387108.233 5                 117644954.205 7  91671472.314 5
G28  24071389.883 5                  24071396.610 5 126496063.404 5                  98568345.392 5
G31  22385608.079 7                  22385612.318 7 117637267.326 7                  91665356.070 7
R03  20900615.958 8  20900619.652 7 111882739.742 8  87019839.855 7
R04  19365605.523 8  19365609.535 7 103701987.779 8  80657077.806 7
R05  21960803.561 7  21960807.830 6 117393205.585 7  91305739.138 6
R18  22599990.755 7  22599995.358 7 120640456.090 7  93831356.835 7
R19  19711598.697 8  19711601.230 7 105443797.799 8  82011825.318 7
R20  21181833.489 6  21181839.466 7 113268802.735 6  88097968.763 7
> 2025 06 15 14 52 45.0000000  0 28
C06  38368057.339 6  38368053.434 6 199792487.941 6 154492250.604 6
C11  23347067.066 7  23347063.968 7 121574326.319 7  94008946.384 7
C12  23292175.879 6  23292173.972 7 121288663.961 6  93787930.954 7
C16  38974809.020 6  38974809.977 6 202952156.252 6 156935408.183 6
C21  22213664.835 7                 115672460.229 7
C22  22630981.227 7                 117845634.401 7
E03  24335569.153 8  24335570.900 8 127884457.554 8  96743632.508 8
E05  22356163.749 8  22356165.356 8 117482397.847 8  88874700.656 8
E13  27849256.345 6  27849261.326 7 146348841.482 6 110711958.906 7
E15  24020464.878 8  24020466.979 8 126228506.985 8  95490970.272 8
E34  24180472.653 8  24180474.833 9 127069490.932 8  96127063.014 9
G01  22131442.543 7                  22131448.265 7 116301719.496 7                  90624584.925 7
G02  24835096.822 6  24835103.575 4                 130509313.681 6 101695586.070 4
G03  20339947.834 7                  20339953.979 7 106887247.182 7                  83288727.939 7
G04  20487704.150 7                  20487709.440 8 107663828.337 7                  83893749.120 8
G06  23151700.515 6                  23151709.174 7 121662979.897 6                  94802372.618 7
G09  22424227.812 6                  22424235.186 7 117840279.027 6                  91823495.864 7
G17  23343413.932 7                  23343420.672 7 122670601.720 7                  95587410.895 7
G19  22386933.363 7  22386935.281 5                 117644044.858 7  91670763.722 5
G28  24072555.602 5                  24072560.875 5 126502184.168 5                  98573114.812 5
G31  22385214.641 7                  22385219.004 7 117635200.202 7                  91663745.324 7
R03  20902291.503 8  20902295.377 7 111891708.520 8  87026815.572 7
R04  19364335.485 8  19364339.123 7 103695184.150 8  80651786.099 7
R05  21956848.508 7  21956852.634 6 117372064.059 7  91289295.718 6
R12  23156953.172 5                                
R18  22603175.629 7  22603180.812 7 120657461.374 7  93844583.146 7
R19  19712063.484 8  19712065.242 7 105446278.452 8  82013754.710 7
R20  21178130.056 6  21178136.012 7 113248999.438 6  88082566.210 7
> 2025 06 15 14 52 50.0000000  0 28
C06  38366953.154 6  38366949.355 6 199786738.163 6 154487804.526 6
C11  23345380.165 7  23345376.585 7 121565539.544 7  94002151.896 7
C12  23293526.521 6  23293524.606 7 121295696.824 6  93793369.209 7
C16  38973850.021 6  38973850.258 7 202947160.783 6 156931545.366 7
C21  22211816.051 7                 115662833.167 7
C22  22631836.227 7                 117850084.293 7
E03  24332861.973 8  24332863.622 8 127870230.694 8  96732869.994 8
E05  22356100.804 8  22356102.310 9 117482066.453 8  88874449.960 9
E13  27845513.277 6  27845518.478 7 146329172.353 6 110697079.337 7
E15  24018435.399 8  24018437.445 8 126217841.632 8  95482902.001 8
E34  24181185.123 8  24181187.184 9 127073234.285 8  96129894.829 9
G01  22133388.946 7                  22133394.936 7 116311948.609 7                  90632555.672 7
