     3.04           OBSERVATION DATA    Mixed(MIXED)        RINEX VERSION / TYPE
cnvtToRINEX 3.14.0  convertToRINEX OPR  20250615 162725 UTC PGM / RUN BY / DATE 
----------------------------------------------------------- COMMENT             
34K                                                         MARKER NAME         
34K                                                         MARKER NUMBER       
GEODETIC                                                    MARKER TYPE         
GNSS Observer       Trimble                                 OBSERVER / AGENCY   
6203S17886          Geo Explorer 3      5.53                REC # / TYPE / VERS 
                    UNKNOWN EXT     NONE                    ANT # / TYPE        
  3913945.1160  1190294.6585  4877824.9388                  APPROX POSITION XYZ 
        1.3130        0.0000        0.0000                  ANTENNA: DELTA H/E/N
G    6 C1C C2W C2X L1C L2W L2X                              SYS / # / OBS TYPES 
R    4 C1C C2C L1C L2C                                      SYS / # / OBS TYPES 
C    4 C2I C7I L2I L7I                                      SYS / # / OBS TYPES 
E    4 C1X C8X L1X L8X                                      SYS / # / OBS TYPES 
     5.000                                                  INTERVAL            
  2025     6    15     8    28   15.0000000     GPS         TIME OF FIRST OBS   
  2025     6    15     9    38   40.0000000     GPS         TIME OF LAST OBS    
     0                                                      RCV CLOCK OFFS APPL 
  9 R01  1 R07  5 R08  6 R14 -7 R15  0 R16 -1 R17  4 R23  3 GLONASS SLOT / FRQ #
    R24  2                                                  GLONASS SLOT / FRQ #
G L2X -0.25000                                              SYS / PHASE SHIFT   
R L2C -0.25000                                              SYS / PHASE SHIFT   
    18                                                      LEAP SECONDS        
    32                                                      # OF SATELLITES     
   C13   311   302   308   302                              PRN / # OF OBS      
   C19   149     0   148     0                              PRN / # OF OBS      
   C20   453     0   453     0                              PRN / # OF OBS      
   C24   212     0   212     0                              PRN / # OF OBS      
   C26   388     0   388     0                              PRN / # OF OBS      
   C29   453     0   453     0                              PRN / # OF OBS      
   C30   246     0   246     0                              PRN / # OF OBS      
   E02   453   453   453   453                              PRN / # OF OBS      
   E10   453   453   453   453                              PRN / # OF OBS      
   E11   453   453   453   453                              PRN / # OF OBS      
   E12   231   225   226   225                              PRN / # OF OBS      
   E16   452   452   452   452                              PRN / # OF OBS      
   E24   136   132   134   132                              PRN / # OF OBS      
   E25   453   453   453   453                              PRN / # OF OBS      
   E30     1     1     1     1                              PRN / # OF OBS      
   E36   453   453   453   453                              PRN / # OF OBS      
   G02   164    28     0   151    28     0                  PRN / # OF OBS      
   G08   453     0   453   453     0   453                  PRN / # OF OBS      
   G10   453     0   453   453     0   453                  PRN / # OF OBS      
   G16   453   453     0   453   453     0                  PRN / # OF OBS      
   G18   452     0   452   452     0   452                  PRN / # OF OBS      
   G23   453     0   453   453     0   453                  PRN / # OF OBS      
   G27   453     0   453   453     0   453                  PRN / # OF OBS      
   R01    29     0    28     0                              PRN / # OF OBS      
   R07   173   107   160    97                              PRN / # OF OBS      
   R08   453   453   453   453                              PRN / # OF OBS      
   R14   453   453   453   453                              PRN / # OF OBS      
   R15   453   453   453   453                              PRN / # OF OBS      
   R16     1     1     1     1                              PRN / # OF OBS      
   R17   424   406   420   398                              PRN / # OF OBS      
   R23   448     0   447     0                              PRN / # OF OBS      
   R24   453   453   453   453                              PRN / # OF OBS      
DBHZ                                                        SIGNAL STRENGTH UNIT
                                                            END OF HEADER       
>                              2  1
              *** Start of Kinematic Data ***               COMMENT             
> 2025 06 15 08 28 15.0000000  0 26
C13  37780256.355 5  37780258.991 5 196731771.45615 152125450.45415
C20  24401977.004 6                 127067653.20516
C26  24539662.570 6                 127784473.57316
C29  21509466.547 7                 112005462.59117
C30  24217382.612 7                 126106364.56317
E02  24790717.978 7  24790719.279 8 130276127.51417  98553033.81818
E10  24507913.707 7  24507915.846 8 128789948.40117  97428771.86618
E11  23523554.776 7  23523551.982 8 123617294.43317  93515534.38318
E12  26711406.965 5  26711406.143 6 140369431.16715 106188528.95716
E16  25477239.951 7  25477241.997 8 133883762.92317 101282227.52318
E24  27451708.226 5  27451710.775 6 144259830.91415 109131534.56316
E25  24279934.523 8  24279936.889 9 127591895.41818  96522467.50219
E36  25142471.913 7  25142474.580 8 132124751.02117  99951403.99318
G08  22874601.552 6                  22874610.305 6 120207004.16016                  93667721.33916
G10  22077750.934 7                  22077757.876 7 116019457.87217                  90404731.85417
G16  21185468.042 7  21185471.020 6                 111330393.73617  86750966.24216
G18  22236091.490 7                  22236097.720 7 116851611.83317                  91053105.38017
G23  20960300.753 8                  20960305.991 8 110147152.38018                  85828958.14618
G27  20541532.266 8                  20541537.334 7 107946612.63118                  84114185.66117
R07  22366834.354 5                 119731334.34115
R08  21443841.161 7  21443846.816 7 114831010.75617  89312864.41017
R14  20736647.321 7  20736652.405 7 110538066.09017  85973961.12217
R15  21710631.859 7  21710634.232 6 116015152.62417  90233953.39616
R17  23405917.947 5  23405922.390 5 125249790.10015  97416523.29915
R23  20988569.510 7                 112274777.68417
R24  19853655.288 7  19853659.136 7 106166597.13917  82573905.34817
> 2025 06 15 08 28 20.0000000  0 26
C13  37779663.204 5  37779667.206 5 196728691.267 5 152123068.650 5
C20  24398262.409 6                 127048296.948 6
C26  24538770.998 6                 127779835.848 6
C29  21508516.067 7                 112000512.865 7
C30  24218659.496 7                 126113014.244 7
E02  24788413.875 7  24788415.543 8 130264021.381 7  98543875.607 8
E10  24508328.979 7  24508330.147 9 128792125.455 7  97430418.784 9
E11  23522694.589 7  23522692.035 8 123612775.596 7  93512115.905 8
E12  26712564.744 5  26712562.554 6 140375508.031 5 106193126.061 6
E16  25478691.199 7  25478693.103 8 133891388.376 7 101287996.124 8
E24  27453608.789 5  27453612.336 6 144269823.161 5 109139093.591 6
E25  24280430.363 8  24280432.092 9 127594497.993 8  96524436.320 9
E36  25139381.745 7  25139384.678 8 132108513.597 7  99939120.493 8
G08  22870479.783 5                  22870489.242 6 120185347.771 5                  93650846.244 6
G10  22074138.486 8                  22074145.165 7 116000474.204 8                  90389939.396 7
G16  21186122.156 7  21186124.482 5                 111333828.298 7  86753642.509 5
G18  22237352.544 7                  22237358.639 7 116858236.584 7                  91058267.516 7
G23  20959219.373 8                  20959225.107 8 110141471.866 8                  85824531.783 8
G27  20538995.365 8                  20539001.012 8 107933283.504 8                  84103799.337 8
R07  22367335.668 5                 119734031.255 5
R08  21440909.801 8  21440915.119 7 114815312.662 8  89300654.809 7
R14  20737380.450 7  20737385.404 7 110541972.123 7  85976999.125 7
R15  21707571.194 7  21707573.531 6 115998797.484 7  90221232.711 6
R17  23401600.324 5  23401602.748 5 125226679.438 5  97398548.264 5
R23  20989802.405 7                 112281363.563 7
R24  19851329.448 7  19851332.788 7 106154155.608 7  82564228.567 7
>                              3  5
              *** Start of Occupation ***                   COMMENT             
34K                                                         MARKER NAME         
34K                                                         MARKER NUMBER       
  3913945.1160  1190294.6585  4877824.9388                  APPROX POSITION XYZ 
        1.3130        0.0000        0.0000                  ANTENNA: DELTA H/E/N
> 2025 06 15 08 28 25.0000000  0 26
C13  37779071.940 5  37779076.740 5 196725614.677 5 152120689.672 5
C20  24394547.048 6                 127028949.964 6
C26  24537882.580 6                 127775212.757 6
C29  21507567.128 7                 111995571.902 7
C30  24219937.402 7                 126119668.228 7
E02  24786112.447 7  24786113.899 8 130251926.354 7  98534725.806 8
E10  24508744.462 7  24508745.473 9 128794308.298 7  97432070.092 9
E11  23521836.467 7  23521833.673 8 123608264.862 7  93508703.572 8
E12  26713722.137 5  26713719.486 6 140381587.748 5 106197725.296 6
E16  25480143.758 7  25480145.511 8 133899020.645 7 101293769.872 8
E24  27455510.946 5  27455514.243 6 144279817.666 5 109146654.342 6
E25  24280927.360 8  24280929.424 9 127597111.127 8  96526413.133 9
E36  25136292.570 7  25136295.972 8 132092282.461 7  99926841.741 8
G08  22866361.028 5                  22866368.879 6 120163696.919 5                  93633975.421 6
G10  22070528.438 7                  22070535.205 7 115981502.287 7                  90375156.094 7
G16  21186777.834 7  21186781.091 6                 111337278.342 7  86756330.860 6
G18  22238615.955 7                  22238620.765 7 116864868.299 7                  91063435.069 7
G23  20958141.797 8                  20958147.016 8 110135808.631 8                  85820118.877 8
G27  20536460.994 8                  20536467.064 8 107919966.857 8                  84093422.729 8
R07  22367842.506 4                 119736749.372 4
R08  21437981.837 8  21437987.348 7 114799635.349 8  89288461.365 7
R14  20738117.319 8  20738122.340 7 110545899.092 8  85980053.453 7
R15  21704513.340 7  21704516.779 6 115982462.876 7  90208528.015 6
R17  23397282.780 5  23397284.937 5 125203572.172 5  97380575.937 5
R23  20991033.576 7                 112287956.603 7
R24  19849004.888 8  19849007.607 7 106141725.311 8  82554560.573 7
> 2025 06 15 08 28 30.0000000  0 24
C13  37778482.880 5  37778486.808 5 196722541.716 5 152118313.473 5
C20  24390834.232 6                 127009612.374 6
C26  24536998.634 6                 127770604.243 6
C29  21506620.577 7                 111990639.708 7
C30  24221215.829 7                 126126326.473 7
E02  24783812.924 7  24783814.392 8 130239842.485 7  98525584.438 8
E10  24509160.895 7  24509161.981 9 128796496.997 7  97433725.813 9
E11  23520979.363 7  23520976.867 8 123603762.313 7  93505297.426 8
E12  26714877.019 5  26714876.910 7 140387670.366 5 106202326.768 7
E16  25481597.859 7  25481599.217 8 133906659.737 7 101299548.781 8
E24  27457414.210 5  27457416.662 6 144289814.421 5 109154216.813 6
E25  24281426.729 8  24281428.689 9 127599734.836 8  96528397.943 9
E36  25133205.130 7  25133208.480 8 132076057.606 7  99914567.756 8
G08  22862241.467 5                  22862249.830 6 120142051.681 5                  93617109.019 6
G10  22066919.888 7                  22066926.866 7 115962542.147 7                  90360381.987 7
G16  21187437.505 7  21187441.018 6                 111340743.951 7  86759031.328 6
G18  22239878.767 7                  22239883.997 7 116871506.968 7                  91068608.048 7
G23  20957066.859 7                  20957072.450 8 110130162.710 7                  85815719.447 8
G27  20533929.338 8                  20533935.243 8 107906662.706 8                  84083055.857 8
R08  21435058.473 7  21435064.029 7 114783978.689 7  89276283.988 7
R14  20738857.589 8  20738862.684 7 110549846.729 8  85983123.821 7
R15  21701461.657 7  21701463.910 6 115966148.966 7  90195839.426 6
R23  20992268.039 7                 112294556.930 7
R24  19846682.993 8  19846685.911 7 106129306.376 8  82544901.385 7
> 2025 06 15 08 28 35.0000000  0 24
C13  37777893.817 5  37777897.405 5 196719471.951 5 152115939.719 5
C20  24387122.145 6                 126990283.620 6
C26  24536116.330 6                 127766009.813 6
C29  21505675.102 7                 111985715.761 7
C30  24222495.595 7                 126132988.476 7
E02  24781515.424 7  24781516.968 9 130227769.246 7  98516451.105 9
E10  24509578.526 7  24509579.564 9 128798691.008 7  97435385.532 9
E11  23520123.816 7  23520121.525 8 123599267.409 7  93501897.068 8
E12  26716036.543 6  26716034.857 7 140393755.329 6 106206930.011 7
E16  25483052.078 7  25483054.067 8 133914305.155 7 101305332.483 8
E24  27459315.157 5  27459319.379 6 144299812.994 5 109161780.625 6
E25  24281928.286 7  24281929.885 9 127602368.607 7  96530390.365 9
E36  25130118.698 7  25130122.122 8 132059838.547 7  99902298.153 8
G08  22858123.506 5                  22858131.746 6 120120411.482 5                  93600246.539 6
G10  22063313.886 7                  22063321.197 7 115943593.298 7                  90345616.672 7
G16  21188099.780 7  21188103.432 6                 111344224.558 7  86761743.483 6
G18  22241143.058 7                  22241149.081 7 116878152.094 7                  91073786.084 7
G23  20955996.625 7                  20956001.276 8 110124533.583 7                  85811333.103 8
G27  20531400.210 7                  20531405.918 7 107893370.572 7                  84072698.344 7
R08  21432138.672 8  21432143.792 7 114768342.241 8  89264122.315 7
R14  20739602.631 8  20739607.117 7 110553814.640 8  85986209.979 7
R15  21698412.994 7  21698414.520 6 115949855.083 7  90183166.373 6
R23  20993504.059 7                 112301164.162 7
R24  19844362.094 8  19844365.052 7 106116898.200 8  82535250.586 7
> 2025 06 15 08 28 40.0000000  0 26
C13  37777302.761 5  37777308.449 5 196716405.515 5 152113568.553 5
C20  24383412.875 6                 126970963.922 6
C26  24535236.859 6                 127761429.729 6
C29  21504731.026 7                 111980800.359 7
C30  24223775.841 7                 126139654.526 7
E02  24779220.223 7  24779221.550 8 130215706.897 7  98507326.024 8
E10  24509997.218 7  24509998.076 9 128800890.551 7  97437049.472 9
E11  23519270.360 7  23519267.686 8 123594780.416 7  93498502.684 8
E12  26717194.613 6  26717193.375 7 140399842.959 6 106211535.272 7
E16  25484507.970 7  25484510.173 8 133921957.113 7 101311121.120 8
E24  27461219.378 5  27461222.490 6 144309813.586 5 109169345.974 6
E25  24282431.466 7  24282433.033 9 127605012.672 7  96532390.580 9
E36  25127033.589 7  25127036.891 8 132043625.531 7  99890033.126 8
G08  22854006.884 6                  22854014.861 6 120098776.644 6                  93583388.229 6
G10  22059710.847 7                  22059717.491 7 115924656.041 7                  90330860.356 7
G16  21188765.157 7  21188768.413 6                 111347720.438 7  86764467.524 6
G18  22242409.038 7                  22242414.649 7 116884803.919 7                  91078969.333 7
G23  20954927.854 7                  20954933.199 8 110118921.466 7                  85806960.020 8
G27  20528873.526 8                  20528879.085 8 107880090.664 8                  84062350.360 8
R07  22369375.860 5                                
R08  21429222.780 8  21429227.418 7 114752726.352 8  89251976.632 7
R14  20740351.301 8  20740355.669 7 110557803.099 8  85989312.108 7
R15  21695367.227 7  21695369.462 6 115933581.513 7  90170509.145 6
R17  23384336.392 5                 125134269.22615
R23  20994740.713 7                 112307778.429 7
R24  19842043.532 8  19842046.792 7 106104501.022 8  82525608.355 7
> 2025 06 15 08 28 45.0000000  0 26
C13  37776714.591 5  37776720.565 5 196713342.677 5 152111200.160 5
C20  24379704.715 6                 126951653.539 6
C26  24534360.321 6                 127756864.106 6
C29  21503788.796 7                 111975893.595 7
C30  24225056.174 7                 126146324.685 7
E02  24776926.701 7  24776928.312 8 130203655.590 7  98498209.296 8
E10  24510416.639 7  24510417.814 9 128803095.771 7  97438717.695 9
E11  23518418.180 7  23518415.363 8 123590301.438 7  93495114.361 8
E12  26718352.141 6  26718352.479 7 140405933.323 6 106216142.585 7
E16  25485965.773 7  25485967.572 8 133929615.781 7 101316914.834 8
E24  27463122.064 5  27463125.888 6 144319816.250 5 109176912.931 6
E25  24282936.813 8  24282938.134 9 127607667.178 8  96534398.685 9
E36  25123949.398 7  25123952.802 8 132027418.696 7  99877772.765 8
G08  22849890.212 6                  22849898.777 6 120077147.325 6                  93566534.224 6
G10  22056109.729 7                  22056116.275 7 115905730.477 7                  90316113.177 7
G16  21189433.320 7  21189437.069 6                 111351231.659 7  86767203.544 6
G18  22243676.524 8                  22243681.630 7 116891462.592 8                  91084157.892 7
G23  20953864.120 7                  20953868.615 8 110113326.537 7                  85802600.339 8
G27  20526348.006 7                  20526354.107 8 107866823.154 7                  84052012.055 8
R07  22369895.198 5                 119747825.50215
R08  21426309.303 7  21426314.978 7 114737131.047 7  89239846.976 7
R14  20741103.171 8  20741107.900 7 110561812.069 8  85992430.206 7
R15  21692324.864 7  21692328.356 6 115917328.557 7  90157867.951 6
R17  23380031.830 4  23380018.886 5 125111174.151 4  97308717.25415
R23  20995976.645 7                 112314399.773 7
R24  19839727.557 8  19839730.637 7 106092115.085 8  82515974.847 7
> 2025 06 15 08 28 50.0000000  0 25
C13  37776127.866 5  37776133.001 5 196710283.093 5 152108834.285 5
C20  24375998.486 5                 126932352.077 5
C26  24533488.133 6                 127752312.710 6
C29  21502848.516 7                 111970995.234 7
C30  24226338.874 7                 126152998.755 7
E02  24774635.588 7  24774637.034 8 130191615.052 7  98489100.706 8
E10  24510837.825 8  24510838.501 8 128805306.412 8  97440390.031 8
E11  23517566.848 7  23517564.525 8 123585830.202 7  93491731.905 8
E12  26719511.663 6  26719511.997 7 140412026.199 6 106220751.789 7
E16  25487423.758 7  25487426.265 8 133937280.829 7 101322713.381 8
E24  27465027.815 6  27465029.748 6 144329820.858 6 109184481.288 6
E25  24283443.344 7  24283445.194 9 127610331.851 7  96536414.482 9
E36  25120866.262 7  25120869.860 8 132011217.773 7  99865516.868 8
G08  22845774.969 6                  22845783.855 6 120055523.220 6                  93549684.310 6
G10  22052510.884 7                  22052517.230 7 115886816.366 7                  90301374.922 7
G16  21190104.667 7  21190107.932 6                 111354758.012 7  86769951.352 6
G18  22244944.887 8                  22244950.290 7 116898127.800 8                  91089351.561 7
G23  20952802.455 7                  20952806.636 8 110107748.478 7                  85798253.824 8
G27  20523825.901 8                  20523832.140 8 107853567.804 8                  84041683.196 8
R07  22370414.188 5  22370432.299 4 119750647.606 5  93139414.32014
R08  21423401.243 7  21423406.782 7 114721556.217 7  89227733.238 7
R14  20741858.541 8  20741863.404 7 110565841.491 8  85995564.203 7
R15  21689287.331 7  21689290.019 6 115901095.813 7  90145242.490 6
R23  20997215.648 7                 112321028.024 7
R24  19837413.223 8  19837416.598 7 106079740.132 8  82506349.879 7
> 2025 06 15 08 28 55.0000000  0 25
C13  37775539.574 5  37775546.765 5 196707226.053 5 152106470.452 5
C20  24372294.595 6                 126913059.088 6
C26  24532618.462 6                 127747774.869 6
C29  21501908.808 7                 111966104.614 7
C30  24227620.777 7                 126159676.073 7
E02  24772346.249 7  24772347.696 8 130179584.661 7  98479999.796 8
E10  24511258.895 8  24511260.163 9 128807521.814 8  97442065.963 9
E11  23516717.727 7  23516715.042 8 123581366.075 7  93488354.811 8
E12  26720671.877 6  26720671.817 7 140418120.906 6 106225362.385 7
E16  25488883.595 7  25488886.020 8 133944951.671 7 101328516.303 8
E24  27466929.133 5  27466933.780 6 144339826.599 5 109192050.577 6
E25  24283952.127 8  24283954.062 9 127613006.057 8  96538437.496 9
E36  25117784.387 7  25117787.916 8 131995022.122 7  99853264.969 8
G08  22841660.888 6                  22841669.782 6 120033903.662 6                  93532837.898 6
G10  22048913.758 8                  22048919.809 7 115867913.055 8                  90286645.078 7
G16  21190778.143 7  21190782.347 6                 111358298.797 7  86772710.409 6
G18  22246214.345 8                  22246219.798 7 116904798.929 8                  91094549.854 7
G23  20951744.490 7                  20951748.459 8 110102186.696 7                  85793919.969 8
G27  20521305.233 8                  20521311.762 7 107840323.942 8                  84031363.309 7
R07  22370945.260 5  22370964.538 4 119753489.768 5  93141624.834 4
R08  21420496.061 7  21420501.740 7 114706001.152 7  89215634.882 7
R14  20742618.232 8  20742623.146 7 110569890.486 8  85998713.377 7
R15  21686253.978 7  21686256.753 6 115884882.695 7  90132632.291 6
R23  20998456.800 7                 112327662.504 7
R24  19835101.117 8  19835104.382 7 106067375.430 8  82496732.883 7
> 2025 06 15 08 29  0.0000000  0 25
C13  37774955.396 5  37774959.656 5 196704171.957 5 152104108.827 5
C20  24368589.658 6                 126893774.684 6
C26  24531748.440 5                 127743250.945 5
C29  21500971.057 7                 111961221.988 7
C30  24228904.206 7                 126166356.864 7
E02  24770058.610 7  24770060.356 9 130167564.634 7  98470906.732 9
E10  24511681.212 8  24511682.786 8 128809742.219 8  97443745.687 8
E11  23515869.694 7  23515866.972 8 123576909.301 7  93484983.300 8
E12  26721831.719 6  26721832.060 7 140424217.726 6 106229974.563 7
E16  25490344.249 7  25490346.938 8 133952628.486 7 101334323.758 8
E24  27468834.066 6  27468838.149 6 144349833.844 6 109199620.924 6
E25  24284462.460 8  24284464.791 9 127615690.011 8  96540467.883 9
E36  25114703.944 7  25114707.031 8 131978831.990 7  99841017.249 8
G08  22837547.500 6                  22837556.570 6 120012288.977 6                  93515995.302 6
G10  22045318.041 8                  22045325.209 7 115849020.800 8                  90271923.840 7
G16  21191454.765 7  21191458.545 6                 111361854.305 7  86775480.926 6
G18  22247485.267 8                  22247490.132 7 116911476.191 8                  91099752.910 7
G23  20950689.309 7                  20950693.355 8 110096641.440 7                  85789598.979 8
G27  20518787.594 8                  20518793.548 8 107827091.815 8                  84021052.571 8
R07  22371478.067 5  22371495.580 4 119756352.169 5  93143851.119 4
R08  21417595.036 8  21417600.749 7 114690466.123 8  89203552.097 7
R14  20743381.150 8  20743386.299 7 110573959.396 8  86001878.084 7
R15  21683223.283 7  21683226.355 7 115868689.375 7  90120037.521 7
R23  20999698.297 7                 112334303.339 7
R24  19832791.429 8  19832793.931 7 106055021.271 8  82487124.105 7
> 2025 06 15 08 29  5.0000000  0 26
C13  37774369.046 5  37774374.004 5 196701121.570 5 152101750.083 5
C20  24364887.813 6                 126874499.792 6
C26  24530881.136 5                 127738741.622 5
C29  21500035.436 7                 111956348.215 7
C30  24230188.101 7                 126173041.998 7
E02  24767773.881 7  24767775.115 8 130155555.884 7  98461822.206 8
E10  24512105.106 8  24512106.406 8 128811968.521 8  97445429.870 8
E11  23515022.520 7  23515020.414 8 123572460.736 7  93481617.984 8
E12  26722992.234 6  26722992.951 7 140430317.464 6 106234588.983 7
E16  25491806.732 7  25491809.145 8 133960312.158 7 101340136.397 8
E24  27470740.914 6  27470742.876 6 144359843.437 6 109207193.104 6
E25  24284975.357 8  24284977.561 9 127618384.604 8  96542506.315 9
E36  25111623.963 7  25111627.338 8 131962648.263 7  99828774.361 8
G08  22833435.740 6                  22833444.524 6 119990680.096 6                  93499157.292 6
G10  22041724.942 8                  22041732.103 7 115830140.495 8                  90257211.917 7
G16  21192134.353 7  21192138.116 5                 111365425.354 7  86778263.558 5
G18  22248756.868 8                  22248762.195 7 116918160.471 8                  91104961.443 7
G23  20949637.158 7                  20949641.242 8 110091113.537 7                  85785291.521 8
G27  20516271.607 8                  20516277.969 7 107813872.347 8                  84010751.697 7
R07  22372015.927 5  22372030.316 5 119759235.520 5  93146093.694 5
R08  21414698.437 7  21414703.987 7 114674951.956 7  89191485.523 7
R14  20744148.542 8  20744153.673 7 110578049.153 8  86005058.997 7
R15  21680195.784 7  21680200.383 7 115852516.894 7  90107458.934 7
R17  23362764.500 5                 125018821.84515
R23  21000941.017 7                 112340951.558 7
R24  19830482.096 8  19830485.628 7 106042678.495 8  82477524.164 7
> 2025 06 15 08 29 10.0000000  0 26
C13  37773785.408 5  37773789.542 5 196698074.318 5 152099393.774 5
C20  24361187.716 6                 126855233.839 6
C26  24530016.422 5                 127734246.522 5
C29  21499100.846 7                 111951482.777 7
C30  24231473.141 7                 126179730.933 7
E02  24765490.749 7  24765491.967 8 130143557.859 7  98452745.777 8
E10  24512529.846 8  24512531.163 8 128814200.136 8  97447118.075 8
E11  23514177.369 7  23514175.365 8 123568019.852 7  93478258.483 8
E12  26724153.614 5  26724154.228 7 140436419.651 5 106239205.212 7
E16  25493269.616 7  25493272.484 8 133968002.171 7 101345953.818 8
E24  27472646.025 5  27472648.026 6 144369854.824 5 109214766.587 6
E25  24285490.067 8  24285492.247 9 127621089.258 8  96544552.366 9
E36  25108545.636 7  25108548.780 8 131946470.353 7  99816535.893 8
G08  22829324.825 6                  22829333.552 6 119969076.309 6                  93482323.165 6
G10  22038134.956 8                  22038141.660 7 115811271.626 8                  90242508.918 7
G16  21192816.840 7  21192820.029 5                 111369011.401 7  86781057.864 5
G18  22250029.917 8                  22250035.285 7 116924851.209 8                  91110175.011 7
G23  20948588.514 8                  20948593.049 8 110085602.465 8                  85780997.205 8
G27  20513758.207 8                  20513764.992 8 107800664.956 8                  84000460.227 8
R07  22372566.343 6  22372569.646 4 119762139.490 6  93148352.339 4
R08  21411804.932 7  21411809.768 7 114659458.165 7  89179434.849 7
R14  20744920.082 8  20744924.719 7 110582159.229 8  86008255.713 7
R15  21677174.894 7  21677177.929 7 115836364.615 7  90094896.044 7
R17  23358442.305 5  23358446.286 5 124995740.689 5  97218923.94615
R23  21002184.010 7                 112347606.542 7
R24  19828175.805 8  19828179.369 7 106030346.473 8  82467932.597 7
> 2025 06 15 08 29 15.0000000  0 26
C13  37773200.285 5  37773205.067 5 196695030.276 5 152097039.926 5
C20  24357489.118 6                 126835976.831 6
C26  24529157.188 5                 127729765.430 5
C29  21498167.638 7                 111946625.598 7
C30  24232758.575 7                 126186423.592 7
E02  24763209.385 7  24763210.813 8 130131570.522 7  98443677.433 8
E10  24512955.595 8  24512956.793 9 128816437.010 8  97448810.249 9
E11  23513333.625 7  23513331.730 8 123563586.560 7  93474904.729 8
E12  26725315.933 5  26725315.883 7 140442524.151 5 106243823.194 7
E16  25494733.915 7  25494736.988 8 133975698.428 7 101351775.964 8
E24  27474552.142 5  27474553.568 6 144379867.838 5 109222341.353 6
E25  24286006.700 8  24286008.840 9 127623803.938 8  96546606.002 9
E36  25105467.435 7  25105471.339 8 131930298.240 7  99804301.800 8
G08  22825214.784 6                  22825223.890 6 119947477.733 6                  93465493.090 6
G10  22034546.350 7                  22034553.037 7 115792414.114 7                  90227814.747 7
G16  21193502.162 7  21193505.086 5                 111372612.380 7  86783863.824 5
G18  22251304.202 8                  22251309.799 7 116931548.359 8                  91115393.550 7
G23  20947542.931 8                  20947547.178 8 110080108.135 8                  85776715.913 8
G27  20511248.009 8                  20511254.209 8 107787469.590 8                  83990178.128 8
R07  22373122.220 5  22373113.826 3 119765063.953 5  93150626.817 3
R08  21408914.470 8  21408920.691 6 114643984.806 8  89167400.024 6
R14  20745694.802 8  20745699.493 7 110586289.420 8  86011468.053 7
R15  21674153.445 6  21674159.521 7 115820232.600 6  90082348.930 7
R17  23354125.742 5  23354132.924 5 124972662.49715  97200974.23515
R23  21003429.569 6                 112354268.313 6
R24  19825872.188 8  19825875.455 7 106018025.326 8  82458349.479 7
> 2025 06 15 08 29 20.0000000  0 25
C13  37772614.509 5  37772620.114 5 196691988.488 5 152094687.769 5
C20  24353794.101 6                 126816727.936 6
C26  24528298.187 5                 127725297.592 5
C29  21497236.469 7                 111941775.859 7
C30  24234044.434 7                 126193119.194 7
E02  24760929.996 7  24760931.540 8 130119593.035 7  98434616.536 8
E10  24513381.647 8  24513383.272 9 128818678.348 8  97450505.798 9
E11  23512491.478 7  23512489.395 8 123559160.063 7  93471556.111 8
E12  26726478.482 6  26726477.809 7 140448630.145 6 106248442.313 7
E16  25496200.188 7  25496202.632 8 133983400.091 7 101357602.204 8
E24  27476458.254 5  27476459.217 6 144389881.736 5 109229916.788 6
E25  24286525.137 8  24286527.187 9 127626527.806 8  96548666.577 9
E36  25102391.573 7  25102394.830 8 131914131.107 7  99792071.479 8
G08  22821106.799 6                  22821114.161 6 119925883.478 6                  93448666.355 6
G10  22030960.322 8                  22030966.521 7 115773567.151 8                  90213128.790 7
G16  21194190.065 7  21194192.823 5                 111376227.455 7  86786680.759 5
G18  22252580.030 8                  22252584.950 7 116938251.078 8                  91120616.424 7
G23  20946500.283 8                  20946504.832 8 110074629.763 8                  85772447.042 8
G27  20508738.706 8                  20508744.945 8 107774285.452 8                  83979904.776 8
R08  21406028.357 7  21406034.531 6 114628530.809 7  89155380.247 6
R14  20746473.523 8  20746478.132 7 110590438.863 8  86014695.376 7
R15  21671138.219 6  21671143.946 7 115804119.810 6  90069816.772 7
R17  23349811.315 5  23349821.084 5 124949586.164 5  97183025.980 5
R23  21004677.389 7                 112360935.867 7
R24  19823569.554 8  19823573.498 7 106005714.156 8  82448774.145 7
> 2025 06 15 08 29 25.0000000  0 25
C13  37772031.243 5  37772035.596 4 196688949.031 5 152092337.525 4
C20  24350098.967 6                 126797487.179 6
C26  24527442.288 5                 127720843.101 5
C29  21496306.319 7                 111936933.630 7
C30  24235330.330 7                 126199817.795 7
E02  24758653.448 7  24758654.173 8 130107625.464 7  98425563.150 8
E10  24513809.555 8  24513810.609 8 128820924.150 8  97452204.729 8
E11  23511650.180 7  23511648.354 8 123554740.408 7  93468212.666 8
E12  26727640.383 6  26727640.001 7 140454737.742 6 106253062.648 7
E16  25497666.425 7  25497669.280 8 133991107.231 7 101363432.594 8
E24  27478362.278 6  27478365.059 6 144399896.604 6 109237492.932 6
E25  24287045.318 8  24287047.282 9 127629260.923 8  96550734.160 9
E36  25099316.008 7  25099319.299 8 131897968.987 7  99779844.948 8
G08  22816997.424 6                  22817005.511 6 119904293.613 6                  93431843.110 6
G10  22027375.931 8                  22027382.113 7 115754730.804 8                  90198451.107 7
G16  21194880.347 7  21194883.261 5                 111379856.678 7  86789508.726 5
G18  22253856.560 7                  22253861.429 7 116944959.410 7                  91125843.680 7
G23  20945460.655 8                  20945465.706 8 110069167.388 8                  85768190.648 8
G27  20506232.663 8                  20506238.362 8 107761112.617 8                  83969640.225 8
R08  21403147.843 8  21403151.598 6 114613096.541 8  89143375.828 6
R14  20747254.906 8  20747260.092 7 110594607.693 8  86017937.801 7
R15  21668127.121 6  21668132.408 7 115788026.492 6  90057299.804 7
R17  23345499.560 4                                
R23  21005924.258 7                 112367609.454 7
R24  19821269.471 8  19821273.403 7 105993412.950 8  82439206.555 7
> 2025 06 15 08 29 30.0000000  0 25
C13  37771447.031 5  37771452.688 4 196685912.707 5 152089989.611 4
C20  24346406.418 6                 126778255.444 6
C26  24526588.982 6                 127716402.644 6
C29  21495377.281 7                 111932099.627 7
C30  24236617.160 7                 126206520.077 7
E02  24756377.655 7  24756378.847 8 130095668.556 7  98416517.818 8
E10  24514237.584 8  24514238.999 8 128823175.182 8  97453907.624 8
E11  23510811.195 7  23510808.780 8 123550328.311 7  93464874.932 8
E12  26728803.072 6  26728802.672 7 140460847.630 6 106257684.729 7
E16  25499134.362 7  25499137.120 8 133998820.550 7 101369267.660 8
E24  27480270.487 5  27480271.120 6 144409913.104 5 109245070.319 6
E25  24287567.175 8  24287569.318 9 127632004.002 8  96552809.276 9
E36  25096241.221 7  25096244.813 8 131881812.641 7  99767622.789 8
G08  22812890.837 6                  22812897.956 6 119882708.879 6                  93415023.839 6
G10  22023793.231 8                  22023799.921 7 115735905.808 8                  90183782.278 7
G16  21195573.734 7  21195577.008 5                 111383500.780 7  86792348.287 5
G18  22255133.872 7                  22255139.719 7 116951674.067 7                  91131075.889 7
G23  20944423.923 7                  20944429.527 8 110063721.746 7                  85763947.287 8
G27  20503727.734 8                  20503733.583 8 107747951.800 8                  83959385.046 8
R08  21400268.856 8  21400273.336 7 114597682.584 8  89131387.188 7
R14  20748040.594 7  20748045.821 7 110598796.394 7  86021195.686 7
R15  21665118.998 6  21665123.964 7 115771953.417 6  90044798.517 7
R17  23341190.469 5  23341197.424 5 124903440.39615  97147134.78815
R23  21007172.684 7                 112374289.658 7
R24  19818970.783 8  19818974.953 7 105981122.583 8  82429647.397 7
> 2025 06 15 08 29 35.0000000  0 25
C13  37770862.868 5  37770869.991 5 196682879.480 5 152087644.118 5
C20  24342715.095 6                 126759032.658 6
C26  24525740.039 6                 127711976.240 6
C29  21494450.702 7                 111927273.873 7
C30  24237904.856 7                 126213226.100 7
E02  24754104.208 7  24754105.493 8 130083722.331 7  98407480.575 8
E10  24514666.797 8  24514668.336 9 128825431.446 8  97455614.473 9
E11  23509973.111 7  23509970.595 8 123545923.823 7  93461542.965 8
E12  26729966.236 6  26729965.802 7 140466959.809 6 106262308.543 7
E16  25500602.929 7  25500606.124 8 134006540.099 7 101375107.443 8
E24  27482174.952 5  27482177.495 7 144419931.272 5 109252648.952 7
E25  24288091.092 8  24288093.290 9 127634757.079 8  96554891.965 9
E36  25093167.817 7  25093171.466 8 131865662.078 7  99755405.005 8
G08  22808783.703 6                  22808791.376 6 119861129.316 6                  93398208.592 6
G10  22020213.758 8                  22020219.545 7 115717092.223 8                  90169122.357 7
G16  21196270.482 7  21196273.557 5                 111387159.754 7  86795199.420 5
G18  22256413.598 7                  22256418.226 7 116958395.095 7                  91136313.047 7
G23  20943391.185 8                  20943396.349 8 110058292.861 8                  85759716.979 8
G27  20501225.907 8                  20501231.116 8 107734803.045 8                  83949139.269 8
R08  21397393.098 8  21397398.432 6 114582288.968 8  89119414.388 6
R14  20748829.640 7  20748835.602 7 110603005.159 7  86024469.172 7
R15  21662115.860 7  21662120.499 7 115755900.547 7  90032312.958 7
R17  23336883.804 6  23336885.847 5 124880371.655 6  97129192.472 5
R23  21008422.012 7                 112380976.479 7
R24  19816674.192 8  19816678.785 7 105968842.935 8  82420096.563 7
> 2025 06 15 08 29 40.0000000  0 25
C13  37770279.834 4  37770287.836 4 196679848.593 4 152085300.493 4
C20  24339024.824 6                 126739818.118 6
C26  24524892.001 6                 127707563.210 6
C29  21493525.371 7                 111922455.673 7
C30  24239193.289 7                 126219935.106 7
E02  24751833.026 7  24751834.085 8 130071786.083 7  98398450.884 8
E10  24515097.127 8  24515098.515 8 128827692.233 8  97457324.731 8
E11  23509135.744 7  23509133.752 8 123541526.178 7  93458216.180 8
E12  26731129.847 6  26731129.247 7 140473073.599 6 106266933.579 7
E16  25502073.052 7  25502076.188 8 134014265.157 7 101380951.384 8
E24  27484083.092 5  27484083.992 7 144429950.408 5 109260228.321 7
E25  24288616.897 8  24288618.984 9 127637519.421 8  96556981.654 9
E36  25090094.931 7  25090099.075 8 131849516.580 7  99743191.056 8
G08  22804677.447 6                  22804685.266 6 119839554.244 6                  93381396.841 6
G10  22016635.453 8                  22016641.410 7 115698289.295 8                  90154470.747 7
G16  21196969.397 7  21196972.746 6                 111390832.907 7  86798061.616 6
G18  22257693.359 7                  22257698.393 8 116965121.760 7                  91141554.606 8
G23  20942361.229 7                  20942366.410 8 110052879.996 7                  85755499.167 8
G27  20498725.828 8                  20498731.340 8 107721665.659 8                  83938902.336 8
R08  21394522.610 7  21394527.687 7 114566915.043 7  89107456.892 7
R14  20749623.744 8  20749628.870 7 110607233.393 8  86027757.798 7
R15  21659114.976 6  21659119.579 7 115739867.153 6  90019842.555 7
R17  23332572.762 5  23332574.882 5 124857305.071 5  97111251.827 5
R23  21009673.503 7                 112387669.274 7
R24  19814380.012 8  19814383.773 7 105956573.332 8  82410553.527 7
> 2025 06 15 08 29 45.0000000  0 25
C13  37769700.957 4  37769706.850 4 196676821.00714 152082959.37014
C20  24335333.994 6                 126720612.788 6
C26  24524047.031 6                 127703164.327 6
C29  21492602.057 7                 111917645.906 7
C30  24240482.847 7                 126226648.019 7
E02  24749563.961 7  24749564.752 8 130059860.712 7  98389429.407 8
E10  24515528.650 8  24515529.717 9 128829958.422 8  97459039.086 9
E11  23508300.848 7  23508298.381 8 123537136.310 7  93454895.275 8
E12  26732293.912 6  26732293.237 7 140479189.861 6 106271560.471 7
E16  25503544.486 7  25503547.407 8 134021996.569 7 101386800.130 8
E24  27485988.334 5  27485990.924 7 144439971.348 5 109267809.076 7
E25  24289144.404 8  24289146.610 9 127640291.944 8  96559079.055 9
E36  25087023.990 7  25087027.856 8 131833377.077 7  99730981.637 8
G08  22800574.423 6                  22800581.174 6 119817984.538 6                  93364589.286 6
G10  22013059.275 8                  22013065.591 7 115679497.954 8                  90139828.178 7
G16  21197670.894 7  21197674.618 5                 111394521.101 7  86800935.539 5
G18  22258974.289 7                  22258979.785 7 116971854.938 7                  91146801.245 7
G23  20941334.470 7                  20941339.242 8 110047484.058 7                  85751294.526 8
G27  20496228.326 8                  20496234.049 8 107708540.501 8                  83928674.940 8
R08  21391655.175 7  21391660.863 7 114551561.650 7  89095515.369 7
R14  20750420.091 8  20750425.323 7 110611481.705 8  86031062.025 7
R15  21656119.302 7  21656123.354 7 115723854.298 7  90007388.092 7
R17  23328262.770 5  23328265.589 5 124834241.438 5  97093313.423 5
R23  21010926.387 7                 112394368.850 7
R24  19812087.573 8  19812090.927 7 105944314.802 8  82401019.108 7
> 2025 06 15 08 29 50.0000000  0 25
C13  37769121.656 4  37769126.324 5 196673796.750 4 152080620.856 5
C20  24331647.215 6                 126701416.675 6
C26  24523206.617 6                 127698779.814 6
C29  21491680.125 7                 111912844.596 7
C30  24241772.675 7                 126233364.855 7
E02  24747296.608 7  24747297.530 8 130047946.263 7  98380416.199 8
E10  24515961.124 8  24515961.961 9 128832230.061 8  97460757.556 9
E11  23507466.959 7  23507464.546 8 123532754.271 7  93451580.294 8
E12  26733457.936 6  26733457.657 7 140485308.613 6 106276189.256 7
E16  25505016.599 7  25505019.911 8 134029734.419 7 101392653.733 8
E24  27487895.684 5  27487898.290 7 144449994.172 5 109275391.247 7
E25  24289673.942 7  24289676.156 9 127643074.642 7  96561184.147 9
E36  25083954.606 7  25083957.760 8 131817243.577 7  99718776.743 8
G08  22796471.221 6                  22796477.378 6 119796420.216 6                  93347785.949 6
G10  22009486.011 8                  22009492.123 7 115660718.271 8                  90125194.686 7
G16  21198375.779 7  21198379.706 6                 111398224.397 7  86803821.219 6
G18  22260257.094 7                  22260262.376 7 116978594.688 7                  91152052.984 7
G23  20940310.867 7                  20940315.726 8 110042105.106 7                  85747103.110 8
G27  20493733.112 8                  20493738.790 8 107695427.650 8                  83918457.141 8
R08  21388792.710 7  21388797.695 7 114536228.972 7  89083589.954 7
R14  20751221.546 8  20751226.208 7 110615750.410 8  86034382.130 7
R15  21653126.432 7  21653130.372 7 115707861.810 7  89994949.479 7
R17  23323955.883 5  23323956.554 5 124811180.741 5  97075377.331 5
R23  21012180.989 7                 112401075.443 7
R24  19809796.788 8  19809800.995 7 105932067.240 8  82391493.232 7
> 2025 06 15 08 29 55.0000000  0 25
C13  37768542.191 5  37768545.873 4 196670775.293 5 152078284.472 4
C20  24327962.998 6                 126682229.181 6
C26  24522366.074 5                 127694408.948 5
C29  21490759.390 7                 111908051.186 7
C30  24243063.292 7                 126240085.071 7
E02  24745031.503 7  24745032.251 8 130036042.153 7  98371410.810 8
E10  24516394.194 8  24516395.140 9 128834506.557 8  97462479.707 9
E11  23506634.007 7  23506632.049 8 123528379.419 7  93448270.754 8
E12  26734622.812 6  26734622.437 7 140491429.339 6 106280819.537 7
E16  25506490.824 7  25506493.505 8 134037478.076 7 101398511.737 8
E24  27489805.599 5  27489806.058 6 144460018.279 5 109282974.364 6
E25  24290205.610 8  24290207.470 9 127645866.977 8  96563296.520 9
E36  25080885.667 7  25080888.691 8 131801115.498 7  99706575.967 8
G08  22792367.264 6                  22792374.528 6 119774860.715 6                  93330986.360 6
G10  22005913.795 8                  22005920.633 7 115641949.682 8                  90110569.810 7
G16  21199083.245 7  21199087.308 6                 111401942.194 7  86806718.188 6
G18  22261540.504 7                  22261545.815 7 116985340.406 7                  91157309.380 7
G23  20939290.422 7                  20939295.086 8 110036742.510 7                  85742924.465 8
G27  20491239.818 8                  20491245.731 8 107682326.534 8                  83908248.483 8
R08  21385933.055 7  21385938.339 7 114520916.358 7  89071680.156 7
R14  20752026.215 8  20752030.926 7 110620038.665 8  86037717.419 7
R15  21650137.162 7  21650141.333 7 115691889.308 7  89982526.409 7
R17  23319650.294 5  23319647.144 5 124788122.565 5  97057443.125 5
R23  21013435.777 8                 112407788.214 8
R24  19807508.767 8  19807512.244 7 105919830.158 8  82381975.491 7
> 2025 06 15 08 30  0.0000000  0 25
C13  37767964.246 5  37767966.152 4 196667755.736 5 152075949.578 4
C20  24324281.920 6                 126663049.573 6
C26  24521528.801 5                 127690051.001 5
C29  21489840.411 7                 111903264.926 7
C30  24244353.814 7                 126246807.884 7
E02  24742767.952 7  24742768.826 8 130024147.646 7  98362412.694 8
E10  24516828.440 8  24516829.168 8 128836787.140 8  97464204.957 8
E11  23505802.793 7  23505800.812 8 123524011.031 7  93444966.097 8
E12  26735787.788 6  26735787.426 7 140497551.248 6 106285450.711 7
E16  25507965.591 7  25507968.113 8 134045226.800 7 101404373.584 8
E24  27491711.732 5  27491713.826 7 144470042.914 5 109290557.914 7
E25  24290738.375 7  24290740.506 9 127648668.154 7  96565415.582 9
E36  25077817.699 7  25077820.522 8 131784992.105 7  99694378.736 8
G08  22788265.313 6                  22788272.394 6 119753305.352 6                  93314189.992 6
G10  22002345.181 8                  22002351.274 7 115623191.396 8                  90095952.983 7
G16  21199793.693 7  21199797.403 5                 111405673.736 7  86809625.877 5
G18  22262824.781 7                  22262830.725 7 116992091.340 7                  91162569.850 7
G23  20938273.207 7                  20938277.519 8 110031395.529 7                  85738757.986 8
G27  20488748.767 8                  20488754.654 8 107669236.386 8                  83898048.386 8
R08  21383077.223 7  21383082.839 7 114505623.004 7  89059785.342 7
R14  20752834.010 8  20752838.904 7 110624345.957 8  86041067.550 7
R15  21647153.442 7  21647156.013 7 115675935.984 7  89970118.277 7
R17  23315334.362 5  23315338.983 5 124765066.147 5  97039510.375 5
R23  21014691.079 7                 112414506.580 7
R24  19805222.329 8  19805226.136 7 105907602.712 8  82372465.263 7
> 2025 06 15 08 30  5.0000000  0 25
C13  37767385.680 5  37767386.350 4 196664740.021 5 152073617.661 4
C20  24320602.001 6                 126643879.705 6
C26  24520692.388 5                 127685707.907 5
C29  21488922.570 7                 111898487.682 7
C30  24245645.757 7                 126253535.166 7
E02  24740506.832 7  24740507.565 8 130012264.604 7  98353423.247 8
E10  24517263.364 8  24517264.317 8 128839073.706 8  97465934.724 8
E11  23504973.263 7  23504971.087 8 123519650.960 7  93441667.733 8
E12  26736952.949 6  26736952.991 7 140503676.221 6 106290084.204 7
E16  25509441.560 7  25509443.977 8 134052982.454 7 101410240.671 8
E24  27493618.955 5  27493622.028 7 144480069.874 5 109298143.222 7
E25  24291273.417 8  24291275.601 9 127651480.065 8  96567542.770 9
E36  25074750.032 7  25074753.597 8 131768875.267 7  99682186.451 8
G08  22784163.562 6                  22784172.478 6 119731755.924 6                  93297398.256 6
G10  21998777.279 8                  21998784.422 7 115604445.313 8                  90081345.658 7
G16  21200506.405 7  21200510.317 6                 111409420.828 7  86812545.682 6
G18  22264110.655 7                  22264117.110 7 116998849.352 7                  91167835.813 7
G23  20937259.617 7                  20937263.454 8 110026066.043 7                  85734605.143 8
G27  20486260.295 8                  20486266.012 7 107656159.090 8                  83887858.295 7
R07  22378781.998 5                 119795353.99415
R08  21380224.463 7  21380230.083 7 114490350.870 7  89047907.031 7
R14  20753645.469 8  20753650.986 7 110628673.909 8  86044433.721 7
R15  21644171.810 7  21644174.446 7 115660003.591 7  89957726.424 7
R23  21015948.516 7                 112421232.434 7
R24  19802938.014 8  19802941.476 7 105895386.745 8  82362963.945 7
> 2025 06 15 08 30 10.0000000  0 25
C13  37766806.827 5  37766807.505 4 196661726.798 5 152071287.617 4
C20  24316920.824 6                 126624718.251 6
C26  24519859.396 4                 127681378.146 4
C29  21488006.919 7                 111893717.978 7
C30  24246938.167 7                 126260265.453 7
E02  24738247.708 7  24738248.207 8 130000391.592 7  98344441.393 8
E10  24517699.168 8  24517700.260 8 128841364.776 8  97467667.897 8
E11  23504144.776 7  23504142.734 8 123515297.767 7  93438374.574 8
E12  26738119.405 6  26738118.873 7 140509802.742 6 106294718.866 7
E16  25510918.590 7  25510920.892 8 134060743.598 7 101416111.905 8
E24  27495528.423 5  27495530.298 7 144490097.831 5 109305729.267 7
E25  24291810.040 7  24291812.440 9 127654301.227 7  96569676.950 9
E36  25071683.811 7  25071687.645 8 131752763.522 7  99669998.032 8
G08  22780064.666 6                  22780072.237 6 119710211.070 6                  93280610.056 6
G10  21995212.294 8                  21995219.203 7 115585709.998 8                  90066746.714 7
G16  21201221.860 7  21201225.950 6                 111413182.046 7  86815476.497 6
G18  22265398.259 7                  22265404.247 8 117005612.967 7                  91173106.169 8
G23  20936247.841 8                  20936251.666 8 110020752.612 8                  85730464.823 8
G27  20483774.090 8                  20483780.198 8 107643093.215 8                  83877677.093 8
R07  22379371.505 5                 119798499.426 5
R08  21377377.115 8  21377381.970 7 114475098.516 8  89036044.090 7
R14  20754461.513 8  20754466.333 7 110633021.173 8  86047814.921 7
R15  21641193.133 7  21641196.406 7 115644090.911 7  89945349.912 7
R23  21017206.981 7                 112427964.166 7
R24  19800655.165 8  19800659.229 7 105883180.913 8  82353470.524 7
> 2025 06 15 08 30 15.0000000  0 25
C13  37766228.494 5  37766228.963 4 196658716.771 5 152068960.048 4
C20  24313241.793 5                 126605566.024 5
C26  24519031.716 4                 127677062.589 4
C29  21487092.430 7                 111888956.646 7
C30  24248232.052 7                 126266999.550 7
E02  24735990.316 7  24735990.910 8 129988529.409 7  98335467.734 8
E10  24518136.213 8  24518137.256 8 128843661.177 8  97469405.099 8
E11  23503317.977 7  23503315.833 8 123510952.252 7  93435087.218 8
E12  26739285.526 6  26739285.156 7 140515931.695 6 106299355.371 7
E16  25512396.724 7  25512398.977 8 134068510.999 7 101421987.886 8
E24  27497437.353 5  27497438.883 7 144500127.437 5 109313316.594 7
E25  24292349.079 7  24292351.197 9 127657132.461 7  96571818.756 9
E36  25068619.005 7  25068622.827 8 131736657.695 7  99657814.095 8
G08  22775965.521 6                  22775973.449 6 119688671.520 6                  93263826.011 6
G10  21991649.530 8                  21991656.194 7 115566986.275 8                  90052156.787 7
G16  21201940.019 7  21201944.772 5                 111416958.173 7  86818418.930 5
G18  22266686.158 7                  22266692.125 8 117012383.017 7                  91178381.508 8
G23  20935240.026 8                  20935244.143 8 110015456.020 8                  85726337.616 8
G27  20481289.785 8                  20481296.096 7 107630039.537 8                  83867505.398 7
R07  22379964.430 5  22379979.866 4 119801665.243 5  93179163.51914
R08  21374531.727 8  21374537.465 7 114459866.739 8  89024197.152 7
R14  20755280.135 8  20755285.489 7 110637388.345 8  86051211.625 7
R15  21638219.071 7  21638222.716 6 115628198.676 7  89932989.305 6
R23  21018466.955 7                 112434702.671 7
R24  19798375.124 8  19798377.993 7 105870986.085 8  82343985.657 7
> 2025 06 15 08 30 20.0000000  0 25
C13  37765649.380 5  37765650.835 4 196655709.715 5 152066634.778 4
C20  24309561.225 5                 126586422.716 5
C26  24518205.402 5                 127672760.891 5
C29  21486179.326 7                 111884203.461 7
C30  24249526.158 7                 126273737.243 7
E02  24733735.187 7  24733735.627 8 129976677.849 7  98326502.112 8
E10  24518574.251 8  24518575.224 8 128845962.629 8  97471146.137 8
E11  23502492.438 7  23502490.293 8 123506614.177 7  93431805.491 8
E12  26740451.530 6  26740451.873 7 140522062.784 6 106303993.476 7
E16  25513875.706 7  25513878.207 8 134076284.418 7 101427868.418 8
E24  27499345.825 5  27499347.782 7 144510158.540 5 109320905.046 7
E25  24292889.699 7  24292891.824 9 127659973.521 7  96573967.997 9
E36  25065555.354 7  25065559.062 8 131720557.526 7  99645634.433 8
G08  22771868.321 6                  22771875.173 6 119667137.140 6                  93247045.984 6
G10  21988088.912 8                  21988095.217 7 115548273.908 8                  90037575.725 7
G16  21202661.770 7  21202665.861 6                 111420748.991 7  86821372.819 6
G18  22267975.905 7                  22267981.845 8 117019159.245 7                  91183661.671 8
G23  20934234.447 8                  20934239.317 8 110010176.058 8                  85722223.373 8
G27  20478807.694 8                  20478814.335 7 107616997.870 8                  83857343.068 7
R07  22380558.276 4                                
R08  21371691.425 7  21371697.237 7 114444655.379 7  89012366.107 7
R14  20756102.473 7  20756108.456 7 110641775.327 7  86054623.736 7
R15  21635248.006 7  21635252.213 7 115612326.632 7  89920644.378 7
R23  21019728.118 7                 112441447.665 7
R24  19796096.061 8  19796100.164 7 105858802.045 8  82334509.180 7
> 2025 06 15 08 30 25.0000000  0 25
C13  37765072.569 4  37765074.150 4 196652705.662 4 152064311.826 4
C20  24305889.406 5                 126567288.436 5
C26  24517382.726 5                 127668473.181 5
C29  21485268.228 7                 111879458.484 7
C30  24250820.960 7                 126280478.560 7
E02  24731481.818 7  24731482.369 8 129964836.971 7  98317544.574 8
E10  24519013.379 8  24519014.142 8 128848269.237 8  97472891.071 8
E11  23501668.747 7  23501666.204 8 123502283.604 7  93428529.438 8
E12  26741619.025 6  26741618.978 7 140528196.123 6 106308633.309 7
E16  25515356.179 7  25515358.577 8 134084063.945 7 101433753.572 8
E24  27501252.610 5  27501256.944 7 144520191.199 5 109328494.697 7
E25  24293431.979 7  24293434.349 9 127662824.492 7  96576124.719 9
E36  25062492.800 7  25062496.376 8 131704463.120 7  99633459.125 8
G08  22767770.699 6                  22767778.456 6 119645607.933 6                  93230270.006 6
G10  21984529.782 8                  21984536.609 7 115529572.975 8                  90023003.565 7
G16  21203386.536 7  21203389.968 5                 111424554.622 7  86824338.236 5
G18  22269266.576 7                  22269272.954 7 117025941.686 7                  91188946.691 7
G23  20933233.541 8                  20933238.043 8 110004912.770 8                  85718122.109 8
G27  20476328.753 8                  20476334.824 7 107603968.279 8                  83847190.141 7
R07  22381161.638 5  22381165.748 3 119808057.47515  93184135.26213
R08  21368855.574 7  21368860.322 7 114429464.544 7  89000551.014 7
R14  20756929.237 7  20756935.273 7 110646182.322 7  86058051.391 7
R15  21632282.188 7  21632285.267 6 115596474.777 7  89908315.146 6
R23  21020989.677 7                 112448199.246 7
R24  19793819.859 8  19793823.767 7 105846628.665 8  82325041.000 7
> 2025 06 15 08 30 30.0000000  0 25
C13  37764494.955 5  37764497.430 4 196649704.584 5 152061991.186 4
C20  24302216.369 6                 126548163.103 6
C26  24516561.608 5                 127664199.479 5
C29  21484359.338 7                 111874721.669 7
C30  24252116.710 7                 126287223.512 7
E02  24729230.656 7  24729231.160 8 129953006.748 7  98308595.086 8
E10  24519453.118 8  24519454.036 8 128850580.945 8  97474639.858 8
E11  23500846.537 7  23500843.509 8 123497960.521 7  93425259.054 8
E12  26742786.735 6  26742786.507 7 140534331.616 6 106313274.766 7
E16  25516837.328 7  25516840.122 8 134091849.526 7 101439643.307 8
E24  27503159.793 4  27503166.422 7 144530225.378 4 109336085.480 7
E25  24293976.479 8  24293978.746 9 127665685.323 8  96578288.914 9
E36  25059431.747 7  25059434.797 8 131688374.425 7  99621288.151 8
G08  22763675.045 6                  22763682.879 5 119624083.895 6                  93213498.021 5
G10  21980973.113 8                  21980980.149 7 115510883.458 8                  90008440.326 7
G16  21204112.890 7  21204116.875 5                 111428374.923 7  86827315.089 5
G18  22270558.719 7                  22270564.618 8 117032730.342 7                  91194236.546 8
G23  20932234.700 7                  20932239.578 8 109999666.126 7                  85714033.818 8
G27  20473850.666 7                  20473857.528 7 107590950.729 7                  83837046.602 7
R07  22381767.906 5  22381764.269 3 119811283.973 5  93186644.869 3
R08  21366022.967 8  21366027.342 7 114414294.142 8  88988751.813 7
R14  20757760.511 7  20757765.365 7 110650609.233 7  86061494.534 7
R15  21629319.514 6  21629323.338 6 115580643.355 6  89896001.829 6
R23  21022253.177 7                 112454957.368 7
R24  19791546.009 8  19791548.817 7 105834465.898 8  82315581.078 7
> 2025 06 15 08 30 35.0000000  0 26
C13  37763919.767 5  37763921.316 5 196646706.135 5 152059672.577 5
C20  24298544.507 6                 126529046.334 6
C26  24515742.933 5                 127659939.227 5
C29  21483451.214 7                 111869992.584 7
C30  24253411.912 7                 126293971.630 7
E02  24726981.925 7  24726981.890 8 129941186.752 7  98299653.339 8
E10  24519893.921 8  24519894.831 8 128852897.299 8  97476392.162 8
E11  23500024.505 7  23500022.180 8 123493644.446 7  93421993.970 8
E12  26743954.242 6  26743954.393 7 140540468.839 6 106317917.520 7
E16  25518320.596 7  25518322.748 8 134099640.707 7 101445537.277 8
E24  27505068.167 4  27505076.018 7 144540260.646 4 109343677.077 7
E25  24294523.113 7  24294524.932 9 127668555.565 7  96580460.224 9
E36  25056370.702 7  25056374.224 8 131672290.990 7  99609121.148 8
G08  22759580.762 6                  22759587.486 6 119602564.599 6                  93196729.737 6
G10  21977418.314 8                  21977425.130 7 115492204.914 8                  89993885.614 7
G16  21204842.907 7  21204846.795 5                 111432209.507 7  86830303.059 5
G18  22271852.074 7                  22271857.564 8 117039524.750 7                  91199530.878 8
G23  20931239.417 7                  20931244.154 8 109994435.672 7                  85709958.140 8
G27  20471376.205 7                  20471382.645 7 107577944.803 7                  83826912.114 7
R07  22382386.432 5                 119814530.294 5
R08  21363192.869 7  21363198.208 7 114399143.652 7  88976968.117 7
R14  20758595.159 7  20758599.479 7 110655055.336 7  86064952.601 7
R15  21626360.376 7  21626363.728 6 115564831.660 7  89883703.862 6
R17  23285186.751 4  23285195.539 5 124603745.78814
R23  21023516.805 7                 112461721.480 7
R24  19789271.921 8  19789276.405 7 105822313.478 8  82306129.209 7
> 2025 06 15 08 30 40.0000000  0 24
C13  37763345.554 5  37763346.265 5 196643710.729 5 152057356.331 5
C20  24294876.010 6                 126509938.708 6
C26  24514928.640 5                 127655693.009 5
C29  21482545.073 7                 111865271.792 7
C30  24254708.114 7                 126300723.490 7
E02  24724733.842 7  24724734.666 8 129929377.555 7  98290719.755 8
