     3.04           OBSERVATION DATA    Mixed(MIXED)        RINEX VERSION / TYPE
cnvtToRINEX 3.14.0  convertToRINEX OPR  20250615 162737 UTC PGM / RUN BY / DATE 
----------------------------------------------------------- COMMENT             
43K                                                         MARKER NAME         
43K                                                         MARKER NUMBER       
GEODETIC                                                    MARKER TYPE         
GNSS Observer       Trimble                                 OBSERVER / AGENCY   
6203S17886          Geo Explorer 3      5.53                REC # / TYPE / VERS 
                    UNKNOWN EXT     NONE                    ANT # / TYPE        
  3912505.3451  1190593.2175  4879099.8355                  APPROX POSITION XYZ 
        1.2100        0.0000        0.0000                  ANTENNA: DELTA H/E/N
G    6 C1C C2W C2X L1C L2W L2X                              SYS / # / OBS TYPES 
C    4 C2I C7I L2I L7I                                      SYS / # / OBS TYPES 
R    4 C1C C2C L1C L2C                                      SYS / # / OBS TYPES 
E    4 C1X C8X L1X L8X                                      SYS / # / OBS TYPES 
     5.000                                                  INTERVAL            
  2025     6    15    13    50   35.0000000     GPS         TIME OF FIRST OBS   
  2025     6    15    14    30   45.0000000     GPS         TIME OF LAST OBS    
     0                                                      RCV CLOCK OFFS APPL 
  8 R02 -4 R03  5 R04  6 R05  1 R12 -1 R18 -3 R19  3 R20  2 GLONASS SLOT / FRQ #
G L2X -0.25000                                              SYS / PHASE SHIFT   
R L2C -0.25000                                              SYS / PHASE SHIFT   
    18                                                      LEAP SECONDS        
    26                                                      # OF SATELLITES     
   C11   483   483   483   483                              PRN / # OF OBS      
   C12   483   483   483   483                              PRN / # OF OBS      
   C21   483     0   483     0                              PRN / # OF OBS      
   C22   483     0   483     0                              PRN / # OF OBS      
   E03   483   483   483   483                              PRN / # OF OBS      
   E05   483   483   483   483                              PRN / # OF OBS      
   E09   225   219   223   219                              PRN / # OF OBS      
   E15   483   483   483   483                              PRN / # OF OBS      
   E34   483   483   483   483                              PRN / # OF OBS      
   E36   369   352   361   352                              PRN / # OF OBS      
   G01   483     0   483   483     0   483                  PRN / # OF OBS      
   G02   483   483     0   483   483     0                  PRN / # OF OBS      
   G03   483     0   483   483     0   483                  PRN / # OF OBS      
   G04   483     0   483   483     0   483                  PRN / # OF OBS      
   G06   301     0   301   301     0   301                  PRN / # OF OBS      
   G09   390     0   390   390     0   390                  PRN / # OF OBS      
   G17   483     0   483   483     0   483                  PRN / # OF OBS      
   G19   483   483     0   483   483     0                  PRN / # OF OBS      
   G28    54     0    41    51     0    41                  PRN / # OF OBS      
   G31   356     5   302   345     5   301                  PRN / # OF OBS      
   R03   483   483   483   483                              PRN / # OF OBS      
   R04   483   483   483   483                              PRN / # OF OBS      
   R05   224   221   224   219                              PRN / # OF OBS      
   R18   483   483   483   483                              PRN / # OF OBS      
   R19   483   483   483   483                              PRN / # OF OBS      
   R20   262   262   262   262                              PRN / # OF OBS      
DBHZ                                                        SIGNAL STRENGTH UNIT
                                                            END OF HEADER       
>                              2  1
              *** Start of Kinematic Data ***               COMMENT             
> 2025 06 15 13 50 35.0000000  0 21
C11  24409724.716 6  24409722.557 7 127107861.04716  98287843.81617
C12  22062583.571 7  22062579.454 7 114885828.31417  88836866.71517
C21  23171716.811 7                 120661262.65217
C22  21506828.376 7                 111991674.21517
E03  25873510.174 7  25873513.647 8 135966120.38617 102857571.35618
E05  22055338.771 8  22055340.216 8 115901543.74718  87678802.97118
E09  25810740.530 5                 135636243.39615
E15  25074990.552 7  25074992.835 8 131770065.76017  99683132.30118
E34  23273541.149 8  23273542.535 9 122303262.86918  92521642.58319
E36  26028525.566 7  26028530.242 7 136780811.57617 103473821.78217
G01  20383711.565 8                  20383715.914 8 107117068.38318                  83467914.51918
G02  22430667.140 7  22430669.875 5                 117873855.33517  91849840.07215
G03  19871066.542 7                  19871072.917 7 104423151.59517                  81368737.38217
G04  21909684.876 7                  21909691.970 7 115136235.33917                  89716543.27417
G17  22272293.863 7                  22272298.261 7 117041726.60817                  91201334.88417
G19  22580178.234 7  22580181.649 5                 118659539.88017  92462079.54915
G31  22746088.929 5                                                                
R03  19296744.333 8  19296748.907 7 103296991.95418  80342089.81217
R04  20204767.185 8  20204772.251 7 108195646.15418  84152235.85217
R18  19897669.042 7  19897673.640 7 106215098.85517  82611772.92817
R19  19640541.645 8  19640542.560 7 105063638.16218  81716147.31817
> 2025 06 15 13 50 40.0000000  0 21
C11  24406227.498 6  24406225.594 7 127089651.941 6  98273763.402 7
C12  22061966.529 7  22061962.209 7 114882614.236 7  88834381.387 7
C21  23168542.333 7                 120644732.350 7
C22  21506424.530 7                 111989570.468 7
E03  25869693.760 7  25869696.801 8 135946063.144 7 102842398.207 8
E05  22053683.403 8  22053684.975 8 115892845.513 8  87672222.818 8
E09  25811708.108 5  25811707.621 4 135641329.737 5 102611866.39414
E15  25071829.094 7  25071831.471 8 131753452.678 7  99670564.613 8
E34  23272785.779 8  23272787.510 9 122299295.056 8  92518640.963 9
E36  26029864.426 7  26029869.048 7 136787847.047 7 103479144.041 7
G01  20383876.401 8                  20383880.789 8 107117934.850 8                  83468589.685 8
G02  22432139.726 7  22432143.606 5                 117881596.660 7  91855872.257 5
G03  19869608.863 7                  19869615.010 7 104415491.277 7                  81362768.296 7
G04  21905698.787 7                  21905705.351 7 115115286.122 7                  89700219.216 7
G17  22271419.064 7                  22271422.970 7 117037126.391 7                  91197750.297 7
G19  22577393.453 7  22577395.669 5                 118644901.401 7  92450672.962 5
G31  22743132.664 4                  22743137.395 5 119516042.837 4                  93129350.07215
R03  19296704.643 8  19296709.407 7 103296779.911 8  80341924.897 7
R04  20201321.644 8  20201326.484 7 108177195.772 8  84137885.560 7
R18  19899004.469 8  19899009.953 7 106222229.458 8  82617318.933 7
R19  19637864.549 8  19637866.424 7 105049322.603 8  81705012.990 7
>                              3  5
              *** Start of Occupation ***                   COMMENT             
43K                                                         MARKER NAME         
43K                                                         MARKER NUMBER       
  3912505.3451  1190593.2175  4879099.8355                  APPROX POSITION XYZ 
        1.2100        0.0000        0.0000                  ANTENNA: DELTA H/E/N
> 2025 06 15 13 50 45.0000000  0 21
C11  24402733.455 6  24402730.120 7 127071451.158 6  98259689.428 7
C12  22061352.329 7  22061347.687 7 114879414.026 7  88831906.775 7
C21  23165369.212 7                 120628209.565 7
C22  21506021.828 7                 111987476.178 7
E03  25865877.338 7  25865880.925 8 135926010.831 7 102827228.760 8
E05  22052030.254 8  22052031.851 8 115884158.071 8  87665650.834 8
E09  25812677.668 4  25812676.886 3 135646422.67714 102615719.17513
E15  25068668.736 7  25068671.010 8 131736844.063 7  99658000.328 8
E34  23272032.546 8  23272034.145 9 122295336.134 8  92515646.065 9
E36  26031203.666 7  26031208.772 7 136794887.221 7 103484469.887 7
G01  20384043.978 8                  20384048.061 8 107118814.361 8                  83469275.021 8
G02  22433614.650 7  22433618.414 5                 117889345.673 7  91861910.454 5
G03  19868153.090 7                  19868159.354 7 104407841.874 7                  81356807.724 7
G04  21901714.363 7                  21901720.141 7 115094345.742 7                  89683902.046 7
G17  22270545.979 7                  22270550.712 7 117032541.253 7                  91194177.458 7
G19  22574609.773 7  22574612.974 5                 118630278.524 7  92439278.516 5
G31  22740180.071 5                  22740185.430 5 119500534.573 5                  93117265.759 5
R03  19296667.671 8  19296672.458 7 103296583.125 8  80341771.841 7
R04  20197878.668 8  20197883.341 7 108158758.920 8  84123545.803 7
R18  19900344.596 7  19900348.533 7 106229377.062 7  82622878.145 7
R19  19635192.237 8  19635193.222 7 105035025.613 8  81693893.112 7
> 2025 06 15 13 50 50.0000000  0 21
C11  24399239.448 6  24399236.597 7 127053259.796 6  98245622.710 7
C12  22060740.605 7  22060736.127 7 114876228.820 7  88829443.771 7
C21  23162197.630 7                 120611695.403 7
C22  21505621.911 7                 111985392.441 7
E03  25862062.885 7  25862066.189 8 135905964.475 7 102812063.845 8
E05  22050379.548 8  22050381.004 8 115875482.568 8  87659087.871 8
E09  25813646.920 5                 135651523.475 5
E15  25065509.641 7  25065511.511 8 131720241.060 7  99645440.272 8
E34  23271280.990 8  23271282.698 9 122291387.211 8  92512658.730 9
E36  26032544.384 7  26032549.655 7 136801933.236 7 103489800.124 7
G01  20384214.040 7                  20384218.272 8 107119708.046 7                  83469971.399 8
G02  22435090.966 7  22435094.511 5                 117897103.480 7  91867955.497 5
G03  19866699.891 7                  19866705.976 7 104400204.521 7                  81350856.541 7
G04  21897731.164 7                  21897737.089 7 115073415.367 7                  89667592.658 7
G17  22269677.519 7                  22269681.109 7 117027972.334 7                  91190617.250 7
G19  22571830.026 7  22571833.345 5                 118615672.336 7  92427897.070 5
G31  22737235.349 5                  22737237.683 5 119485041.483 5                  93105193.272 5
R03  19296633.393 8  19296638.438 7 103296402.727 8  80341631.530 7
R04  20194438.310 8  20194443.374 7 108140336.754 8  84109217.454 7
R18  19901687.357 8  19901691.362 7 106236542.892 8  82628451.560 7
R19  19632523.543 8  19632524.624 7 105020748.311 8  81682788.554 7
> 2025 06 15 13 50 55.0000000  0 21
C11  24395746.743 6  24395745.266 7 127035078.259 6  98231563.622 7
C12  22060131.975 7  22060127.381 7 114873058.955 7  88826992.635 7
C21  23159027.191 7                 120595190.245 7
C22  21505223.378 7                 111983319.660 7
E03  25858249.248 7  25858252.616 8 135885924.540 7 102796903.771 8
E05  22048731.080 8  22048732.481 9 115866819.360 8  87652534.207 9
E09  25814618.699 5  25814616.273 4 135656632.305 5 102623428.48814
E15  25062350.731 7  25062353.268 8 131703644.039 7  99632884.746 8
E34  23270531.325 8  23270533.237 9 122287448.684 8  92509679.262 9
E36  26033886.095 7  26033891.590 7 136808985.454 7 103495135.069 7
G01  20384386.570 8                  20384391.107 8 107120616.258 8                  83470679.096 8
G02  22436568.913 7  22436572.982 5                 117904870.473 7  91874007.699 5
G03  19865248.991 7                  19865255.267 7 104392579.580 7                  81344915.042 7
G04  21893750.389 7                  21893755.406 7 115052495.350 7                  89651291.339 7
G17  22268810.440 7                  22268815.106 7 117023419.990 7                  91187069.964 7
G19  22569054.305 7  22569057.231 5                 118601083.234 7  92416528.965 5
G31  22734289.310 5                  22734293.550 5 119469563.882 5                  93093132.809 5
R03  19296602.679 8  19296608.364 7 103296239.149 8  80341504.302 7
R04  20191000.703 8  20191005.360 7 108121929.779 8  84094900.914 7
R18  19903033.630 8  19903036.986 7 106243727.259 8  82634039.368 7
R19  19629857.504 8  19629859.135 7 105006491.229 8  81671699.725 7
> 2025 06 15 13 51  0.0000000  0 21
C11  24392257.646 6  24392255.159 7 127016904.737 6  98217510.722 7
C12  22059526.270 7  22059521.291 7 114869902.696 7  88824552.004 7
C21  23155859.775 7                 120578692.287 7
C22  21504826.711 8                 111981256.021 8
E03  25854436.471 7  25854439.913 8 135865889.163 7 102781747.152 8
E05  22047084.447 8  22047085.918 8 115858166.653 8  87645988.494 8
E09  25815590.598 5  25815589.806 4 135661747.512 5 102627298.144 4
E15  25059192.806 7  25059195.805 8 131687051.247 7  99620332.411 8
E34  23269783.539 8  23269785.427 9 122283518.754 8  92506706.295 9
E36  26035229.693 7  26035234.372 7 136816042.086 7 103500473.352 7
G01  20384561.698 7                  20384566.311 8 107121537.218 7                  83471396.722 8
G02  22438047.816 7  22438052.061 5                 117912644.828 7  91880065.628 5
G03  19863800.586 7                  19863806.196 7 104384965.291 7                  81338981.822 7
G04  21889771.622 7                  21889775.936 7 115031583.915 7                  89634996.715 7
G17  22267947.191 7                  22267951.342 7 117018882.435 7                  91183534.207 7
G19  22566280.591 7  22566284.016 5                 118586509.531 7  92405172.823 5
G31  22731345.963 5                  22731350.580 5 119454100.021 5                  93081083.084 5
R03  19296574.940 8  19296580.329 7 103296090.493 8  80341388.685 7
R04  20187566.057 8  20187571.274 7 108103535.983 8  84080594.618 7
R18  19904382.387 8  19904386.124 7 106250928.312 8  82639640.178 7
R19  19627195.946 8  19627196.896 7 104992252.391 8  81660625.071 7
> 2025 06 15 13 51  5.0000000  0 21
C11  24388768.636 6  24388766.754 7 126998739.272 6  98203464.047 7
C12  22058921.913 7  22058917.691 7 114866760.042 7  88822121.903 7
C21  23152693.278 7                 120562201.593 7
C22  21504432.383 7                 111979201.555 7
E03  25850624.986 7  25850628.135 8 135845858.445 7 102766594.059 8
E05  22045440.147 8  22045441.361 8 115849524.486 8  87639450.752 8
E09  25816566.201 5  25816564.542 3 135666869.082 5 102631172.520 3
E15  25056036.115 7  25056039.132 8 131670462.683 7  99607783.280 8
E34  23269037.055 8  23269039.242 9 122279597.433 8  92503739.849 9
E36  26036573.497 7  26036578.062 7 136823103.123 7 103505814.964 7
G01  20384739.513 7                  20384744.156 8 107122470.941 7                  83472124.296 8
G02  22439529.328 7  22439532.835 5                 117920426.611 7  91886129.341 5
G03  19862353.531 8                  19862359.501 7 104377361.621 8                  81333056.888 7
G04  21885793.826 7                  21885798.185 7 115010681.110 7                  89618708.809 7
G17  22267085.937 7                  22267090.906 7 117014359.677 7                  91180009.972 7
G19  22563510.456 7  22563513.739 5                 118571951.142 7  92393828.620 5
G31  22728406.142 5                  22728409.266 4 119438649.847 5                  93069044.048 4
R03  19296550.959 8  19296554.964 7 103295956.560 8  80341284.508 7
R04  20184133.855 7  20184138.872 7 108085155.606 7  84066298.783 7
R18  19905734.408 8  19905737.845 7 106258146.115 8  82645254.011 7
R19  19624536.463 7  19624538.525 7 104978031.929 7  81649564.718 7
> 2025 06 15 13 51 10.0000000  0 22
C11  24385283.083 6  24385280.338 7 126980583.588 6  98189424.940 7
C12  22058321.912 7  22058317.273 7 114863632.627 7  88819703.576 7
C21  23149529.009 7                 120545719.777 7
C22  21504039.647 7                 111977157.896 7
E03  25846814.687 7  25846817.550 8 135825833.994 7 102751445.707 8
E05  22043797.535 8  22043799.156 8 115840894.472 8  87632922.203 8
E09  25817539.003 5  25817540.722 4 135671998.638 5 102635053.038 4
E15  25052881.309 7  25052883.609 8 131653880.002 7  99595238.596 8
E34  23268293.217 8  23268294.996 9 122275686.400 8  92500781.174 9
E36  26037918.451 7  26037922.917 7 136830170.250 7 103511161.177 7
G01  20384920.039 7                  20384924.712 8 107123419.081 7                  83472863.098 8
G02  22441011.587 7  22441015.207 5                 117928217.455 7  91892200.110 5
G03  19860909.506 8                  19860915.062 8 104369770.261 8                  81327141.541 8
G04  21881817.397 7                  21881822.625 7 114989788.570 7                  89602428.918 7
G17  22266229.152 7                  22266233.590 7 117009853.422 7                  91176498.605 7
G19  22560743.129 7  22560746.849 5                 118557409.766 7  92382497.677 5
G28  23114079.266 5                                 121465276.06815                
G31  22725469.082 6                  22725471.010 4 119423215.036 6                  93057017.018 4
R03  19296528.727 8  19296533.307 7 103295839.475 8  80341193.459 7
R04  20180704.199 7  20180709.254 7 108066790.079 7  84052014.481 7
R18  19907090.252 8  19907094.151 7 106265382.367 8  82650882.179 7
R19  19621882.079 8  19621883.956 7 104963831.592 8  81638520.024 7
> 2025 06 15 13 51 15.0000000  0 22
C11  24381798.145 6  24381795.010 7 126962437.011 6  98175392.854 7
C12  22057724.384 7  22057719.501 7 114860519.883 7  88817296.596 7
C21  23146365.580 7                 120529246.321 7
C22  21503648.969 7                 111975124.514 7
E03  25843004.967 7  25843008.028 8 135805815.302 7 102736301.705 8
E05  22042157.527 8  22042159.149 8 115832276.132 8  87626402.491 8
E09  25818517.739 5  25818518.415 3 135677135.608 5 102638939.106 3
E15  25049726.593 7  25049729.036 8 131637302.681 7  99582697.968 8
E34  23267550.525 8  23267552.664 9 122271785.089 8  92497829.857 9
E36  26039264.159 7  26039268.756 7 136837242.896 7 103516511.582 7
G01  20385103.162 7                  20385107.769 8 107124381.070 7                  83473612.718 8
G02  22442496.492 7  22442499.321 5                 117936016.742 7  91898277.468 5
G03  19859466.927 7                  19859472.706 7 104362190.647 7                  81321235.367 7
G04  21877843.114 7                  21877848.736 7 114968905.791 7                  89586156.635 7
G17  22265374.471 7                  22265379.066 7 117005363.109 7                  91172999.663 7
G19  22557979.756 7  22557982.890 5                 118542884.898 7  92371179.598 5
G28  23112921.475 5                  23112935.889 5 121459195.160 5                  94643611.03915
G31  22722535.375 6                  22722537.509 4 119407795.104 6                  93045001.560 4
R03  19296509.890 8  19296514.292 7 103295738.094 8  80341114.614 7
R04  20177277.220 7  20177282.021 7 108048439.141 7  84037741.542 7
R18  19908448.267 8  19908452.941 7 106272636.507 8  82656524.295 7
R19  19619231.272 8  19619233.012 7 104949650.728 8  81627490.479 7
> 2025 06 15 13 51 20.0000000  0 22
C11  24378315.036 6  24378312.042 7 126944300.238 6  98161368.355 7
C12  22057128.898 7  22057124.644 7 114857422.450 7  88814901.451 7
C21  23143204.640 7                 120512781.758 7
C22  21503261.133 7                 111973101.897 7
E03  25839196.793 7  25839199.848 8 135785802.927 7 102721162.478 8
E05  22040519.785 8  22040521.415 8 115823669.944 8  87619891.967 8
E09  25819497.879 5  25819515.809 4 135682280.575 5 102642831.75214
E15  25046573.520 7  25046575.627 8 131620731.280 7  99570161.812 8
E34  23266810.402 8  23266812.212 9 122267894.071 8  92494886.325 9
E36  26040611.861 7  26040615.766 7 136844321.628 7 103521866.576 7
G01  20385288.700 8                  20385294.119 8 107125357.471 8                  83474373.551 8
G02  22443981.760 7  22443985.173 5                 117943825.080 7  91904361.881 5
G03  19858027.068 7                  19858032.545 7 104354623.358 7                  81315338.788 7
G04  21873871.843 7                  21873877.622 7 114948033.294 7                  89569892.355 7
G17  22264523.804 7                  22264527.596 7 117000889.294 7                  91169513.582 7
G19  22555218.316 7  22555222.118 5                 118528377.046 7  92359874.795 5
G28  23111767.200 5                  23111782.564 5 121453132.111 5                  94638886.606 5
G31  22719603.168 6                  22719607.091 4 119392390.600 6                  93032998.051 4
R03  19296493.629 8  19296498.822 7 103295653.560 8  80341048.873 7
R04  20173853.308 7  20173857.925 7 108030103.199 7  84023480.271 7
R18  19909811.818 8  19909814.933 7 106279909.021 8  82662180.679 7
R19  19616584.067 8  19616585.798 7 104935489.924 8  81616476.514 7
> 2025 06 15 13 51 25.0000000  0 22
C11  24374833.161 6  24374830.568 7 126926172.255 6  98147350.655 7
C12  22056536.598 7  22056532.642 7 114854339.243 7  88812517.325 7
C21  23140043.785 7                 120496325.161 7
C22  21502874.704 7                 111971089.130 7
E03  25835389.815 7  25835392.588 8 135765795.887 7 102706027.283 8
E05  22038884.176 8  22038885.852 9 115815075.007 8  87613389.950 9
E09  25820477.559 5  25820505.556 4 135687432.602 5 102646728.96914
E15  25043420.737 7  25043423.155 8 131604164.851 7  99557629.412 8
E34  23266071.718 8  23266073.559 9 122264012.385 8  92491949.854 9
E36  26041960.206 7  26041963.824 7 136851405.463 7 103527225.431 7
G01  20385477.047 8                  20385482.373 8 107126347.326 8                  83475144.867 8
G02  22445469.872 7  22445472.269 5                 117951641.507 7  91910452.570 5
G03  19856589.391 8                  19856595.064 7 104347067.409 8                  81309451.040 7
G04  21869901.259 7                  21869907.602 7 114927170.158 7                  89553635.403 7
G17  22263674.855 7                  22263679.393 7 116996430.994 7                  91166039.596 7
G19  22552460.812 6  22552464.168 5                 118513885.319 6  92348582.537 5
G28  23110617.637 5                  23110632.207 4 121447085.947 5                  94634175.322 4
G31  22716673.167 6                  22716680.696 5 119377000.569 6                  93021005.869 5
R03  19296480.399 8  19296485.343 7 103295584.365 8  80340995.063 7
R04  20170431.856 8  20170436.196 7 108011781.229 8  84009229.868 7
R18  19911176.830 8  19911180.253 7 106287198.924 8  82667850.615 7
R19  19613940.958 8  19613942.291 7 104921348.399 8  81605477.551 7
> 2025 06 15 13 51 30.0000000  0 22
C11  24371353.674 6  24371350.891 7 126908053.203 6  98133339.848 7
C12  22055947.168 7  22055943.253 7 114851270.499 7  88810144.382 7
C21  23136885.181 7                 120479876.627 7
C22  21502490.650 7                 111969086.332 7
E03  25831583.283 7  25831586.444 8 135745794.315 7 102690896.244 8
E05  22037250.936 8  22037252.433 8 115806491.408 8  87606896.517 8
E09  25821459.187 5  25821487.536 4 135692591.794 5 102650631.95414
E15  25040268.999 7  25040271.617 8 131587603.466 7  99545100.847 8
E34  23265334.676 8  23265336.729 9 122260140.147 8  92489020.534 9
E36  26043308.771 7  26043312.798 7 136858494.521 7 103532588.233 7
G01  20385668.128 7                  20385673.232 8 107127350.764 7                  83475926.755 8
G02  22446957.964 7  22446961.108 5                 117959466.123 7  91916549.659 5
G03  19855153.452 8                  19855159.453 7 104339522.940 8                  81303572.230 7
G04  21865933.229 7                  21865939.584 7 114906316.498 7                  89537385.817 7
G17  22262829.147 7                  22262833.885 7 116991988.285 7                  91162577.767 7
G19  22549706.034 7  22549709.310 4                 118499409.810 7  92337302.908 4
G28  23109470.238 5                  23109483.990 4 121441056.732 5                  94629477.180 4
G31  22713748.833 6                  22713755.958 4 119361625.167 6                  93009025.045 4
R03  19296470.474 8  19296475.913 7 103295531.027 8  80340953.588 7
R04  20167012.069 7  20167017.440 7 107993473.570 7  83994990.576 7
R18  19912545.741 8  19912549.032 7 106294506.351 8  82673534.170 7
R19  19611301.002 8  19611302.454 7 104907225.994 8  81594493.469 7
> 2025 06 15 13 51 35.0000000  0 22
C11  24367875.607 6  24367872.677 7 126889942.930 6  98119335.842 7
C12  22055361.339 7  22055356.627 7 114848215.983 7  88807782.438 7
C21  23133727.769 7                 120463436.013 7
C22  21502107.665 7                 111967093.331 7
E03  25827778.210 7  25827781.289 8 135725798.071 7 102675769.229 8
E05  22035619.673 8  22035621.133 8 115797918.981 8  87600411.541 8
E09  25822442.850 5  25822470.675 4 135697757.938 5 102654540.10914
E15  25037118.069 7  25037121.111 8 131571047.023 7  99532576.018 8
E34  23264599.564 8  23264601.642 9 122256277.193 8  92486098.240 9
E36  26044658.348 7  26044662.802 7 136865588.647 7 103537954.888 7
G01  20385861.976 8                  20385866.775 8 107128367.598 8                  83476719.089 8
G02  22448449.205 7  22448451.389 5                 117967298.707 7  91922652.973 5
G03  19853719.949 8                  19853725.515 7 104331989.745 8                  81297702.220 7
G04  21861966.888 7                  21861973.135 7 114885472.171 7                  89521143.487 7
G17  22261985.989 7                  22261991.223 7 116987561.036 7                  91159127.972 7
G19  22546954.783 6  22546957.755 5                 118484950.284 6  92326035.754 5
G28  23108326.389 5                  23108338.087 4 121435044.333 5                  94624792.126 4
G31  22710824.709 5                  22710832.311 4 119346264.253 5                  92997055.469 4
R03  19296463.593 8  19296468.846 7 103295493.147 8  80340924.131 7
R04  20163596.458 7  20163601.153 7 107975179.866 7  83980762.153 7
R18  19913917.894 8  19913921.774 7 106301831.122 8  82679231.227 7
R19  19608664.802 8  19608665.724 7 104893122.685 8  81583524.229 7
> 2025 06 15 13 51 40.0000000  0 22
C11  24364398.974 6  24364396.665 7 126871841.876 6  98105338.973 7
C12  22054776.279 7  22054772.783 7 114845176.139 7  88805431.824 7
C21  23130571.506 7                 120447003.732 7
C22  21501727.039 7                 111965110.538 7
E03  25823974.777 7  25823977.183 8 135705807.571 7 102660646.541 8
E05  22033990.785 8  22033992.018 8 115789358.174 8  87593935.343 8
E09  25823428.997 5  25823454.994 4 135702931.388 5 102658453.82314
E15  25033968.365 7  25033971.528 8 131554495.916 7  99520055.227 8
E34  23263866.251 8  23263868.368 9 122252423.934 8  92483183.273 9
E36  26046009.311 7  26046013.883 7 136872688.249 7 103543325.663 7
G01  20386057.552 8                  20386062.416 8 107129398.268 8                  83477522.189 8
G02  22449941.201 7  22449943.324 5                 117975139.730 7  91928762.837 5
G03  19852288.486 8                  19852294.513 7 104324468.301 8                  81291841.354 7
G04  21858002.048 7                  21858008.684 7 114864637.573 7                  89504908.762 7
G17  22261146.383 7                  22261151.790 7 116983149.698 7                  91155690.573 7
G19  22544206.595 7  22544209.419 5                 118470507.311 7  92314781.486 5
G28  23107184.935 4                  23107195.379 3 121429049.153 4                  94620120.449 3
G31  22707904.513 5                  22707910.889 5 119330918.231 5                  92985097.503 5
R03  19296458.140 8  19296464.733 7 103295470.982 8  80340906.880 7
R04  20160182.780 7  20160187.711 7 107956900.572 7  83966544.931 7
R18  19915293.693 8  19915296.972 7 106309173.642 8  82684942.081 7
R19  19606032.438 8  19606033.229 7 104879038.972 8  81572570.240 7
> 2025 06 15 13 51 45.0000000  0 21
C11  24360925.212 6  24360922.116 7 126853749.912 6  98091349.128 7
C12  22054195.781 7  22054192.045 7 114842150.850 7  88803092.491 7
C21  23127416.683 7                 120430579.647 7
C22  21501348.342 7                 111963137.788 7
E03  25820171.624 7  25820174.188 8 135685822.688 7 102645528.116 8
E05  22032363.789 8  22032365.163 9 115780808.827 8  87587467.816 9
E09  25824414.831 5  25824440.932 4 135708112.147 5 102662373.04214
E15  25030819.824 7  25030822.912 8 131537950.059 7  99507538.404 8
E34  23263134.961 8  23263136.953 9 122248580.282 8  92480275.575 9
E36  26047361.767 7  26047365.883 7 136879793.237 7 103548700.529 7
G01  20386256.738 8                  20386261.329 8 107130442.618 8                  83478335.967 8
G02  22451434.811 7  22451437.248 5                 117982989.076 7  91934879.216 5
G03  19850859.604 8                  19850865.491 7 104316958.448 8                  81285989.523 7
G04  21854040.044 7                  21854046.200 7 114843812.627 7                  89488681.548 7
G17  22260310.240 7                  22260314.870 7 116978754.092 7                  91152265.410 7
G19  22541461.253 7  22541464.648 5                 118456080.689 7  92303539.936 5
G31  22704986.923 5                  22704992.954 5 119315587.051 5                  92973151.063 5
R03  19296457.755 7  19296464.066 7 103295464.866 7  80340902.116 7
R04  20156772.085 8  20156776.041 7 107938635.576 8  83952338.831 7
R18  19916672.837 8  19916675.861 7 106316533.774 8  82690666.608 7
R19  19603402.282 8  19603403.833 7 104864974.590 8  81561631.285 7
> 2025 06 15 13 51 50.0000000  0 21
C11  24357452.409 6  24357449.751 7 126835667.335 6  98077366.535 7
C12  22053618.087 7  22053613.503 7 114839140.406 7  88800764.610 7
C21  23124264.180 7                 120414164.104 7
C22  21500971.249 7                 111961175.469 7
E03  25816369.768 7  25816372.390 8 135665843.758 7 102630414.198 8
E05  22030739.158 8  22030740.484 8 115772271.295 8  87581009.223 8
E09  25825399.749 5  25825419.456 5 135713300.48915 102666297.88315
E15  25027672.130 7  25027675.415 8 131521409.757 7  99495025.780 8
E34  23262405.055 8  23262407.366 9 122244746.527 8  92477375.363 9
E36  26048714.176 7  26048719.032 7 136886903.850 7 103554079.649 7
G01  20386457.577 7                  20386462.680 8 107131500.988 7                  83479160.658 8
G02  22452930.404 7  22452932.489 5                 117990847.034 7  91941002.268 5
G03  19849432.170 8                  19849438.368 7 104309460.517 8                  81280146.977 7
G04  21850078.354 7                  21850085.420 8 114822997.669 7                  89472462.112 8
G17  22259477.254 7                  22259481.433 7 116974374.506 7                  91148852.755 7
G19  22538719.022 6  22538722.402 5                 118441670.783 6  92292311.439 5
G31  22702074.291 5                  22702079.066 4 119300270.888 5                  92961216.395 4
R03  19296460.093 7  19296465.862 7 103295474.788 7  80340909.823 7
R04  20153363.590 7  20153367.991 7 107920385.331 7  83938144.197 7
R18  19918054.690 8  19918058.338 7 106323911.868 8  82696405.118 7
R19  19600776.924 8  19600778.710 7 104850930.029 8  81550707.740 7
> 2025 06 15 13 51 55.0000000  0 21
C11  24353980.878 6  24353979.167 7 126817593.823 6  98063390.958 7
C12  22053042.250 7  22053037.898 7 114836144.476 7  88798447.957 7
C21  23121112.883 7                 120397756.750 7
C22  21500596.810 7                 111959223.185 7
E03  25812569.580 7  25812571.591 8 135645870.434 7 102615304.499 8
E05  22029116.838 8  22029117.962 8 115763745.208 8  87574559.296 8
E09  25826391.359 5  25826408.594 5 135718496.040 5 102670227.897 5
E15  25024525.646 7  25024529.028 8 131504874.668 7  99482517.104 8
E34  23261677.434 8  23261679.650 9 122240922.359 8  92474482.402 9
E36  26050067.467 7  26050073.195 7 136894019.794 7 103559462.807 7
G01  20386662.241 7                  20386666.686 8 107132573.017 7                  83479995.997 8
G02  22454426.922 7  22454429.346 5                 117998713.256 7  91947131.772 5
G03  19848007.686 8                  19848014.098 7 104301974.147 8                  81274313.452 7
G04  21846119.101 7                  21846126.005 8 114802192.308 7                  89456250.156 8
G17  22258647.364 7                  22258651.184 7 116970010.652 7                  91145452.351 7
G19  22535979.823 7  22535983.308 5                 118427277.223 7  92281095.692 5
G31  22699159.955 5                  22699167.525 5 119284969.494 5                  92949293.255 5
R03  19296465.797 8  19296470.762 7 103295500.553 8  80340929.834 7
R04  20149959.117 7  20149963.423 7 107902149.386 7  83923960.680 7
R18  19919439.838 8  19919443.605 7 106331307.548 8  82702157.324 7
R19  19598154.719 8  19598156.547 7 104836904.878 8  81539799.304 7
> 2025 06 15 13 52  0.0000000  0 21
C11  24350513.013 6  24350510.071 7 126799529.760 6  98049422.690 7
C12  22052469.549 7  22052465.448 7 114833163.370 7  88796142.778 7
C21  23117964.244 7                 120381357.870 7
C22  21500223.495 7                 111957281.229 7
E03  25808769.322 7  25808771.944 8 135625903.023 7 102600199.291 8
E05  22027496.592 8  22027497.684 8 115755230.879 8  87568118.263 8
E09  25827381.344 5  25827398.828 5 135723699.061 5 102674163.946 5
E15  25021380.396 7  25021383.544 9 131488345.119 7  99470012.610 9
E34  23260951.963 8  23260953.782 9 122237108.058 8  92471596.907 9
E36  26051422.973 7  26051428.501 7 136901141.382 7 103564850.221 7
G01  20386868.871 8                  20386873.065 8 107133659.029 8                  83480842.236 8
G02  22455925.474 7  22455927.970 5                 118006588.039 7  91953267.972 5
G03  19846585.473 7                  19846591.760 7 104294499.671 7                  81268489.184 7
G04  21842162.287 7                  21842168.662 8 114781396.894 7                  89440045.943 8
G17  22257819.400 7                  22257823.737 7 116965662.832 7                  91142064.414 7
G19  22533244.234 7  22533247.345 5                 118412900.371 7  92269892.955 5
G31  22696251.195 5                  22696258.403 5 119269683.201 5                  92937381.846 5
R03  19296474.147 8  19296478.685 7 103295542.328 8  80340962.300 7
R04  20146557.227 8  20146560.257 7 107883928.026 8  83909788.531 7
R18  19920828.533 8  19920832.610 7 106338721.124 8  82707923.426 7
R19  19595536.600 8  19595538.194 7 104822899.418 8  81528906.165 7
> 2025 06 15 13 52  5.0000000  0 21
C11  24347045.465 6  24347042.778 7 126781474.752 6  98035461.431 7
C12  22051899.797 7  22051895.819 7 114830196.726 7  88793848.773 7
C21  23114816.164 7                 120364967.146 7
C22  21499853.363 7                 111955349.257 7
E03  25804970.705 7  25804973.304 8 135605941.193 7 102585098.300 8
E05  22025878.607 8  22025879.574 8 115746727.941 8  87561685.845 8
E09  25828372.903 5  25828390.372 5 135728909.205 5 102678105.419 5
E15  25018235.794 7  25018239.055 8 131471820.736 7  99457512.038 8
E34  23260228.156 8  23260229.739 9 122233303.273 8  92468718.609 9
E36  26052779.540 7  26052784.659 7 136908268.222 7 103570241.617 7
G01  20387078.092 8                  20387082.387 8 107134758.654 8                  83481699.085 8
G02  22457426.198 7  22457427.840 5                 118014471.028 7  91959410.554 5
G03  19845165.116 8                  19845171.584 7 104287036.713 8                  81262673.897 7
G04  21838207.287 7                  21838212.968 7 114760611.092 7                  89423849.225 7
G17  22256995.591 7                  22256999.239 7 116961330.689 7                  91138688.711 7
G19  22530511.406 7  22530514.869 5                 118398539.837 7  92258702.933 5
G31  22693344.750 5                  22693351.880 5 119254411.702 5                  92925481.977 5
R03  19296483.649 7  19296489.272 7 103295599.839 7  80341007.028 7
R04  20143156.648 8  20143160.640 7 107865720.929 8  83895627.456 7
R18  19922220.036 8  19922224.612 7 106346152.147 8  82713703.108 7
R19  19592922.021 8  19592923.919 7 104808913.350 8  81518028.110 7
> 2025 06 15 13 52 10.0000000  0 21
C11  24343580.410 6  24343577.358 7 126763429.353 6  98021507.592 7
C12  22051332.239 7  22051329.111 7 114827245.129 7  88791566.402 7
C21  23111670.874 7                 120348585.134 7
C22  21499483.588 7                 111953427.854 7
E03  25801173.130 7  25801175.918 8 135585985.503 7 102570001.953 8
E05  22024262.932 8  22024263.815 8 115738236.978 8  87555262.492 8
E09  25829366.128 5  25829383.137 5 135734127.120 5 102682052.709 5
E15  25015092.682 7  25015095.701 9 131455302.136 7  99445015.825 9
E34  23259506.175 8  23259507.640 9 122229508.582 8  92465847.948 9
E36  26054136.870 7  26054141.968 7 136915400.913 7 103575637.435 7
G01  20387290.105 7                  20387294.543 8 107135872.465 7                  83482566.998 8
G02  22458927.614 7  22458929.899 5                 118022362.790 7  91965559.954 5
G03  19843747.121 7                  19843753.932 7 104279585.877 7                  81256868.047 7
G04  21834252.857 7                  21834259.565 7 114739835.473 7                  89407660.441 7
G17  22256173.891 7                  22256177.895 7 116957014.805 7                  91135325.671 7
G19  22527781.900 7  22527785.363 5                 118384196.230 7  92247526.092 5
G31  22690441.027 5                  22690448.494 5 119239155.492 5                  92913593.994 5
R03  19296498.141 7  19296503.459 7 103295673.316 7  80341064.179 7
R04  20139759.758 8  20139763.196 7 107847528.725 8  83881477.973 7
R18  19923616.010 8  19923620.098 7 106353601.322 8  82719496.896 7
R19  19590310.239 8  19590312.886 7 104794947.260 8  81507165.594 7
> 2025 06 15 13 52 15.0000000  0 21
C11  24340116.590 6  24340113.679 7 126745392.899 6  98007560.665 7
C12  22050768.752 7  22050765.075 7 114824307.854 7  88789295.106 7
C21  23108526.697 7                 120332211.158 7
C22  21499116.844 7                 111951516.289 7
E03  25797377.258 7  25797379.568 8 135566035.311 7 102554909.755 8
E05  22022649.114 8  22022650.153 8 115729757.293 8  87548847.665 8
E09  25830359.858 5  25830377.327 5 135739351.995 5 102686005.293 5
E15  25011949.845 7  25011953.235 9 131438788.590 7  99432523.451 9
E34  23258785.717 8  23258787.283 9 122225723.288 8  92462984.396 9
E36  26055495.033 7  26055500.297 7 136922538.725 7 103581037.116 7
G01  20387504.254 7                  20387508.911 8 107136999.754 7                  83483445.408 8
G02  22460430.242 7  22460433.303 5                 118030262.599 7  91971715.632 5
G03  19842331.270 7                  19842338.166 7 104272146.432 7                  81251071.073 7
G04  21830301.695 7                  21830308.261 7 114719069.310 7                  89391479.040 7
G17  22255354.844 7                  22255359.454 7 116952714.461 7                  91131974.771 7
G19  22525054.290 6  22525059.325 5                 118369868.823 6  92236361.885 5
G31  22687540.938 5                  22687547.678 5 119223913.939 5                  92901717.458 5
R03  19296515.087 7  19296519.937 7 103295762.609 7  80341133.629 7
R04  20136364.796 8  20136368.538 7 107829350.699 8  83867339.502 7
R18  19925014.174 8  19925018.808 7 106361067.818 8  82725304.169 7
R19  19587703.494 8  19587705.804 7 104781000.547 8  81496318.147 7
> 2025 06 15 13 52 20.0000000  0 21
C11  24336653.993 6  24336651.772 7 126727365.261 6  97993620.558 7
C12  22050207.548 7  22050203.646 7 114821384.782 7  88787034.810 7
C21  23105383.340 7                 120315845.067 7
C22  21498751.440 7                 111949614.433 7
E03  25793581.749 7  25793584.108 8 135546090.394 7 102539821.563 8
E05  22021037.641 8  22021038.579 8 115721288.740 8  87542441.264 8
E09  25831356.045 5  25831372.779 5 135744583.793 5 102689963.077 5
E15  25008808.195 7  25008811.783 9 131422279.970 7  99420034.797 9
E34  23258066.863 8  23258068.735 9 122221947.248 8  92460127.848 9
E36  26056854.398 7  26056859.566 7 136929681.541 7 103586440.600 7
G01  20387720.908 7                  20387726.287 8 107138140.372 7                  83484334.213 8
G02  22461936.019 7  22461938.697 5                 118038170.300 7  91977877.470 5
G03  19840918.315 7                  19840924.522 7 104264718.224 7                  81245282.856 7
G04  21826352.053 7                  21826357.699 7 114698312.529 7                  89375304.936 7
G17  22254539.562 7                  22254544.204 7 116948429.511 7                  91128635.851 7
G19  22522332.102 7  22522335.895 5                 118355557.552 7  92225210.247 5
G31  22684644.023 5                  22684649.161 4 119208686.936 5                  92889852.229 4
R03  19296534.570 8  19296539.296 7 103295867.074 8  80341214.882 7
R04  20132972.432 8  20132976.734 7 107811186.546 8  83853211.849 7
R18  19926416.338 8  19926420.622 7 106368551.540 8  82731124.813 7
R19  19585100.422 8  19585102.502 7 104767073.024 8  81485485.616 7
> 2025 06 15 13 52 25.0000000  0 21
C11  24333193.623 6  24333191.674 7 126709347.790 6  97979688.304 7
C12  22049648.808 7  22049645.629 7 114818477.269 7  88784786.523 7
C21  23102242.711 7                 120299488.226 7
C22  21498387.860 7                 111947723.616 7
E03  25789786.748 7  25789790.068 8 135526152.163 7 102524738.427 8
E05  22019428.546 8  22019429.452 8 115712832.681 8  87536044.309 8
E09  25832353.234 5  25832369.927 5 135749823.684 5 102693926.985 5
E15  25005668.014 7  25005671.516 8 131405777.674 7  99407550.917 8
E34  23257350.314 8  23257352.224 9 122218181.838 8  92457279.338 9
E36  26058214.629 6  26058219.962 7 136936830.710 6 103591848.874 7
G01  20387940.928 7                  20387945.688 8 107139295.683 7                  83485234.446 8
G02  22463442.031 7  22463445.714 5                 118046087.318 7  91984046.566 5
G03  19839507.664 8                  19839513.511 8 104257302.659 8                  81239504.490 8
G04  21822403.428 7                  21822409.577 7 114677566.467 7                  89359139.188 7
G17  22253727.806 7                  22253732.228 7 116944161.320 7                  91125309.983 7
G19  22519611.914 7  22519615.773 5                 118341263.772 7  92214072.252 5
G31  22681748.579 5                  22681753.460 4 119193475.792 5                  92877999.390 4
R03  19296557.313 8  19296561.590 7 103295988.313 8  80341309.166 7
R04  20129583.258 8  20129587.240 7 107793037.967 8  83839096.289 7
R18  19927821.939 8  19927826.027 7 106376053.815 8  82736959.915 7
R19  19582500.136 8  19582502.146 7 104753166.048 8  81474669.078 7
> 2025 06 15 13 52 30.0000000  0 21
C11  24329735.324 6  24329733.322 7 126691340.417 6  97965763.867 7
C12  22049093.731 7  22049090.441 7 114815585.211 7  88782550.194 7
C21  23099102.161 7                 120283140.538 7
C22  21498026.530 7                 111945843.781 7
E03  25785994.075 7  25785997.241 8 135506220.551 7 102509660.294 8
E05  22017821.538 8  22017822.663 8 115704389.027 8  87529656.741 8
E09  25833352.324 5  25833368.455 5 135755071.722 5 102697897.091 5
E15  25002528.628 7  25002532.373 8 131389281.570 7  99395071.724 8
E34  23256635.596 8  23256637.703 9 122214426.957 8  92454438.797 9
E36  26059576.813 6  26059581.609 7 136943986.118 6 103597261.872 7
G01  20388163.783 7                  20388168.534 8 107140465.604 7                  83486146.071 8
G02  22464951.211 7  22464954.140 5                 118054013.472 7  91990222.775 5
G03  19838098.403 7                  19838104.548 8 104249899.611 7                  81233735.884 8
G04  21818457.783 7                  21818463.818 7 114656831.060 7                  89342981.739 7
G17  22252918.503 7                  22252922.681 7 116939909.762 7                  91121997.071 7
G19  22516895.218 7  22516899.109 5                 118326987.353 7  92202947.773 5
G31  22678857.121 5                  22678860.921 4 119178280.505 5                  92866158.927 4
R03  19296583.371 8  19296587.545 7 103296126.298 8  80341416.481 7
R04  20126196.478 7  20126200.977 7 107774904.629 7  83824992.590 7
R18  19929230.895 8  19929234.996 7 106383574.544 8  82742809.357 7
R19  19579904.284 8  19579906.426 7 104739279.492 8  81463868.452 7
> 2025 06 15 13 52 35.0000000  0 21
C11  24326279.703 6  24326276.932 7 126673342.671 6  97951846.888 7
C12  22048541.255 7  22048537.767 7 114812708.122 7  88780325.436 7
C21  23095965.257 7                 120266801.499 7
C22  21497667.723 7                 111943974.363 7
E03  25782201.762 7  25782205.605 8 135486295.015 7 102494586.775 8
E05  22016216.916 8  22016218.174 8 115695957.258 8  87523278.160 8
E09  25834352.667 5  25834368.660 5 135760327.369 5 102701872.965 5
E15  24999390.551 7  24999394.345 8 131372791.191 7  99382596.866 8
E34  23255923.188 8  23255925.042 9 122210682.115 8  92451605.843 9
E36  26060939.861 6  26060944.385 7 136951147.305 6 103602679.235 7
G01  20388388.943 7                  20388393.907 8 107141649.607 7                  83487068.680 8
G02  22466460.233 7  22466464.150 5                 118061948.322 7  91996405.758 5
G03  19836692.279 7                  19836698.053 8 104242508.573 7                  81227976.620 8
G04  21814513.518 7                  21814520.021 7 114636105.821 7                  89326832.198 7
G17  22252112.631 7                  22252116.928 7 116935674.339 7                  91118696.754 7
G19  22514181.187 7  22514185.385 5                 118312727.819 7  92191836.454 5
G31  22675969.371 5                  22675971.738 5 119163100.515 5                  92854330.348 5
R03  19296611.484 8  19296615.859 7 103296280.176 8  80341536.157 7
R04  20122813.291 8  20122816.919 7 107756786.187 8  83810900.484 7
R18  19930643.749 8  19930647.542 7 106391113.245 8  82748672.779 7
R19  19577313.023 8  19577314.482 7 104725412.934 8  81453083.339 7
> 2025 06 15 13 52 40.0000000  0 21
C11  24322824.961 6  24322822.631 7 126655354.062 6  97937936.968 7
C12  22047991.832 7  22047987.757 7 114809845.504 7  88778111.874 7
C21  23092829.033 7                 120250470.644 7
C22  21497310.571 7                 111942114.944 7
E03  25778411.472 7  25778414.954 8 135466375.139 7 102479517.546 8
E05  22014614.434 8  22014615.819 8 115687536.938 8  87516908.251 8
E09  25835353.898 4  25835370.269 5 135765590.189 4 102705854.235 5
E15  24996253.540 7  24996257.340 8 131356306.088 7  99370125.987 8
E34  23255212.280 8  23255214.222 9 122206946.845 8  92448780.139 9
E36  26062304.244 6  26062308.169 8 136958313.733 6 103608100.572 8
G01  20388616.850 8                  20388621.615 8 107142847.268 8                  83488001.904 8
G02  22467972.198 7  22467975.172 5                 118069891.372 7  92002595.125 5
G03  19835287.871 8                  19835294.036 8 104235129.137 8                  81222226.410 8
G04  21810571.473 7                  21810577.220 7 114615390.232 7                  89310690.189 7
G17  22251310.239 7                  22251314.381 7 116931454.624 7                  91115408.667 7
G19  22511471.494 7  22511474.977 5                 118298484.714 7  92180737.948 5
G31  22673084.042 6                  22673087.090 5 119147935.420 6                  92842513.334 5
R03  19296642.952 8  19296648.407 8 103296449.967 8  80341668.224 8
R04  20119432.123 8  20119436.141 7 107738682.108 8  83796819.532 7
R18  19932058.783 8  19932062.898 7 106398669.462 8  82754549.842 7
R19  19574724.393 8  19574725.859 7 104711565.926 8  81442313.439 7
> 2025 06 15 13 52 45.0000000  0 21
C11  24319372.869 6  24319370.205 7 126637375.875 6  97924035.102 7
C12  22047445.214 7  22047441.281 8 114806998.631 7  88775910.498 8
C21  23089695.280 7                 120234149.236 7
C22  21496955.832 7                 111940266.708 7
E03  25774621.846 7  25774625.716 8 135446462.120 7 102464453.497 8
E05  22013014.758 8  22013015.863 8 115679129.271 8  87510547.909 8
E09  25836358.612 4                                
E15  24993117.665 7  24993121.531 8 131339827.445 7  99357660.016 8
E34  23254503.583 8  23254505.486 9 122203222.373 8  92445962.601 9
E36  26063668.977 6  26063673.128 7 136965486.688 6 103613526.863 7
G01  20388847.709 8                  20388852.560 8 107144059.783 8                  83488946.722 8
G02  22469484.892 7  22469488.819 5                 118077843.836 7  92008791.849 5
G03  19833886.531 8                  19833892.260 8 104227762.462 8                  81216486.151 8
G04  21806631.544 7                  21806636.886 7 114594685.561 7                  89294556.682 7
G17  22250511.122 7                  22250514.726 7 116927251.826 7                  91112133.766 7
G19  22508764.624 7  22508767.943 5                 118284259.315 7  92169653.255 5
G31  22670201.491 6                  22670205.010 5 119132786.404 6                  92830708.947 5
R03  19296677.636 8  19296682.991 8 103296636.514 8  80341813.319 8
R04  20116055.256 8  20116058.579 7 107720593.535 8  83782750.643 7
R18  19933478.037 8  19933482.325 7 106406244.326 8  82760441.410 7
R19  19572139.819 8  19572141.341 7 104697739.697 8  81431559.714 7
> 2025 06 15 13 52 50.0000000  0 21
C11  24315921.959 6  24315919.280 7 126619407.021 6  97910140.443 7
C12  22046901.733 7  22046897.315 8 114804166.426 7  88773720.453 8
C21  23086561.918 7                 120217836.213 7
C22  21496603.262 7                 111938428.671 7
E03  25770833.800 7  25770837.496 8 135426554.983 7 102449393.899 8
E05  22011417.008 8  22011418.190 9 115670733.243 8  87504196.366 9
E09  25837357.745 4  25837377.651 5 135776139.68914 102713834.94015
E15  24989982.844 7  24989986.744 8 131323354.302 7  99345198.198 8
E34  23253796.427 8  23253798.580 9 122199507.679 8  92443152.461 9
E36  26065035.156 6  26065039.178 8 136972665.101 6 103618957.271 8
G01  20389080.903 7                  20389085.673 8 107145286.128 7                  83489902.306 8
G02  22471000.203 7  22471003.626 5                 118085804.672 7  92014995.081 5
G03  19832486.471 8                  19832492.558 8 104220407.560 8                  81210755.051 8
G04  21802693.740 7                  21802699.302 7 114573990.825 7                  89278430.922 7
G17  22249713.816 7                  22249717.917 7 116923064.869 7                  91108871.188 7
G19  22506060.500 6  22506064.367 5                 118270050.569 6  92158581.507 5
G31  22667320.739 6                  22667325.799 5 119117652.508 6                  92818916.308 5
R03  19296714.910 8  19296720.908 8 103296838.886 8  80341970.730 8
R04  20112679.484 8  20112682.964 7 107702519.608 8  83768693.145 7
R18  19934900.755 8  19934904.618 7 106413836.931 8  82766346.754 7
R19  19569558.150 8  19569560.471 7 104683933.189 8  81420821.322 7
> 2025 06 15 13 52 55.0000000  0 21
C11  24312473.474 6  24312470.653 7 126601448.834 6  97896254.030 7
C12  22046360.490 7  22046356.730 8 114801350.188 7  88771542.767 8
C21  23083431.406 7                 120201532.862 7
C22  21496251.920 7                 111936602.071 7
E03  25767046.751 7  25767050.685 8 135406654.975 7 102434339.688 8
E05  22009822.116 8  22009822.943 9 115662350.139 8  87497854.591 9
E09  25838365.017 4  25838383.242 5 135781426.741 4 102717834.553 5
E15  24986849.938 7  24986853.340 8 131306887.898 7  99332741.476 8
E34  23253091.607 8  23253093.785 9 122195804.031 8  92440350.678 9
E36  26066402.062 6  26066406.424 7 136979850.296 6 103624392.808 7
G01  20389317.315 7                  20389322.011 8 107146527.575 7                  83490869.654 8
G02  22472516.833 7  22472520.005 5                 118093775.148 7  92021205.839 5
G03  19831088.921 8                  19831095.503 8 104213065.683 8                  81205034.123 8
G04  21798756.939 7                  21798763.868 7 114553307.273 7                  89262313.864 7
G17  22248920.491 7                  22248924.243 7 116918895.098 7                  91105622.027 7
G19  22503359.666 6  22503364.118 5                 118255859.723 6  92147523.735 5
G31  22664444.058 6                  22664449.680 5 119102535.037 6                  92807136.458 5
R03  19296756.333 8  19296761.814 7 103297058.412 8  80342141.467 7
R04  20109307.056 8  20109310.409 7 107684461.494 8  83754647.941 7
R18  19936326.630 8  19936330.261 7 106421448.388 8  82772266.755 7
R19  19566981.893 8  19566983.228 7 104670147.853 8  81410099.393 7
> 2025 06 15 13 53  0.0000000  0 21
C11  24309026.216 6  24309023.864 7 126583500.254 6  97882375.053 7
C12  22045822.494 7  22045818.867 8 114798548.864 7  88769376.606 8
C21  23080301.812 7                 120185238.160 7
C22  21495902.673 7                 111934785.888 7
E03  25763261.243 7  25763265.027 8 135386761.094 7 102419290.120 8
E05  22008228.838 8  22008229.971 9 115653978.885 8  87491521.794 9
E09  25839372.213 4  25839390.371 5 135786721.271 4 102721839.877 5
E15  24983717.401 7  24983720.920 8 131290427.208 7  99320289.072 8
E34  23252388.844 8  23252390.957 9 122192110.407 8  92437556.470 9
E36  26067770.104 6  26067774.827 7 136987041.168 6 103629832.666 7
G01  20389555.784 7                  20389561.211 8 107147783.081 7                  83491847.984 8
G02  22474035.172 7  22474038.155 5                 118101754.240 7  92027423.305 5
G03  19829694.307 8                  19829700.952 8 104205735.827 8                  81199322.548 8
G04  21794823.627 7                  21794829.916 7 114532633.924 7                  89246204.766 7
G17  22248130.213 7                  22248133.822 7 116914741.462 7                  91102385.417 7
G19  22500663.140 7  22500666.956 5                 118241685.814 7  92136479.149 5
G31  22661569.853 6                  22661576.907 5 119087432.876 6                  92795368.520 5
R03  19296799.601 8  19296805.541 8 103297293.877 8  80342324.598 8
R04  20105937.858 8  20105941.762 7 107666418.212 8  83740614.293 7
R18  19937755.926 8  19937759.686 7 106429077.775 8  82778200.709 7
R19  19564408.689 8  19564409.770 7 104656382.485 8  81399392.979 7
> 2025 06 15 13 53  5.0000000  0 21
C11  24305581.532 6  24305578.864 7 126565560.766 6  97868503.116 7
C12  22045287.530 7  22045283.467 8 114795761.908 7  88767221.558 8
C21  23077173.646 7                 120168951.542 7
C22  21495555.611 7                 111932979.540 7
E03  25759475.914 7  25759480.374 8 135366872.747 7 102404244.734 8
E05  22006638.058 8  22006639.128 9 115645618.952 8  87485197.557 9
E09  25840379.982 4  25840398.895 5 135792022.844 4 102725850.502 5
E15  24980586.015 7  24980589.536 8 131273971.702 7  99307840.597 8
E34  23251687.596 8  23251689.859 9 122188426.230 8  92434769.419 9
E36  26069139.432 6  26069144.206 7 136994237.200 6 103635276.401 7
G01  20389797.813 7                  20389802.738 8 107149052.080 7                  83492836.806 8
G02  22475554.620 7  22475557.973 5                 118109741.375 7  92033647.024 5
G03  19828301.573 8                  19828308.088 7 104198417.374 8                  81193619.865 7
G04  21790891.359 7                  21790897.876 7 114511970.168 7                  89230103.144 7
G17  22247342.167 7                  22247346.247 7 116910603.368 7                  91099160.941 7
G19  22497969.170 7  22497972.936 5                 118227528.250 7  92125447.268 5
G31  22658699.664 6                  22658705.373 5 119072345.580 6                  92783612.145 5
R03  19296846.201 7  19296852.680 8 103297544.917 7  80342519.854 8
R04  20102570.844 8  20102574.870 7 107648389.094 8  83726591.663 7
R18  19939188.666 8  19939192.324 7 106436724.420 8  82784148.097 7
R19  19561839.502 8  19561840.113 7 104642636.560 8  81388701.697 7
> 2025 06 15 13 53 10.0000000  0 21
C11  24302137.902 6  24302135.374 7 126547631.283 6  97854638.898 7
C12  22044755.447 7  22044751.219 8 114792990.275 7  88765078.353 8
C21  23074047.224 7                 120152673.922 7
C22  21495210.563 7                 111931183.926 7
E03  25755692.889 7  25755696.948 8 135346990.889 7 102389204.258 8
E05  22005049.235 8  22005050.636 8 115637271.232 8  87478882.573 8
E09  25841390.676 4  25841409.002 5 135797332.267 4 102729867.012 5
E15  24977455.915 7  24977459.319 8 131257522.302 7  99295396.731 8
E34  23250988.404 8  23250990.752 9 122184752.444 8  92431990.219 9
E36  26070510.319 6  26070514.760 7 137001439.329 6 103640724.747 7
G01  20390042.471 7                  20390046.983 8 107150335.504 7                  83493836.884 8
G02  22477075.966 7  22477079.172 5                 118117737.499 7  92039877.744 5
G03  19826911.391 8                  19826917.751 7 104191111.303 8                  81187926.830 7
G04  21786961.029 7                  21786967.862 7 114491316.964 7                  89214009.750 7
G17  22246558.540 7                  22246562.133 7 116906481.770 7                  91095949.293 7
G19  22495277.905 7  22495282.011 5                 118213387.979 7  92114428.892 5
G31  22655831.918 6                  22655837.147 5 119057273.991 6                  92771868.038 5
R03  19296896.380 7  19296902.570 7 103297812.319 7  80342727.832 7
R04  20099206.333 8  20099210.973 7 107630375.177 8  83712580.858 7
R18  19940624.451 8  19940628.098 7 106444389.281 8  82790109.642 7
R19  19559273.071 8  19559274.331 7 104628911.106 8  81378026.346 7
> 2025 06 15 13 53 15.0000000  0 21
C11  24298697.011 6  24298694.126 7 126529711.707 6  97840782.359 7
C12  22044226.352 7  22044221.618 8 114790233.837 7  88762946.906 8
C21  23070923.092 7                 120136405.257 7
C22  21494868.270 7                 111929398.991 7
E03  25751910.904 7  25751914.723 8 135327115.440 7 102374168.617 8
E05  22003463.157 8  22003464.463 9 115628935.680 8  87472576.776 9
E09  25842403.817 4  25842420.605 5 135802649.46314 102733889.46915
E15  24974326.718 7  24974330.255 8 131241078.915 7  99282957.421 8
E34  23250291.582 8  23250293.641 9 122181088.978 8  92429218.829 9
E36  26071881.364 6  26071886.374 7 137008647.383 6 103646177.584 7
G01  20390289.147 7                  20390293.942 8 107151633.276 7                  83494848.139 8
G02  22478599.202 7  22478602.274 5                 118125742.486 7  92046115.392 5
G03  19825522.813 8                  19825529.751 7 104183817.518 8                  81182243.359 7
G04  21783033.169 7                  21783039.958 7 114470674.235 7                  89197924.523 7
G17  22245776.674 7                  22245780.803 7 116902376.566 7                  91092750.421 7
G19  22492590.203 7  22492594.680 5                 118199264.911 7  92103423.921 5
G31  22652966.043 6                  22652972.049 5 119042218.070 6                  92760136.133 5
R03  19296949.376 8  19296955.706 7 103298096.053 8  80342948.508 7
R04  20095845.549 8  20095850.127 7 107612376.449 8  83698581.849 7
R18  19942062.943 8  19942066.591 7 106452072.262 8  82796085.298 7
R19  19556711.413 8  19556712.848 7 104615205.957 8  81367366.796 7
> 2025 06 15 13 53 20.0000000  0 21
C11  24295257.582 6  24295254.441 7 126511801.940 6  97826933.396 7
C12  22043699.793 7  22043695.212 8 114787492.434 7  88760827.069 8
