     3.04           OBSERVATION DATA    Mixed(MIXED)        RINEX VERSION / TYPE
cnvtToRINEX 3.14.0  convertToRINEX OPR  20250615 162734 UTC PGM / RUN BY / DATE 
----------------------------------------------------------- COMMENT             
39.1K                                                       MARKER NAME         
39.1K                                                       MARKER NUMBER       
GEODETIC                                                    MARKER TYPE         
GNSS Observer       Trimble                                 OBSERVER / AGENCY   
6203S17886          Geo Explorer 3      5.53                REC # / TYPE / VERS 
                    UNKNOWN EXT     NONE                    ANT # / TYPE        
  3912583.8450  1190649.1559  4878945.4245                  APPROX POSITION XYZ 
        1.3240        0.0000        0.0000                  ANTENNA: DELTA H/E/N
G    6 C1C C2W C2X L1C L2W L2X                              SYS / # / OBS TYPES 
C    4 C2I C7I L2I L7I                                      SYS / # / OBS TYPES 
R    4 C1C C2C L1C L2C                                      SYS / # / OBS TYPES 
E    4 C1X C8X L1X L8X                                      SYS / # / OBS TYPES 
     5.000                                                  INTERVAL            
  2025     6    15    12    55    0.0000000     GPS         TIME OF FIRST OBS   
  2025     6    15    13    36    5.0000000     GPS         TIME OF LAST OBS    
     0                                                      RCV CLOCK OFFS APPL 
  6 R02 -4 R03  5 R04  6 R17  4 R18 -3 R19  3               GLONASS SLOT / FRQ #
G L2X -0.25000                                              SYS / PHASE SHIFT   
R L2C -0.25000                                              SYS / PHASE SHIFT   
    18                                                      LEAP SECONDS        
    27                                                      # OF SATELLITES     
   C06   493   493   493   493                              PRN / # OF OBS      
   C12   494   494   494   494                              PRN / # OF OBS      
   C16   494   494   494   494                              PRN / # OF OBS      
   C19   494     0   494     0                              PRN / # OF OBS      
   C21   494     0   494     0                              PRN / # OF OBS      
   C22   494     0   494     0                              PRN / # OF OBS      
   E05   494   494   494   494                              PRN / # OF OBS      
   E06   324   316   322   316                              PRN / # OF OBS      
   E09   494   494   494   494                              PRN / # OF OBS      
   E15   494   494   494   494                              PRN / # OF OBS      
   E34   494   494   494   494                              PRN / # OF OBS      
   E36   494   494   494   494                              PRN / # OF OBS      
   G01   494     0   494   494     0   494                  PRN / # OF OBS      
   G02   494   494     0   494   494     0                  PRN / # OF OBS      
   G03   494     0   494   494     0   494                  PRN / # OF OBS      
   G04   223     0   215   217     0   215                  PRN / # OF OBS      
   G17   494     0   494   494     0   494                  PRN / # OF OBS      
   G19    47     0     0    40     0     0                  PRN / # OF OBS      
   G28   457     0   447   453     0   447                  PRN / # OF OBS      
   G31    19     0    13    19     0    13                  PRN / # OF OBS      
   G32   343     0   309   336     0   309                  PRN / # OF OBS      
   R02   481   479   480   479                              PRN / # OF OBS      
   R03   494   494   494   494                              PRN / # OF OBS      
   R04   494   494   494   494                              PRN / # OF OBS      
   R17   243   196   236   190                              PRN / # OF OBS      
   R18   494   494   494   494                              PRN / # OF OBS      
   R19   494   494   494   494                              PRN / # OF OBS      
DBHZ                                                        SIGNAL STRENGTH UNIT
                                                            END OF HEADER       
>                              2  1
              *** Start of Kinematic Data ***               COMMENT             
> 2025 06 15 12 55  0.0000000  0 22
C12  22473286.957 7  22473282.593 7 117024294.42017  90602251.98317
C16  39820473.743 6  39820476.390 6 207355658.86616 160340554.48116
C19  23574277.880 7                 122757449.62917
C21  25001533.119 6                 130189555.45816
C22  21640467.371 7                 112687591.65117
E05  23028349.986 8  23028352.200 9 121014794.35818  91546916.75619
E06  26173383.630 7  26173386.491 8 137542053.43817 104049682.16718
E09  24934484.287 8  24934485.445 8 131031594.92418  99124556.43018
E15  26744124.272 6  26744128.515 7 140541327.86416 106318617.82917
E34  23550349.618 8  23550351.237 9 123757921.14618  93622070.62419
E36  24778775.476 8  24778778.701 8 130213345.14318  98505560.24218
G01  20250831.577 8                  20250835.805 8 106418840.13418                  82923785.23318
G02  21240707.717 8  21240709.639 6                 111620666.96918  86977157.33016
G03  20721649.429 7                  20721656.664 7 108893005.26017                  84851721.36517
G17  22907350.196 7                  22907355.558 7 120378939.37017                  93802047.41717
G32  23192002.274 7                  23192009.881 7 121874795.03117                  94967398.23617
R02  20741600.305 8  20741606.415 7 110681159.75518  86085240.35417
R03  19450840.443 8  19450845.457 7 104121868.99918  80983885.94117
R04  22420834.984 6  22420840.690 7 120062487.93516  93382019.57717
R17  21141562.928 5  21141570.065 7 113132777.69215  87992018.74317
R18  19201932.900 8  19201936.978 7 102501232.14618  79723284.15717
R19  21481438.104 7  21481438.530 6 114911207.56517  89375406.14416
> 2025 06 15 12 55  5.0000000  0 23
C06  39428705.182 6  39428702.195 6 205315606.78616 158763044.75416
C12  22470936.801 7  22470932.028 7 117012054.633 7  90592787.423 7
C16  39818142.392 6  39818145.156 6 207343520.293 6 160331168.167 6
C19  23575375.861 7                 122763168.119 7
C21  24997486.432 6                 130168481.225 6
C22  21638638.021 7                 112678067.863 7
E05  23025333.743 8  23025335.858 9 120998943.362 8  91534925.588 9
E06  26174229.353 7  26174232.396 8 137546498.809 7 104053045.071 8
E09  24934264.522 8  24934265.378 8 131030438.614 8  99123681.697 8
E15  26740560.438 6  26740564.211 7 140522597.125 6 106304448.171 7
E34  23548530.033 8  23548531.574 9 123748358.875 8  93614836.830 9
E36  24779368.611 8  24779371.850 8 130216462.377 8  98507918.400 8
G01  20249296.445 8                  20249300.729 8 106410772.714 8                  82917498.936 8
G02  21240961.141 8  21240963.547 6                 111622000.981 8  86978196.817 6
G03  20718786.914 7                  20718793.781 7 108877962.357 7                  84839999.619 7
G17  22904585.707 7                  22904590.401 7 120364409.956 7                  93790725.776 7
G32  23193318.333 7                  23193325.890 7 121881710.636 7                  94972787.010 7
R02  20743218.778 8  20743222.983 7 110689789.858 8  86091952.663 7
R03  19448560.304 8  19448564.679 7 104109661.061 8  80974390.889 7
R04  22415971.040 6  22415977.354 7 120036443.575 6  93361762.878 7
R17  21143628.604 6  21143635.322 6 113143829.076 6  88000614.274 6
R18  19200856.900 8  19200860.694 7 102495486.465 8  79718815.284 7
R19  21477026.036 7  21477028.011 6 114887613.919 7  89357055.567 6
>                              3  5
              *** Start of Occupation ***                   COMMENT             
39.1K                                                       MARKER NAME         
39.1K                                                       MARKER NUMBER       
  3912583.8450  1190649.1559  4878945.4245                  APPROX POSITION XYZ 
        1.3240        0.0000        0.0000                  ANTENNA: DELTA H/E/N
> 2025 06 15 12 55 10.0000000  0 23
C06  39426228.562 6  39426226.313 6 205302714.893 6 158753075.938 6
C12  22468588.670 7  22468584.052 7 116999826.484 7  90583331.837 7
C16  39815812.275 6  39815815.212 6 207331385.703 6 160321784.936 6
C19  23576475.481 7                 122768893.400 7
C21  24993439.788 6                 130147412.010 6
C22  21636811.058 8                 112668555.688 8
E05  23022318.441 8  23022321.253 9 120983101.699 8  91522941.482 9
E06  26175077.262 7  26175079.891 8 137550952.139 7 104056413.983 8
E09  24934046.166 8  24934047.445 8 131029293.325 8  99122815.298 8
E15  26736996.079 6  26737000.132 7 140503867.766 6 106290279.528 7
E34  23546711.420 8  23546713.268 9 123738803.557 8  93607608.304 9
E36  24779962.512 8  24779966.202 8 130219585.646 8  98510281.125 8
G01  20247763.247 8                  20247767.895 8 106402717.596 8                  82911222.204 8
G02  21241217.111 8  21241219.133 6                 111623345.211 8  86979244.263 6
G03  20715926.593 7                  20715933.180 7 108862929.625 7                  84828285.810 7
G17  22901823.055 7                  22901827.943 7 120349893.353 7                  93779414.132 7
G32  23194636.159 7                  23194643.856 7 121888635.862 7                  94978183.286 7
R02  20744838.166 8  20744842.311 7 110698431.727 8  86098674.122 7
R03  19446282.536 7  19446287.504 7 104097471.755 7  80964910.313 7
R04  22411107.936 6  22411114.775 7 120010407.147 6  93341512.328 7
R17  21145694.533 6  21145703.131 6 113154892.477 6  88009219.126 6
R18  19199784.936 8  19199787.332 7 102489759.870 8  79714361.268 7
R19  21472617.404 7  21472618.658 6 114864028.624 7  89338711.503 6
> 2025 06 15 12 55 15.0000000  0 23
C06  39423754.256 6  39423751.211 6 205289827.031 6 158743110.231 6
C12  22466242.409 7  22466237.674 7 116987610.268 7  90573885.487 7
C16  39813482.431 6  39813485.623 6 207319255.426 6 160312405.025 6
C19  23577577.016 7                 122774625.843 7
C21  24989394.631 6                 130126348.226 6
C22  21634986.986 7                 112659055.399 7
E05  23019305.654 8  23019308.532 9 120967269.646 8  91510964.648 9
E06  26175925.811 7  26175928.915 8 137555413.713 7 104059789.134 8
E09  24933830.071 8  24933831.654 8 131028159.379 8  99121957.471 8
E15  26733432.440 6  26733436.474 7 140485140.060 6 106276112.158 7
E34  23544894.683 8  23544896.357 9 123729255.516 8  93600385.264 9
E36  24780558.719 8  24780561.740 8 130222715.285 8  98512648.659 8
G01  20246232.614 8                  20246237.450 8 106394675.090 8                  82904955.322 8
G02  21241474.831 7  21241476.781 6                 111624700.072 7  86980299.992 6
G03  20713067.812 7                  20713074.539 7 108847907.367 7                  84816580.149 7
G17  22899063.702 7                  22899067.724 7 120335389.816 7                  93768112.681 7
G32  23195955.825 7                  23195964.132 7 121895571.080 7                  94983587.354 7
R02  20746460.228 8  20746464.959 7 110707085.814 8  86105405.051 7
R03  19444009.125 7  19444014.043 7 104085301.463 7  80955444.549 7
R04  22406246.806 6  22406253.836 7 119984378.694 6  93321268.023 7
R17  21147765.469 6  21147772.925 6 113165968.202 6  88017833.544 6
R18  19198716.169 8  19198718.510 7 102484052.675 8  79709922.338 7
R19  21468208.370 7  21468211.104 6 114840451.870 7  89320374.044 6
> 2025 06 15 12 55 20.0000000  0 23
C06  39421279.813 6  39421277.092 6 205276942.813 6 158733147.348 6
C12  22463898.617 7  22463894.078 7 116975405.491 7  90564447.979 7
C16  39811153.588 6  39811156.626 6 207307128.892 6 160303028.030 6
C19  23578678.917 7                 122780364.870 7
C21  24985350.095 6                 130105289.300 6
C22  21633164.553 7                 112649566.486 7
E05  23016294.563 8  23016297.475 9 120951446.664 8  91498994.679 9
E06  26176775.821 7  26176779.401 8 137559882.972 7 104063170.094 8
E09  24933616.243 8  24933617.918 8 131027036.238 8  99121107.815 8
E15  26729869.463 6  26729872.979 7 140466413.494 6 106261945.653 7
E34  23543079.127 8  23543080.708 9 123719714.208 8  93593167.332 9
E36  24781155.744 8  24781158.403 8 130225850.746 8  98515020.604 8
G01  20244705.035 8                  20244709.386 8 106386644.649 8                  82898697.836 8
G02  21241734.711 8  21241736.259 6                 111626064.968 8  86981363.536 6
G03  20710211.181 7                  20710217.721 7 108832895.057 7                  84804882.246 7
G17  22896305.945 7                  22896310.558 7 120320898.935 7                  93756821.105 7
G32  23197277.461 7                  23197285.251 7 121902515.709 7                  94988998.750 7
R02  20748084.499 8  20748088.710 7 110715751.569 8  86112145.062 7
R03  19441738.908 7  19441743.677 7 104073149.522 7  80945993.038 7
R04  22401388.103 6  22401394.768 7 119958357.924 6  93301029.657 7
R17  21149838.351 6  21149844.942 7 113177055.593 6  88026457.045 7
R18  19197650.136 8  19197653.275 7 102478364.326 8  79705498.071 7
R19  21463801.944 7  21463804.998 6 114816883.139 7  89302042.839 6
> 2025 06 15 12 55 25.0000000  0 23
C06  39418805.783 6  39418803.553 6 205264063.430 6 158723188.189 6
C12  22461556.969 7  22461552.445 7 116963213.421 7  90555020.293 7
C16  39808826.078 6  39808828.871 6 207295007.392 6 160293654.907 6
C19  23579782.585 7                 122786111.751 7
C21  24981307.168 6                 130084236.514 6
C22  21631344.511 7                 112640090.232 7
E05  23013285.634 8  23013288.430 9 120935634.063 8  91487032.551 9
E06  26177628.104 7  26177631.598 8 137564361.215 7 104066557.854 8
E09  24933405.038 8  24933406.494 8 131025925.159 8  99120267.289 8
E15  26726306.197 6  26726309.918 7 140447689.351 6 106247780.968 7
E34  23541265.133 8  23541266.581 9 123710180.909 8  93585955.450 9
E36  24781753.676 8  24781756.434 8 130228993.308 8  98517397.920 8
G01  20243179.073 8                  20243183.447 8 106378627.559 8                  82892450.743 8
G02  21241996.548 8  21241997.987 6                 111627441.137 8  86982435.873 6
G03  20707356.691 7                  20707363.217 7 108817893.952 7                  84793193.082 7
G17  22893549.969 7                  22893555.893 7 120306422.016 7                  93745540.381 7
G32  23198601.491 7                  23198608.622 7 121909470.987 7                  94994418.436 7
R02  20749710.445 8  20749715.077 7 110724430.139 8  86118895.057 7
R03  19439472.124 8  19439477.472 7 104061017.513 8  80936557.033 7
R04  22396529.899 6  22396537.098 6 119932345.977 6  93280798.187 6
R17  21151912.202 6  21151919.290 6 113188155.865 6  88035090.580 6
R18  19196587.458 8  19196590.795 7 102472696.144 8  79701089.495 7
R19  21459398.505 7  21459401.333 5 114793323.823 7  89283718.930 5
> 2025 06 15 12 55 30.0000000  0 23
C06  39416334.089 6  39416330.906 6 205251187.340 6 158713231.579 6
C12  22459216.836 7  22459213.310 7 116951032.533 7  90545601.253 7
C16  39806499.370 6  39806501.689 6 207282889.415 6 160284284.527 6
C19  23580886.929 7                 122791864.969 7
C21  24977265.562 6                 130063188.367 6
C22  21629526.700 7                 112630625.103 7
E05  23010278.730 8  23010281.067 9 120919830.292 8  91475077.109 9
E06  26178481.202 7  26178485.276 8 137568846.899 7 104069951.223 8
E09  24933195.375 8  24933197.095 8 131024824.603 8  99119434.722 8
E15  26722743.686 6  26722747.074 7 140428966.131 6 106233616.988 7
E34  23539451.873 8  23539453.691 9 123700654.095 8  93578748.485 9
E36  24782352.565 8  24782355.502 8 130232141.438 8  98519779.457 8
G01  20241656.056 7                  20241660.302 8 106370622.321 7                  82886212.889 8
G02  21242260.689 8  21242261.582 6                 111628827.111 8  86983515.861 6
G03  20704503.656 7                  20704510.203 7 108802902.548 7                  84781511.488 7
G17  22890798.591 7                  22890802.939 7 120291957.553 7                  93734269.353 7
G32  23199925.978 7                  23199934.227 7 121916435.445 7                  94999845.288 7
R02  20751338.864 8  20751343.694 7 110733120.279 8  86125654.066 7
R03  19437208.895 8  19437215.133 7 104048903.441 8  80927134.973 7
R04  22391673.906 6  22391681.360 6 119906341.394 6  93260572.419 6
R17  21153989.124 6  21153995.954 6 113199267.763 6  88043733.132 6
R18  19195528.818 8  19195532.506 7 102467046.553 8  79696695.366 7
R19  21454996.391 7  21454998.698 5 114769772.349 7  89265401.093 5
> 2025 06 15 12 55 35.0000000  0 23
C06  39413861.864 6  39413858.527 6 205238314.305 6 158703277.339 6
C12  22456879.752 7  22456875.992 7 116938862.561 7  90536190.658 7
C16  39804172.847 6  39804174.593 6 207270774.683 6 160274916.637 6
C19  23581992.813 7                 122797624.202 7
C21  24973223.240 6                 130042144.592 6
C22  21627710.530 7                 112621170.798 7
E05  23007273.013 8  23007275.304 9 120904035.102 8  91463128.156 9
E06  26179336.538 7  26179340.264 8 137573339.709 7 104073349.988 8
E09  24932988.068 8  24932989.662 8 131023734.293 8  99118609.905 8
E15  26719179.810 6  26719184.365 7 140410243.504 6 106219453.454 7
E34  23537640.586 8  23537641.974 9 123691133.499 8  93571546.218 9
E36  24782952.630 8  24782955.574 8 130235294.838 8  98522164.981 8
G01  20240134.789 8                  20240138.963 8 106362628.625 8                  82879984.027 8
G02  21242525.425 8  21242526.743 6                 111630222.577 8  86984603.248 6
G03  20701653.421 7                  20701659.221 7 108787920.561 7                  84769837.226 7
G17  22888048.606 7                  22888052.536 7 120277505.179 7                  93723007.775 7
G32  23201253.030 7                  23201261.461 7 121923408.739 7                  95005279.032 7
R02  20752969.437 8  20752974.165 7 110741821.328 8  86132421.548 7
R03  19434950.116 7  19434955.035 8 104036807.626 7  80917727.128 8
R04  22386819.768 6  22386826.813 6 119880343.771 6  93240352.101 6
R17  21156068.730 6  21156074.384 6 113210390.761 6  88052384.304 6
R18  19194473.521 7  19194477.441 7 102461415.265 7  79692315.468 7
R19  21450595.300 7  21450597.744 5 114746228.472 7  89247089.239 5
> 2025 06 15 12 55 40.0000000  0 23
C06  39411390.465 6  39411387.127 6 205225445.322 6 158693326.228 6
C12  22454544.988 7  22454541.227 7 116926704.507 7  90526789.276 7
C16  39801847.529 6  39801848.769 6 207258664.148 6 160265552.012 6
C19  23583100.942 7                 122803390.455 7
C21  24969183.698 6                 130021106.099 6
C22  21625897.365 7                 112611728.317 7
E05  23004269.200 8  23004271.374 9 120888249.464 8  91451186.425 9
E06  26180192.897 7  26180196.763 8 137577840.646 7 104076754.914 8
E09  24932782.984 8  24932784.361 8 131022655.216 8  99117793.596 8
E15  26715618.449 6  26715621.947 7 140391522.474 6 106205291.137 7
E34  23535830.022 8  23535831.604 9 123681620.108 8  93564349.397 9
E36  24783554.329 8  24783556.858 8 130238454.532 8  98524555.267 8
G01  20238616.472 8                  20238620.206 8 106354647.476 8                  82873764.941 8
G02  21242793.362 8  21242794.118 6                 111631628.548 8  86985698.809 6
G03  20698803.660 7                  20698810.384 7 108772948.990 7                  84758171.076 7
G17  22885301.376 7                  22885304.941 6 120263065.926 7                  93711756.446 6
G32  23202582.144 7                  23202590.088 7 121930391.842 7                  95010720.401 7
R02  20754602.284 8  20754607.409 7 110750534.514 8  86139198.461 7
R03  19432693.913 7  19432699.320 8 104024730.541 7  80908333.851 8
R04  22381966.460 7  22381973.891 7 119854354.237 7  93220138.030 7
R17  21158150.579 6  21158156.115 6 113221525.844 6  88061044.922 6
R18  19193422.516 8  19193426.646 7 102455803.346 8  79687950.665 7
R19  21446195.632 7  21446198.219 5 114722693.135 7  89228783.986 5
> 2025 06 15 12 55 45.0000000  0 23
C06  39408920.667 6  39408916.640 6 205212580.046 6 158683377.971 6
C12  22452211.794 7  22452208.703 7 116914558.004 7  90517396.823 7
C16  39799522.104 6  39799523.922 6 207246557.531 6 160256190.405 6
C19  23584209.705 7                 122809163.383 7
C21  24965143.656 6                 130000072.689 6
C22  21624086.127 7                 112602297.335 7
E05  23001267.166 8  23001269.180 9 120872473.056 8  91439251.687 9
E06  26181050.362 7  26181054.747 8 137582349.363 7 104080165.712 8
E09  24932579.474 7  24932581.138 8 131021587.035 7  99116985.520 8
E15  26712055.619 6  26712059.673 7 140372802.755 6 106191129.794 7
E34  23534020.900 8  23534022.528 9 123672113.604 8  93557157.782 9
E36  24784156.595 8  24784159.280 8 130241620.158 8  98526950.039 8
G01  20237100.138 8                  20237104.040 8 106346678.553 8                  82867555.406 8
G02  21243062.794 7  21243063.418 6                 111633044.667 7  86986802.282 6
G03  20695956.920 7                  20695963.510 7 108757987.545 7                  84746512.803 7
G17  22882555.835 7                  22882559.993 7 120248639.484 7                  93700515.099 7
G32  23203912.482 7                  23203920.769 7 121937384.456 7                  95016169.189 7
R02  20756237.459 8  20756242.260 7 110759259.284 8  86145984.382 7
R03  19430441.890 8  19430446.852 7 104012671.940 8  80898954.938 7
R04  22377114.565 7  22377121.425 7 119828372.430 7  93199929.991 7
R17  21160232.089 6  21160238.658 6 113232672.786 6  88069714.742 6
R18  19192374.307 8  19192378.758 7 102450210.435 8  79683600.628 7
R19  21441797.628 7  21441800.162 6 114699166.066 7  89210485.163 6
> 2025 06 15 12 55 50.0000000  0 23
C06  39406450.171 6  39406446.844 6 205199718.409 6 158673432.559 6
C12  22449881.785 7  22449878.218 7 116902423.042 7  90508013.303 7
C16  39797198.099 6  39797200.063 6 207234454.729 6 160246831.775 6
C19  23585319.399 7                 122814942.908 7
C21  24961106.420 6                 129979044.167 6
C22  21622277.135 7                 112592877.809 7
E05  22998266.802 8  22998268.769 9 120856705.833 8  91427323.885 9
E06  26181910.378 7  26181914.190 8 137586865.782 7 104083582.343 8
E09  24932378.103 7  24932379.985 8 131020529.687 7  99116185.636 8
E15  26708493.260 6  26708497.738 7 140354084.281 6 106176969.429 7
E34  23532212.935 8  23532214.759 9 123662613.916 8  93549971.333 9
E36  24784760.049 8  24784762.849 8 130244791.662 8  98529349.250 8
G01  20235586.117 8                  20235589.759 8 106338721.789 8                  82861355.319 8
G02  21243334.261 8  21243334.603 6                 111634470.904 8  86987913.638 6
G03  20693112.005 7                  20693118.072 7 108743036.105 7                  84734862.330 7
G17  22879812.101 7                  22879817.034 7 120234225.789 7                  93689283.650 7
G32  23205245.233 7                  23205253.380 7 121944386.469 7                  95021625.304 7
R02  20757874.581 8  20757879.361 7 110767995.573 8  86152779.252 7
R03  19428192.341 8  19428197.475 7 104000631.978 8  80889590.524 7
R04  22372264.869 7  22372270.968 7 119802398.349 7  93179727.944 7
R17  21162316.212 6  21162324.000 6 113243831.369 6  88078393.639 6
R18  19191330.939 8  19191334.187 7 102444636.489 8  79679265.337 7
R19  21437401.739 7  21437403.591 6 114675647.181 7  89192192.688 6
> 2025 06 15 12 55 55.0000000  0 23
C06  39403981.717 6  39403977.939 6 205186860.864 6 158663490.293 6
C12  22447553.579 7  22447549.989 7 116890300.073 7  90498639.058 7
C16  39794875.047 6  39794876.451 6 207222356.239 6 160237476.463 6
C19  23586430.663 7                 122820729.471 7
C21  24957069.412 6                 129958021.104 6
C22  21620469.862 7                 112583470.117 7
E05  22995268.094 8  22995270.252 8 120840948.210 8  91415403.363 8
E06  26182770.918 7  26182775.183 8 137591390.375 7 104087005.165 8
E09  24932179.000 7  24932180.942 8 131019483.597 7  99115394.268 8
E15  26704931.960 6  26704936.284 7 140335367.468 6 106162810.291 7
E34  23530406.990 8  23530408.424 9 123653121.476 8  93542790.364 9
E36  24785365.255 8  24785367.593 8 130247969.494 8  98531753.259 8
G01  20234074.648 8                  20234078.210 8 106330777.647 8                  82855165.074 8
G02  21243607.654 8  21243608.044 6                 111635907.677 8  86989033.202 6
G03  20690268.567 7                  20690275.035 7 108728095.135 7                  84723219.993 7
G17  22877071.538 7                  22877076.464 7 120219825.262 7                  93678062.498 7
G32  23206579.584 7                  23206587.734 7 121951398.323 7                  95027089.070 7
R02  20759514.165 8  20759518.486 7 110776743.918 8  86159583.523 7
R03  19425947.041 8  19425952.165 7 103988610.955 8  80880240.833 7
R04  22367415.423 7  22367422.609 7 119776432.380 7  93159532.193 7
R17  21164402.140 5  21164411.755 6 113255002.081 5  88087081.996 6
R18  19190289.395 7  19190293.609 7 102439081.951 7  79674945.132 7
R19  21433006.718 7  21433008.539 6 114652136.988 7  89173906.986 6
> 2025 06 15 12 56  0.0000000  0 23
C06  39401513.031 6  39401509.776 6 205174007.883 6 158653551.554 6
C12  22445227.128 7  22445223.990 7 116878189.496 7  90489274.386 7
C16  39792552.545 6  39792554.041 6 207210262.398 6 160228124.735 6
C19  23587543.948 7                 122826523.466 7
C21  24953033.284 6                 129937003.849 6
C22  21618665.606 7                 112574074.721 7
E05  22992271.611 8  22992273.606 9 120825200.641 8  91403490.433 9
E06  26183634.255 7  26183637.788 8 137595923.543 7 104090434.461 8
E09  24931982.140 7  24931984.152 8 131018449.174 7  99114611.731 8
E15  26701370.138 6  26701374.964 7 140316652.718 6 106148652.712 7
E34  23528602.206 8  23528603.497 9 123643636.737 8  93535615.215 9
E36  24785970.790 8  24785973.633 8 130251154.063 8  98534162.354 8
G01  20232565.400 8                  20232569.089 8 106322846.500 8                  82848984.963 8
G02  21243882.999 7  21243883.691 6                 111637355.407 7  86990161.292 6
G03  20687427.006 7                  20687433.762 7 108713165.049 7                  84711586.157 7
G17  22874333.610 7                  22874339.144 7 120205438.424 7                  93666851.966 7
G32  23207916.019 7                  23207923.883 7 121958420.434 7                  95032560.824 7
R02  20761155.546 8  20761159.860 7 110785504.936 8  86166397.653 7
R03  19423703.819 7  19423709.815 8 103976609.294 7  80870906.228 8
R04  22362567.073 7  22362574.698 7 119750475.038 7  93139343.158 7
R17  21166492.473 6  21166501.687 6 113266185.368 6  88095780.099 6
R18  19189253.410 8  19189257.016 7 102433547.246 8  79670640.365 7
R19  21428613.238 7  21428615.884 6 114628635.840 7  89155628.331 6
> 2025 06 15 12 56  5.0000000  0 23
C06  39399045.980 6  39399041.749 6 205161158.043 6 158643615.248 6
C12  22442904.154 7  22442900.443 7 116866090.029 7  90479918.300 7
C16  39790229.995 6  39790232.171 6 207198171.978 6 160218775.651 6
C19  23588657.257 7                 122832323.606 7
C21  24948997.421 6                 129915991.142 6
C22  21616864.455 7                 112564690.283 7
E05  22989276.661 8  22989278.558 9 120809461.829 8  91391584.137 9
E06  26184498.621 7  26184501.860 8 137600463.931 7 104093869.212 8
E09  24931787.403 7  24931789.266 8 131017425.127 7  99113837.046 8
E15  26697810.359 6  26697813.867 7 140297938.849 6 106134495.804 7
E34  23526798.613 8  23526799.771 9 123634158.382 8  93528444.896 9
E36  24786578.266 8  24786580.694 8 130254344.074 8  98536575.569 8
G01  20231057.848 8                  20231061.788 8 106314927.094 8                  82842814.000 8
G02  21244160.614 7  21244161.084 6                 111638812.804 7  86991296.915 6
G03  20684588.038 7                  20684594.358 7 108698244.529 7                  84699959.787 7
G17  22871598.434 7                  22871604.109 7 120191063.906 7                  93655651.050 7
G32  23209253.558 7                  23209261.862 7 121965451.470 7                  95038039.559 7
R02  20762800.003 8  20762804.446 7 110794276.816 8  86173220.246 7
R03  19421465.175 7  19421471.317 8 103964625.781 7  80861585.706 8
R04  22357721.160 7  22357728.335 7 119724524.934 7  93119159.760 7
R17  21168583.859 5  21168593.053 6 113277379.974 5  88104486.964 6
R18  19188219.999 8  19188223.271 7 102428030.998 8  79666349.956 7
R19  21424221.260 7  21424224.284 6 114605142.555 7  89137355.787 6
> 2025 06 15 12 56 10.0000000  0 23
C06  39396578.787 6  39396574.714 6 205148311.050 6 158633681.140 6
C12  22440582.210 7  22440578.836 7 116854001.335 7  90470570.557 7
C16  39787909.295 6  39787911.138 6 207186084.594 6 160209428.933 6
C19  23589772.256 7                 122838129.496 7
C21  24944963.319 6                 129894982.603 6
C22  21615064.143 7                 112555316.481 7
E05  22986282.895 8  22986285.185 9 120793731.410 8  91379684.186 9
E06  26185364.214 6  26185367.118 8 137605011.172 6 104097309.178 8
E09  24931594.380 7  24931596.242 8 131016411.074 7  99113069.915 8
E15  26694249.117 6  26694252.855 7 140279225.342 6 106120339.169 7
E34  23524996.284 8  23524997.237 9 123624686.054 8  93521279.135 9
E36  24787186.013 8  24787188.720 8 130257539.160 8  98538992.624 8
G01  20229553.294 8                  20229557.019 8 106307019.048 8                  82836651.873 8
G02  21244439.752 7  21244440.411 6                 111640279.482 7  86992439.786 6
G03  20681750.172 7                  20681756.953 7 108683333.249 7                  84688340.606 7
G17  22868865.182 7                  22868870.945 7 120176701.313 7                  93644459.422 7
G32  23210593.599 7                  23210601.387 7 121972491.052 7                  95043524.946 7
R02  20764445.040 8  20764449.765 7 110803059.554 8  86180051.266 7
R03  19419229.643 7  19419235.906 8 103952659.724 7  80852278.757 8
R04  22352876.653 7  22352883.387 7 119698581.729 7  93098981.730 7
R17  21170680.019 5  21170687.114 7 113288585.324 5  88113202.182 7
R18  19187190.196 8  19187193.734 7 102422532.919 8  79662073.679 7
R19  21419831.371 7  21419832.793 6 114581656.682 7  89119089.031 6
> 2025 06 15 12 56 15.0000000  0 23
C06  39394112.070 6  39394108.273 6 205135467.183 6 158623749.460 6
C12  22438262.663 7  22438259.350 8 116841923.616 7  90461231.294 8
C16  39785588.949 6  39785590.464 6 207174000.477 6 160200084.729 6
C19  23590888.076 7                 122843941.409 7
C21  24940929.604 6                 129873978.475 6
C22  21613266.402 7                 112545953.544 7
E05  22983291.366 8  22983293.355 9 120778009.591 8  91367790.746 9
E06  26186230.793 6  26186233.745 8 137609565.529 6 104100754.521 8
E09  24931403.219 7  24931405.232 8 131015407.252 7  99112310.540 8
E15  26690687.412 6  26690691.967 7 140260512.522 6 106106183.058 7
E34  23523195.244 8  23523195.890 9 123615220.004 8  93514118.122 9
E36  24787795.260 8  24787797.777 8 130260739.542 8  98541413.683 8
G01  20228050.522 8                  20228054.420 8 106299122.627 8                  82830498.821 8
G02  21244720.931 8  21244721.440 6                 111641755.690 8  86993590.070 6
G03  20678914.346 7                  20678921.194 7 108668431.460 7                  84676728.810 7
G17  22866132.987 7                  22866140.013 7 120162350.919 7                  93633277.321 7
G32  23211934.294 7                  23211942.731 7 121979539.448 7                  95049017.207 7
R02  20766093.502 8  20766098.396 7 110811853.146 8  86186890.712 7
R03  19416999.071 7  19417004.299 8 103940711.936 7  80842986.018 8
R04  22348032.959 7  22348040.647 7 119672645.767 7  93078809.319 7
R17  21172775.210 5  21172783.427 7 113299801.796 5  88121926.092 7
R18  19186163.167 8  19186167.376 7 102417053.281 8  79657811.730 7
R19  21415441.288 7  21415444.254 6 114558178.549 7  89100828.281 6
> 2025 06 15 12 56 20.0000000  0 23
C06  39391646.246 6  39391641.913 6 205122626.625 6 158613820.335 6
C12  22435944.898 7  22435941.999 7 116829857.134 7  90451900.724 7
C16  39783269.192 6  39783270.854 6 207161919.879 6 160190743.238 6
C19  23592005.567 7                 122849759.539 7
C21  24936896.942 6                 129852979.022 6
C22  21611470.065 7                 112536601.703 7
E05  22980301.146 8  22980303.261 9 120762296.656 8  91355904.017 9
E06  26187099.275 7  26187101.789 7 137614127.214 7 104104205.405 7
E09  24931214.253 7  24931216.188 8 131014413.901 7  99111559.077 8
E15  26687126.748 6  26687131.219 7 140241800.610 6 106092027.631 7
E34  23521394.874 8  23521395.769 9 123605760.432 8  93506962.016 9
E36  24788404.976 8  24788407.866 8 130263945.468 8  98543838.938 8
G01  20226549.927 8                  20226553.878 8 106291238.053 8                  82824354.993 8
G02  21245003.648 8  21245004.602 6                 111643241.623 8  86994747.940 6
G03  20676080.637 7                  20676087.345 7 108653539.357 7                  84665124.575 7
G17  22863405.704 6                  22863411.589 7 120148012.997 6                  93622104.911 7
G32  23213277.639 7                  23213285.263 7 121986596.840 7                  95054516.476 7
R02  20767743.602 8  20767748.222 7 110820657.979 8  86193738.913 7
R03  19414770.078 7  19414775.223 8 103928782.140 7  80833707.300 8
R04  22343191.788 7  22343198.640 7 119646717.127 7  93058642.626 7
R17  21174873.841 5  21174882.452 6 113311029.572 5  88130658.818 6
R18  19185141.303 8  19185144.087 7 102411592.246 8  79653564.249 7
R19  21411054.336 7  21411056.954 6 114534708.391 7  89082573.694 6
> 2025 06 15 12 56 25.0000000  0 23
C06  39389180.318 6  39389176.680 6 205109789.875 6 158603894.146 6
C12  22433630.142 7  22433626.845 7 116817802.410 7  90442579.249 7
C16  39780950.331 7  39780951.617 6 207149843.335 7 160181404.881 6
C19  23593124.433 7                 122855584.387 7
C21  24932865.160 6                 129831984.759 6
C22  21609676.850 7                 112527261.479 7
E05  22977312.853 8  22977314.963 9 120746593.113 8  91344024.401 9
E06  26187968.500 6  26187971.318 7 137618696.747 6 104107662.225 7
E09  24931027.218 7  24931029.239 8 131013431.521 7  99110815.910 8
E15  26683566.252 6  26683570.718 7 140223090.163 6 106077873.309 7
E34  23519595.969 8  23519596.973 9 123596307.905 8  93499811.235 9
E36  24789015.992 8  24789019.131 8 130267157.449 8  98546268.776 8
G01  20225052.218 8                  20225055.906 8 106283365.854 8                  82818220.821 8
G02  21245288.056 8  21245289.595 6                 111644737.798 8  86995913.789 6
G03  20673249.057 7                  20673255.359 7 108638657.455 7                  84653528.290 7
G17  22860679.482 6                  22860685.861 7 120133688.043 6                  93610942.614 7
G32  23214622.344 7                  23214629.914 7 121993663.766 7                  95060023.173 7
R02  20769395.582 8  20769400.640 6 110829474.512 8  86200596.188 6
R03  19412545.163 7  19412550.219 7 103916871.070 7  80824443.157 7
R04  22338350.250 7  22338358.446 7 119620796.430 7  93038482.121 7
R17  21176975.354 6  21176982.989 6 113322269.132 6  88139400.670 6
R18  19184121.759 8  19184124.785 7 102406150.393 8  79649331.695 7
R19  21406668.081 7  21406670.921 6 114511246.722 7  89064325.741 6
> 2025 06 15 12 56 30.0000000  0 23
C06  39386716.174 6  39386712.682 6 205096957.214 6 158593971.108 6
C12  22431317.344 7  22431314.352 7 116805759.674 7  90433267.042 7
C16  39778631.542 7  39778633.149 6 207137770.984 7 160172069.783 6
C19  23594244.369 7                 122861416.145 7
C21  24928834.268 6                 129810995.866 6
C22  21607885.607 7                 112517933.031 7
E05  22974326.470 8  22974328.494 9 120730899.153 8  91332152.021 9
E06  26188839.547 6  26188842.347 7 137623274.337 6 104111125.130 7
E09  24930842.245 7  24930844.382 8 131012460.302 7  99110081.188 8
E15  26680006.234 6  26680010.554 8 140204381.320 6 106063720.199 8
E34  23517798.756 8  23517799.566 9 123586862.583 8  93492665.915 9
E36  24789628.160 8  24789631.580 8 130270375.685 8  98548703.348 8
G01  20223556.369 8                  20223560.615 8 106275506.223 8                  82812096.417 8
G02  21245574.916 7  21245576.797 6                 111646244.436 7  86997087.783 6
G03  20670418.892 7                  20670425.382 7 108623785.990 7                  84641940.164 7
G17  22857956.408 6                  22857962.413 7 120119376.302 6                  93599790.616 7
G32  23215968.492 7                  23215976.824 7 122000740.410 7                  95065537.424 7
R02  20771050.304 8  20771055.425 7 110838302.757 8  86207462.568 7
R03  19410324.293 7  19410328.660 7 103904978.901 7  80815193.685 7
R04  22333511.134 7  22333519.469 7 119594883.938 7  93018327.984 7
R17  21179079.642 6  21179084.732 6 113333520.823 6  88148151.925 6
R18  19183105.333 8  19183108.807 7 102400727.894 8  79645114.176 7
R19  21402285.027 7  21402286.746 6 114487793.775 7  89046084.580 6
> 2025 06 15 12 56 35.0000000  0 23
C06  39384252.981 6  39384249.021 6 205084128.525 6 158584051.155 6
C12  22429007.178 7  22429004.180 8 116793728.856 7  90423964.059 8
C16  39776314.343 7  39776315.602 6 207125702.813 7 160162737.919 6
C19  23595365.979 7                 122867254.794 7
C21  24924805.071 6                 129790012.339 6
C22  21606096.183 8                 112508616.376 8
E05  22971341.912 8  22971343.876 9 120715214.782 8  91320286.907 9
E06  26189712.081 7  26189714.960 8 137627859.903 7 104114594.085 8
E09  24930659.870 7  24930661.655 8 131011500.229 7  99109354.897 8
E15  26676446.264 6  26676450.623 7 140185674.127 6 106049568.327 7
E34  23516002.875 8  23516003.547 9 123577424.465 8  93485526.054 9
E36  24790241.755 8  24790245.181 8 130273600.150 8  98551142.630 8
G01  20222063.174 8                  20222067.335 8 106267659.147 8                  82805981.811 8
G02  21245863.466 7  21245865.918 6                 111647761.517 7  86998269.926 6
G03  20667590.914 7                  20667597.374 7 108608924.904 7                  84630360.137 7
G17  22855234.902 6                  22855241.825 7 120105077.729 6                  93588648.854 7
G32  23217316.778 7                  23217325.003 7 122007826.723 7                  95071059.208 7
R02  20772706.675 8  20772711.805 7 110847142.930 8  86214338.231 7
R03  19408105.677 7  19408110.208 7 103893105.823 7  80805959.065 7
R04  22328674.453 7  22328681.973 7 119568979.717 7  92998180.279 7
R17  21181185.978 6  21181189.604 6 113344784.475 6  88156912.502 6
R18  19182093.822 8  19182096.592 7 102395324.753 8  79640911.728 7
R19  21397902.065 7  21397904.839 6 114464349.475 7  89027850.123 6
> 2025 06 15 12 56 40.0000000  0 23
C06  39381789.954 6  39381785.522 6 205071303.710 6 158574134.212 6
C12  22426699.341 7  22426696.214 7 116781709.838 7  90414670.205 7
C16  39773998.631 7  39773998.779 6 207113638.716 7 160153409.189 6
C19  23596488.524 7                 122873100.179 7
C21  24920775.933 6                 129769034.002 6
C22  21604308.820 7                 112499311.345 7
E05  22968358.897 8  22968361.050 8 120699539.837 8  91308428.920 8
E06  26190585.978 7  26190589.036 7 137632453.332 7 104118068.979 7
E09  24930478.913 7  24930480.987 8 131010551.142 7  99108636.918 8
E15  26672886.219 6  26672891.035 8 140166968.385 6 106035417.573 8
E34  23514207.845 8  23514208.830 8 123567993.406 8  93478391.521 8
E36  24790856.413 8  24790859.953 8 130276830.692 8  98553586.500 8
G01  20220572.066 8                  20220576.158 8 106259824.470 8                  82799876.875 8
G02  21246154.121 8  21246156.781 6                 111649288.917 8  86999460.101 6
G03  20664765.060 7                  20664771.324 7 108594074.078 7                  84618788.096 7
G17  22852517.275 7                  22852522.942 7 120090792.193 7                  93577517.274 7
G32  23218667.347 7                  23218675.200 7 122014922.534 7                  95076588.391 7
R02  20774366.323 8  20774370.399 7 110855994.792 8  86221222.985 7
R03  19405891.683 8  19405895.733 7 103881251.211 8  80796738.793 7
R04  22323837.300 7  22323845.946 7 119543083.338 7  92978038.657 7
R17  21183293.270 6  21183296.184 6 113356059.935 6  88165682.265 6
R18  19181085.338 8  19181088.442 7 102389940.813 8  79636724.211 7
R19  21393521.161 7  21393523.005 6 114440913.715 7  89009622.342 6
> 2025 06 15 12 56 45.0000000  0 23
C06  39379327.100 6  39379323.397 6 205058481.302 6 158564219.125 6
C12  22424393.666 7  22424390.318 8 116769701.101 7  90405384.312 8
C16  39771681.978 7  39771682.996 6 207101577.169 7 160144082.446 6
C19  23597612.343 7                 122878950.775 7
C21  24916748.540 7                 129748059.418 7
C22  21602524.802 7                 112490016.448 7
E05  22965377.627 8  22965379.722 9 120683872.828 8  91296576.945 9
E06  26191460.839 7  26191464.317 8 137637053.095 7 104121548.664 8
E09  24930300.753 7  24930302.153 8 131009611.540 7  99107926.105 8
E15  26669326.821 6  26669331.504 7 140148262.598 6 106021266.794 7
E34  23512414.117 8  23512415.238 8 123558567.920 8  93471261.211 8
E36  24791472.046 8  24791475.585 8 130280065.824 8  98556033.854 8
G01  20219083.225 8                  20219087.557 8 106252000.721 8                  82793780.440 8
G02  21246446.148 7  21246449.231 6                 111650825.133 7  87000657.152 6
G03  20661940.705 7                  20661947.518 7 108579232.035 7                  84607222.873 7
G17  22849801.726 7                  22849806.707 7 120076518.149 7                  93566394.652 7
G32  23220019.353 7                  23220026.929 7 122022026.351 7                  95082123.813 7
R02  20776027.051 8  20776030.843 7 110864856.758 8  86228115.644 7
R03  19403680.994 8  19403684.230 7 103869413.957 8  80787532.038 7
R04  22319003.922 7  22319010.526 7 119517193.583 7  92957902.168 7
R17  21185400.468 5  21185405.381 6 113367345.593 5  88174459.992 6
R18  19180080.133 8  19180082.635 7 102384574.584 8  79632550.476 7
R19  21389140.600 7  21389143.522 6 114417485.093 7  88991400.081 6
> 2025 06 15 12 56 50.0000000  0 23
C06  39376864.927 6  39376861.568 6 205045662.110 6 158554306.517 6
C12  22422089.344 7  22422086.640 8 116757703.561 7  90396107.065 8
C16  39769366.895 7  39769367.376 6 207089519.038 7 160134758.342 6
C19  23598737.134 7                 122884807.451 7
C21  24912722.115 6                 129727089.394 6
C22  21600741.241 7                 112480732.560 7
E05  22962397.719 8  22962400.097 9 120668214.622 8  91284731.620 9
E06  26192337.334 7  26192340.881 7 137641660.052 7 104125033.794 7
E09  24930123.441 7  24930125.311 8 131008682.263 7  99107223.119 8
E15  26665767.020 6  26665772.078 8 140129557.685 6 106007116.651 8
E34  23510621.628 8  23510622.857 8 123549148.861 8  93464135.750 8
E36  24792088.673 8  24792092.225 8 130283306.383 8  98558485.306 8
G01  20217596.298 7                  20217600.704 8 106244188.716 7                  82787693.178 8
G02  21246740.344 7  21246743.249 6                 111652371.019 7  87001861.715 6
G03  20659118.487 7                  20659124.717 7 108564399.619 7                  84595665.130 7
G17  22847087.906 7                  22847092.993 7 120062256.519 7                  93555281.708 7
G32  23221371.923 7                  23221380.782 7 122029138.997 7                  95087666.142 7
R02  20777689.126 8  20777693.534 7 110873729.534 8  86235016.690 7
R03  19401471.654 7  19401476.273 7 103857594.717 7  80778339.325 7
R04  22314170.387 7  22314177.588 7 119491311.098 7  92937771.361 7
R17  21187510.698 5  21187516.385 6 113378642.455 5  88183246.449 6
R18  19179078.252 8  19179081.450 7 102379226.893 8  79628391.161 7
R19  21384762.047 7  21384765.700 6 114394064.420 7  88973184.021 6
> 2025 06 15 12 56 55.0000000  0 23
C06  39374404.028 6  39374400.367 6 205032846.633 6 158544396.780 6
C12  22419788.103 7  22419784.883 8 116745717.707 7  90386838.842 8
C16  39767052.283 7  39767052.093 6 207077464.822 7 160125437.261 6
C19  23599862.739 7                 122890670.685 7
C21  24908695.758 6                 129706124.478 6
C22  21598960.758 7                 112471460.140 7
E05  22959419.515 8  22959422.176 8 120652565.695 8  91272893.317 8
E06  26193214.890 7  26193219.018 8 137646274.677 7 104128524.738 8
E09  24929949.185 7  24929950.531 8 131007763.791 7  99106528.301 8
E15  26662207.972 6  26662212.869 7 140110854.104 6 105992967.528 7
E34  23508830.137 8  23508831.734 8 123539736.727 8  93457015.536 8
E36  24792706.540 8  24792710.017 8 130286552.885 8  98560941.245 8
G01  20216112.432 7                  20216116.652 8 106236389.018 7                  82781615.495 8
G02  21247036.471 8  21247039.225 6                 111653927.016 8  87003074.167 6
G03  20656297.626 7                  20656304.040 7 108549577.292 7                  84584115.277 7
G17  22844376.955 7                  22844381.119 7 120048007.829 7                  93544178.832 7
G32  23222728.112 7                  23222736.094 7 122036260.971 7                  95093215.728 7
R02  20779353.684 8  20779358.585 6 110882613.979 8  86241926.813 6
R03  19399266.962 7  19399272.488 7 103845794.205 7  80769161.189 7
R04  22309338.159 7  22309345.316 7 119465436.581 7  92917646.778 7
R17  21189625.763 5  21189629.935 6 113389950.981 5  88192041.903 6
R18  19178080.068 8  19178082.889 7 102373898.270 8  79624246.670 7
R19  21380385.467 7  21380389.188 6 114370652.121 7  88954974.447 6
> 2025 06 15 12 57  0.0000000  0 23
C06  39371943.781 6  39371939.793 6 205020034.500 6 158534489.635 6
C12  22417488.956 7  22417484.994 8 116733743.089 7  90377579.308 8
C16  39764737.777 7  39764738.159 6 207065414.086 7 160116118.873 6
C19  23600989.809 7                 122896540.037 7
C21  24904670.963 7                 129685164.198 7
C22  21597181.981 7                 112462198.762 7
E05  22956443.324 8  22956446.009 9 120636925.665 8  91261061.740 9
E06  26194094.713 7  26194098.498 8 137650896.538 7 104132021.149 8
E09  24929776.454 8  24929777.644 8 131006855.712 8  99105841.348 8
E15  26658648.727 6  26658653.949 8 140092151.379 6 105978819.054 8
E34  23507040.570 8  23507041.970 9 123530331.094 8  93449900.229 9
E36  24793325.037 7  24793328.816 8 130289804.874 7  98563401.342 8
G01  20214630.122 8                  20214634.782 8 106228601.151 8                  82775547.037 8
G02  21247334.061 7  21247337.053 6                 111655492.668 7  87004294.139 6
G03  20653479.332 7                  20653485.474 7 108534764.672 7                  84572572.987 7
G17  22841667.186 7                  22841672.230 7 120033771.593 7                  93533085.679 7
G32  23224085.990 7                  23224092.632 7 122043391.866 7                  95098772.253 7
R02  20781021.218 8  20781025.696 6 110891509.256 8  86248845.362 6
R03  19397066.495 8  19397071.184 7 103834011.590 8  80759996.927 7
R04  22304507.198 7  22304514.751 7 119439569.514 7  92897527.970 7
R17  21191740.918 5  21191745.895 6 113401270.607 5  88200846.058 6
R18  19177084.995 8  19177088.330 7 102368588.252 8  79620116.649 7
R19  21376009.525 7  21376013.742 6 114347248.048 7  88936771.261 6
> 2025 06 15 12 57  5.0000000  0 24
C06  39369484.266 6  39369480.005 6 205007226.144 6 158524585.402 6
C12  22415191.130 7  22415187.380 8 116721780.268 7  90368328.898 8
C16  39762423.773 7  39762425.076 6 207053367.386 7 160106803.600 6
C19  23602118.522 7                 122902416.037 7
C21  24900646.945 6                 129664209.142 6
C22  21595405.452 7                 112452948.967 7
E05  22953469.018 8  22953471.610 9 120621295.049 8  91249237.280 9
E06  26194976.229 7  26194979.569 8 137655526.184 7 104135523.448 8
E09  24929605.762 8  24929606.898 8 131005958.555 8  99105162.655 8
E15  26655089.325 6  26655095.245 8 140073450.167 6 105964671.719 8
E34  23505251.779 8  23505253.383 9 123520932.494 8  93442790.251 9
E36  24793945.869 8  24793948.779 8 130293062.895 8  98565866.006 8
G01  20213150.941 8                  20213155.282 8 106220825.661 8                  82769488.221 8
G02  21247633.966 7  21247636.684 6                 111657068.557 7  87005522.103 6
G03  20650662.026 7                  20650668.567 7 108519962.297 7                  84561038.639 7
G17  22838960.720 7                  22838965.570 7 120019548.359 7                  93522002.648 7
G28  23904199.527 5                                                                
G32  23225444.216 7                  23225451.285 7 122050532.184 7                  95104336.126 7
R02  20782689.661 8  20782694.614 6 110900416.097 8  86255772.867 6
R03  19394868.356 8  19394873.775 7 103822247.832 8  80750847.351 7
R04  22299679.419 7  22299685.866 7 119413710.492 7  92877415.412 7
R17  21193856.832 5  21193863.076 6 113412601.984 5  88209659.325 6
R18  19176093.936 8  19176097.271 7 102363297.412 8  79616001.550 7
R19  21371635.485 7  21371640.449 6 114323852.557 7  88918574.786 6
> 2025 06 15 12 57 10.0000000  0 24
C06  39367024.675 6  39367020.915 6 204994420.767 6 158514683.480 6
C12  22412895.676 7  22412891.978 8 116709828.414 7  90359086.961 8
C16  39760111.847 7  39760111.963 6 207041323.824 7 160097490.751 6
C19  23603247.833 7                 122908297.836 7
C21  24896623.753 7                 129643258.432 7
C22  21593630.997 7                 112443709.890 7
E05  22950496.370 8  22950498.870 9 120605672.981 8  91237419.293 9
E06  26195858.253 7  26195861.801 8 137660162.728 7 104139030.952 8
E09  24929437.221 8  24929438.034 8 131005071.472 8  99104491.569 8
E15  26651530.384 6  26651536.550 7 140054749.486 6 105950524.794 7
E34  23503464.556 8  23503466.036 9 123511540.081 8  93435684.958 9
E36  24794566.804 7  24794569.727 8 130296326.092 7  98568334.584 8
G01  20211673.270 7                  20211677.736 8 106213061.718 7                  82763438.397 8
G02  21247935.511 7  21247938.198 6                 111658653.842 7  87006757.391 6
G03  20647847.955 8                  20647853.493 7 108505169.287 8                  84549511.607 7
G17  22836256.579 7                  22836261.466 7 120005337.350 7                  93510929.123 7
G28  23901180.127 4                  23901182.601 5 125601597.71114                  97871342.26415
G32  23226804.776 7                  23226811.960 7 122057681.033 7                  95109906.644 7
R02  20784361.287 8  20784365.899 7 110909333.547 8  86262708.671 7
R03  19392674.730 8  19392679.639 7 103810501.835 8  80741711.564 7
R04  22294850.928 7  22294858.258 7 119387858.573 7  92857308.399 7
R17  21195976.076 6  21195982.968 6 113423944.162 6  88218481.017 6
R18  19175105.826 7  19175109.214 7 102358024.900 7  79611900.700 7
R19  21367265.002 7  21367267.337 6 114300464.854 7  88900384.400 6
> 2025 06 15 12 57 15.0000000  0 23
C06  39364565.945 6  39364562.576 6 204981618.654 6 158504784.075 6
C12  22410602.370 7  22410599.071 8 116697887.751 7  90349853.683 8
C16  39757799.968 7  39757799.845 6 207029283.674 7 160088180.560 6
C19  23604378.234 7                 122914185.637 7
C21  24892600.339 7                 129622312.342 7
C22  21591859.039 7                 112434481.784 7
E05  22947525.250 8  22947527.774 9 120590059.722 8  91225607.969 9
E06  26196742.197 7  26196745.466 8 137664806.409 7 104142543.874 8
E09  24929270.149 8  24929271.158 8 131004194.651 8  99103828.266 8
E15  26647972.496 6  26647978.030 8 140036049.703 6 105936378.531 8
E34  23501678.662 8  23501679.956 9 123502154.076 8  93428584.511 9
E36  24795188.968 7  24795191.744 8 130299594.688 7  98570807.258 8
G01  20210197.656 7                  20210202.475 8 106205309.533 7                  82757397.737 8
G02  21248239.360 7  21248241.703 6                 111660248.730 7  87008000.160 6
G03  20645034.096 8                  20645040.249 7 108490385.851 8                  84537992.064 7
G17  22833554.927 7                  22833559.752 7 119991138.758 7                  93499865.285 7
G32  23228166.956 7                  23228173.630 7 122064838.638 7                  95115483.990 7
R02  20786034.203 8  20786039.203 7 110918261.964 8  86269652.984 7
R03  19390483.769 8  19390488.478 8 103798773.950 8  80732589.859 8
R04  22290024.574 7  22290031.643 7 119362014.168 7  92837207.217 7
R17  21198097.811 6  21198104.390 6 113435297.406 6  88227311.316 6
R18  19174121.537 7  19174124.932 7 102352770.986 7  79607814.323 7
R19  21362895.907 7  21362897.698 5 114277085.160 7  88882200.204 5
> 2025 06 15 12 57 20.0000000  0 23
C06  39362108.665 6  39362104.781 6 204968820.350 6 158494887.615 6
C12  22408311.492 7  22408307.989 7 116685958.870 7  90340629.513 7
C16  39755487.801 7  39755488.413 6 207017247.562 7 160078873.475 6
C19  23605509.819 7                 122920080.051 7
C21  24888578.850 6                 129601371.434 6
C22  21590089.236 7                 112425265.222 7
E05  22944555.757 8  22944558.421 9 120574455.875 8  91213803.758 9
E06  26197627.185 7  26197630.577 8 137669457.831 7 104146062.638 8
E09  24929105.655 8  24929106.406 8 131003328.753 8  99103173.216 8
E15  26644414.953 6  26644419.772 8 140017351.322 6 105922233.342 8
E34  23499894.039 8  23499895.193 8 123492775.124 8  93421489.396 8
E36  24795812.319 8  24795814.857 8 130302869.308 8  98573284.476 8
G01  20208724.569 7                  20208729.814 8 106197569.761 7                  82751366.734 8
G02  21248544.593 7  21248547.031 6                 111661853.848 7  87009250.908 6
G03  20642222.453 7                  20642229.121 7 108475612.660 7                  84526480.485 7
G17  22830855.257 7                  22830859.926 7 119976953.168 7                  93488811.580 7
G32  23229529.713 7                  23229537.773 7 122072005.600 7                  95121068.649 7
R02  20787709.636 8  20787714.280 7 110927201.855 8  86276606.246 7
R03  19388296.500 7  19388301.210 8 103787064.620 7  80723482.604 8
R04  22285199.992 7  22285206.488 7 119336177.789 7  92817112.277 7
R17  21200221.745 6  21200228.586 5 113446662.256 6  88236150.629 5
R18  19173140.755 7  19173144.605 7 102347536.214 7  79603742.842 7
R19  21358527.217 7  21358528.452 6 114253714.024 7  88864022.685 6
> 2025 06 15 12 57 25.0000000  0 23
C06  39359651.136 6  39359647.745 6 204956025.670 6 158484993.961 6
C12  22406023.122 7  22406019.653 7 116674041.547 7  90331414.295 7
C16  39753177.257 7  39753178.187 6 207005215.182 7 160069569.267 6
C19  23606642.716 7                 122925980.849 7
C21  24884558.388 6                 129580435.466 6
C22  21588322.100 7                 112416059.983 7
E05  22941588.243 8  22941590.846 8 120558861.194 8  91202006.490 8
E06  26198513.957 7  26198517.219 8 137674116.699 7 104149587.054 8
E09  24928942.630 8  24928943.624 8 131002473.447 8  99102526.186 8
E15  26640856.715 6  26640861.861 8 139998654.135 6 105908089.068 8
E34  23498110.657 8  23498111.772 8 123483402.937 8  93414399.398 8
E36  24796436.262 8  24796439.098 8 130306149.669 8  98575766.053 8
G01  20207254.830 7                  20207259.087 8 106189842.125 7                  82745345.186 8
G02  21248852.006 7  21248854.691 6                 111663468.904 7  87010509.412 6
G03  20639413.590 8                  20639420.087 7 108460849.438 8                  84514976.685 7
G17  22828158.913 7                  22828162.921 7 119962780.378 7                  93477767.862 7
G32  23230897.020 7                  23230903.676 7 122079181.690 7                  95126660.387 7
R02  20789387.307 8  20789391.899 7 110936152.811 8  86283568.112 7
R03  19386113.153 8  19386117.066 8 103775373.855 8  80714389.788 8
R04  22280376.628 7  22280383.562 7 119310349.104 7  92797023.333 7
R17  21202348.698 6  21202354.512 6 113458038.574 6  88244998.831 6
R18  19172163.700 7  19172166.923 7 102342320.378 7  79599686.105 7
R19  21354158.414 7  21354160.641 6 114230351.437 7  88845851.848 6
> 2025 06 15 12 57 30.0000000  0 23
C06  39357195.039 6  39357191.109 6 204943234.623 6 158475103.111 6
C12  22403736.602 7  22403733.331 7 116662135.892 7  90322208.098 7
C16  39750867.090 7  39750868.438 6 206993186.675 7 160060268.075 6
C19  23607777.517 7                 122931888.059 7
C21  24880538.128 6                 129559504.622 6
C22  21586556.090 7                 112406866.188 7
E05  22938622.564 8  22938625.046 8 120543275.788 8  91190216.247 8
E06  26199401.375 7  26199405.191 8 137678783.153 7 104153117.189 8
E09  24928781.778 8  24928782.849 8 131001628.902 8  99101887.289 8
E15  26637299.544 6  26637304.218 8 139979958.325 6 105893945.795 8
E34  23496328.205 8  23496329.597 8 123474037.686 8  93407314.632 8
E36  24797061.553 8  24797064.449 8 130309435.927 8  98578252.073 8
G01  20205786.419 8                  20205790.765 8 106182126.724 8                  82739333.195 8
G02  21249161.978 7  21249164.050 6                 111665094.081 7  87011775.771 6
G03  20636605.929 7                  20636612.738 7 108446096.311 7                  84503480.737 7
G17  22825463.674 7                  22825468.728 7 119948620.537 7                  93466734.214 7
G32  23232264.244 7                  23232270.930 7 122086366.994 7                  95132259.317 7
R02  20791066.522 8  20791070.862 6 110945115.218 8  86290538.897 6
R03  19383931.965 8  19383936.768 7 103763701.673 8  80705311.423 7
R04  22275554.852 7  22275561.410 7 119284528.380 7  92776940.575 7
R17  21204476.339 6  21204482.236 5 113469426.478 6  88253856.107 5
R18  19171189.808 8  19171193.557 7 102337123.596 8  79595644.173 7
R19  21349792.909 7  21349794.312 6 114206997.387 7  88827687.567 6
> 2025 06 15 12 57 35.0000000  0 24
C06  39354738.973 6  39354735.085 6 204930447.073 6 158465214.948 6
C12  22401452.522 6  22401449.070 7 116650241.724 6  90313010.766 7
C16  39748557.659 7  39748558.974 6 206981161.837 7 160050969.701 6
C19  23608913.261 7                 122937801.526 7
C21  24876519.760 6                 129538578.580 6
C22  21584792.563 7                 112397683.606 7
E05  22935658.387 8  22935661.010 9 120527699.470 8  91178432.864 9
E06  26200291.438 7  26200294.659 8 137683456.974 7 104156652.903 8
E09  24928623.334 8  24928624.155 8 131000794.874 8  99101256.357 8
E15  26633741.627 6  26633746.611 8 139961263.560 6 105879803.348 8
E34  23494547.266 8  23494548.726 8 123464679.118 8  93400234.955 8
E36  24797688.031 8  24797690.879 8 130312727.843 8  98580742.382 8
G01  20204320.349 8                  20204324.884 8 106174423.378 8                  82733330.594 8
G02  21249472.869 8  21249475.314 6                 111666729.142 8  87013049.831 6
G03  20633800.331 7                  20633806.803 7 108431353.041 7                  84491992.501 7
G17  22822772.319 7                  22822776.202 7 119934473.389 7                  93455710.468 7
G28  23886120.919 5                                                                
G32  23233632.066 7                  23233640.018 7 122093561.270 7                  95137865.248 7
R02  20792748.013 8  20792752.552 6 110954088.682 8  86297518.242 6
R03  19381754.213 8  19381759.439 7 103752047.842 8  80696247.337 7
R04  22270733.443 7  22270740.948 7 119258715.433 7  92756863.876 7
