     3.04           OBSERVATION DATA    Mixed(MIXED)        RINEX VERSION / TYPE
cnvtToRINEX 3.14.0  convertToRINEX OPR  20250615 162723 UTC PGM / RUN BY / DATE 
----------------------------------------------------------- COMMENT             
33.1K                                                       MARKER NAME         
33.1K                                                       MARKER NUMBER       
GEODETIC                                                    MARKER TYPE         
GNSS Observer       Trimble                                 OBSERVER / AGENCY   
6203S17886          Unknown             5.53                REC # / TYPE / VERS 
                    UNKNOWN EXT     NONE                    ANT # / TYPE        
  3914289.0850  1190560.4849  4877465.1285                  APPROX POSITION XYZ 
        1.1730        0.0000        0.0000                  ANTENNA: DELTA H/E/N
G    6 C1C C2W C2X L1C L2W L2X                              SYS / # / OBS TYPES 
R    4 C1C C2C L1C L2C                                      SYS / # / OBS TYPES 
C    4 C2I C7I L2I L7I                                      SYS / # / OBS TYPES 
E    4 C1X C8X L1X L8X                                      SYS / # / OBS TYPES 
     5.000                                                  INTERVAL            
  2025     6    15     6    51   20.0000000     GPS         TIME OF FIRST OBS   
  2025     6    15     7    29   15.0000000     GPS         TIME OF LAST OBS    
     0                                                      RCV CLOCK OFFS APPL 
 10 R07  5 R08  6 R12 -1 R13 -2 R14 -7 R15  0 R17  4 R22 -3 GLONASS SLOT / FRQ #
    R23  3 R24  2                                           GLONASS SLOT / FRQ #
G L2X -0.25000                                              SYS / PHASE SHIFT   
R L2C -0.25000                                              SYS / PHASE SHIFT   
    18                                                      LEAP SECONDS        
    26                                                      # OF SATELLITES     
   C13   456   456   456   456                              PRN / # OF OBS      
   C26   385     0   383     0                              PRN / # OF OBS      
   C29   456     0   456     0                              PRN / # OF OBS      
   C30   456     0   456     0                              PRN / # OF OBS      
   E02   437   437   437   437                              PRN / # OF OBS      
   E10   454   454   454   454                              PRN / # OF OBS      
   E11   382   382   382   382                              PRN / # OF OBS      
   E12   386   386   386   386                              PRN / # OF OBS      
   E16   456   456   456   456                              PRN / # OF OBS      
   E24   456   456   456   456                              PRN / # OF OBS      
   E25   456   456   456   456                              PRN / # OF OBS      
   E36    46    45    46    45                              PRN / # OF OBS      
   G10   216     0   216   216     0   216                  PRN / # OF OBS      
   G16   456   456     0   456   456     0                  PRN / # OF OBS      
   G18   456     0   456   456     0   456                  PRN / # OF OBS      
   G23   456     0   456   456     0   456                  PRN / # OF OBS      
   G27   419     3   399   412     3   399                  PRN / # OF OBS      
   G29   381     0   376   377     0   376                  PRN / # OF OBS      
   G31    46     0    27    40     0    27                  PRN / # OF OBS      
   R07    27    10    26     9                              PRN / # OF OBS      
   R12   305   305   305   305                              PRN / # OF OBS      
   R13   456     0   456     0                              PRN / # OF OBS      
   R14   456   456   456   456                              PRN / # OF OBS      
   R22   378   365   377   361                              PRN / # OF OBS      
   R23   456     0   456     0                              PRN / # OF OBS      
   R24   441   432   441   428                              PRN / # OF OBS      
DBHZ                                                        SIGNAL STRENGTH UNIT
                                                            END OF HEADER       
>                              2  1
              *** Start of Kinematic Data ***               COMMENT             
> 2025 06 15 06 51 20.0000000  0 18
C13  37480381.384 7  37480382.959 7 195170173.12517 150917946.12617
C29  22173101.285 7                 115461151.17217
C30  21869215.869 7                 113878742.22117
E16  23369175.820 8  23369175.578 9 122805843.20518  92901822.97919
E24  24286635.714 7  24286635.492 9 127627127.24617  96549091.60319
E25  23601570.447 7  23601571.783 8 124027089.60517  93825693.01318
G16  21055616.776 7  21055618.818 5                 110648005.53917  86219239.44115
G18  20466161.642 8                  20466166.598 8 107550402.46018                  83805531.23018
G23  22713628.319 7                  22713634.012 7 119360920.46517                  93008537.66117
G27  23182679.442 6                  23182686.831 5 121825783.46816                  94929566.15915
G29  22533392.474 7                  22533397.912 7 118413772.28317                  92270492.67517
G31  24197082.136 4                  24197077.838 5 127156638.21114                  99082972.24715
R12  22250833.946 7  22250840.666 7 118859956.14917  92446655.96717
R13  19704775.008 6                 105222399.94216
R14  21188730.718 6  21188735.406 6 112947854.27716  87848679.04716
R22  20812779.307 8  20812781.722 7 111100031.44418  86411141.31217
R23  19246431.001 7                 102955428.76317
R24  22311110.451 6  22311106.872 6 119307554.02416  92794753.99916
> 2025 06 15 06 51 25.0000000  0 18
C13  37478951.877 6  37478953.615 6 195162731.422 6 150912191.694 6
C29  22170474.364 7                 115447473.773 7
C30  21869371.317 7                 113879552.536 7
E16  23368735.691 8  23368735.796 9 122803531.917 8  92900074.480 9
E24  24287475.716 8  24287475.555 8 127631542.143 8  96552431.405 8
E25  23599795.279 8  23599796.843 8 124017762.267 8  93818636.946 8
G16  21052774.333 7  21052777.092 5                 110633068.031 7  86207599.847 5
G18  20465189.388 7                  20465195.021 8 107545297.091 7                  83801553.009 8
G23  22709566.710 7                  22709572.524 7 119339575.747 7                  92991905.428 7
G27  23178508.908 6                  23178516.576 6 121803870.697 6                  94912491.200 6
G29  22534933.902 7                  22534939.306 7 118421870.945 7                  92276803.339 7
G31  24199202.226 4                  24199207.378 5 127167829.610 4                  99091692.708 5
R12  22253820.009 7  22253826.313 7 118875903.069 7  92459059.090 7
R13  19705376.632 7                 105225604.407 7
R14  21184940.215 7  21184944.879 7 112927651.928 7  87832966.105 7
R22  20814473.171 8  20814475.059 7 111109071.025 8  86418172.052 7
R23  19245432.517 8                 102950084.876 8
R24  22306883.871 6  22306879.080 5 119284951.767 6  92777174.527 5
>                              3  5
              *** Start of Occupation ***                   COMMENT             
33.1K                                                       MARKER NAME         
33.1K                                                       MARKER NUMBER       
  3914289.0850  1190560.4849  4877465.1285                  APPROX POSITION XYZ 
        1.1730        0.0000        0.0000                  ANTENNA: DELTA H/E/N
> 2025 06 15 06 51 30.0000000  0 19
C13  37477522.110 6  37477523.882 7 195155286.088 6 150906434.470 7
C29  22167847.460 7                 115433795.200 7
C30  21869526.457 7                 113880361.692 7
E10  23447426.533 7  23447426.879 9 123217057.01117  93212904.82919
E16  23368296.099 8  23368296.305 9 122801222.174 8  92898327.173 9
E24  24288315.654 8  24288315.592 8 127635956.334 8  96555770.702 8
E25  23598020.499 8  23598022.077 8 124008435.859 8  93811581.572 8
G16  21049933.059 8  21049935.614 5                 110618135.642 8  86195964.214 5
G18  20464219.148 7                  20464224.499 8 107540196.967 7                  83797578.884 8
G23  22705504.454 7                  22705510.716 7 119318230.334 7                  92975272.647 7
G27  23174338.763 6                  23174345.818 6 121781953.234 6                  94895412.673 6
G29  22536474.116 7                  22536479.768 7 118429966.464 7                  92283111.527 7
G31  24201330.049 4                  24201335.842 5 127179015.834 4                  99100409.244 5
R12  22256804.493 7  22256810.898 7 118891848.237 7  92471460.881 7
R13  19705978.928 7                 105228821.049 7
R14  21181151.780 7  21181155.940 7 112907456.479 7  87817258.552 7
R22  20816165.910 8  20816168.815 7 111118108.982 8  86425201.578 7
R23  19244434.409 8                 102944746.882 8
R24  22302659.242 6  22302654.916 5 119262347.575 6  92759593.508 5
> 2025 06 15 06 51 35.0000000  0 19
C13  37476091.563 6  37476093.010 7 195147836.856 6 150900674.262 7
C29  22165219.992 7                 115420115.196 7
C30  21869681.380 7                 113881169.475 7
E10  23446179.079 7  23446179.064 9 123210499.460 7  93207944.082 9
E16  23367856.538 8  23367857.016 9 122798913.699 8  92896580.825 9
E24  24289155.334 8  24289155.450 8 127640369.539 8  96559109.257 8
E25  23596245.911 8  23596247.466 8 123999110.093 8  93804526.690 8
G16  21047091.818 7  21047095.045 5                 110603208.059 7  86184332.337 5
G18  20463249.876 7                  20463254.995 8 107535101.849 7                  83793608.672 8
G23  22701442.437 7                  22701448.630 7 119296884.002 7                  92958639.151 7
G27  23170166.485 6                  23170173.810 6 121760030.804 6                  94878330.278 6
G29  22538014.374 7                  22538019.262 7 118438058.604 7                  92289417.067 7
G31  24203456.762 3                                                                
R12  22259790.222 7  22259795.548 7 118907791.372 7  92483861.063 7
R13  19706583.090 7                 105232049.659 7
R14  21177364.709 7  21177368.652 7 112887267.551 7  87801556.057 7
R22  20817859.311 8  20817861.622 7 111127145.010 8  86432229.600 7
R23  19243438.602 8                 102939414.471 8
R24  22298428.679 6  22298426.961 5 119239741.271 6  92742010.788 5
> 2025 06 15 06 51 40.0000000  0 19
C13  37474659.216 6  37474662.019 7 195140383.783 6 150894911.056 7
C29  22162592.182 7                 115406433.823 7
C30  21869836.475 7                 113881975.953 7
E10  23444931.418 7  23444931.409 9 123203943.288 7  93202984.370 9
E16  23367417.514 8  23367418.046 9 122796606.615 8  92894835.527 9
E24  24289994.795 8  24289995.027 8 127644781.920 8  96562447.190 8
E25  23594471.358 8  23594472.966 8 123989785.121 8  93797472.402 8
G16  21044252.552 7  21044255.467 5                 110588285.399 7  86172704.289 5
G18  20462281.548 8                  20462286.396 8 107530011.856 8                  83789642.423 8
G23  22697379.907 7                  22697386.375 8 119275536.867 7                  92942005.024 8
G27  23165994.286 6                  23166001.576 6 121738103.491 6                  94861244.047 6
G29  22539553.211 7                  22539558.454 7 118446147.465 7                  92295720.055 7
G31  24205586.024 4                  24205589.537 5 127201372.13914                  99117829.68715
R12  22262775.019 7  22262780.170 7 118923732.613 7  92496259.761 7
R13  19707188.970 7                 105235290.283 7
R14  21173578.018 7  21173582.232 7 112867085.564 7  87785858.979 7
R22  20819551.335 8  20819553.746 7 111136179.233 8  86439256.212 7
R23  19242441.719 7                 102934087.712 7
R24  22294197.261 6  22294196.747 4 119217132.859 6  92724426.441 4
> 2025 06 15 06 51 45.0000000  0 19
C13  37473227.367 7  37473230.046 7 195132926.916 7 150889144.939 7
C29  22159964.665 7                 115392751.082 7
C30  21869991.407 7                 113882781.057 7
E10  23443683.566 8  23443684.197 9 123197388.365 8  93198025.612 9
E16  23366978.941 8  23366979.294 9 122794300.830 8  92893091.219 9
E24  24290834.101 8  24290834.582 9 127649193.366 8  96565784.419 9
E25  23592697.181 8  23592698.618 8 123980460.814 8  93790418.631 8
G16  21041413.695 7  21041416.398 5                 110573367.599 7  86161080.026 5
G18  20461313.545 8                  20461318.746 8 107524926.895 8                  83785680.122 8
G23  22693318.168 7                  22693323.874 7 119254188.874 7                  92925370.240 7
G27  23161819.904 6                  23161827.719 6 121716171.234 6                  94844154.016 6
G29  22541091.608 7                  22541096.750 7 118454232.984 7                  92302020.432 7
G31  24207715.058 4                  24207714.175 5 127212542.225 4                  99126533.624 5
R12  22265759.659 7  22265764.055 7 118939671.897 7  92508656.927 7
R13  19707799.652 7                 105238542.780 7
R14  21169792.791 7  21169797.398 7 112846910.217 7  87770167.085 7
R22  20821243.706 8  20821245.789 7 111145211.558 8  86446281.320 7
R23  19241447.218 7                 102928766.632 7
R24  22289962.553 6  22289966.206 4 119194522.271 6  92706840.505 4
> 2025 06 15 06 51 50.0000000  0 19
C13  37471795.012 7  37471797.447 7 195125466.720 7 150883376.235 7
C29  22157336.991 7                 115379067.403 7
C30  21870145.479 7                 113883585.308 7
E10  23442436.891 8  23442437.256 9 123190835.237 8  93193068.213 9
E16  23366540.703 8  23366540.806 9 122791996.888 8  92891348.300 9
E24  24291673.507 8  24291674.002 9 127653604.392 8  96569121.324 9
E25  23590923.106 8  23590924.497 8 123971137.742 8  93783365.787 8
G16  21038575.367 7  21038578.725 5                 110558455.206 7  86149460.003 5
G18  20460347.014 8                  20460351.832 9 107519847.490 8                  83781722.144 9
G23  22689255.645 7                  22689261.481 7 119232840.545 7                  92908735.194 7
G27  23157645.300 6                  23157653.079 6 121694234.567 6                  94827060.489 6
G29  22542629.745 7                  22542635.378 7 118462315.703 7                  92308318.618 7
G31  24209841.125 5                  24209839.135 5 127223707.393 5                  99135233.734 5
R12  22268743.645 7  22268748.188 7 118955609.644 7  92521052.914 7
R13  19708409.411 7                 105241807.746 7
R14  21166009.103 7  21166014.126 7 112826742.028 7  87754480.690 7
R22  20822935.279 8  20822937.665 7 111154242.459 8  86453305.348 7
R23  19240454.293 7                 102923451.600 7
R24  22285735.352 6  22285737.844 4 119171909.964 6  92689253.202 4
> 2025 06 15 06 51 55.0000000  0 19
C13  37470360.876 6  37470364.176 7 195118003.027 6 150877604.859 7
C29  22154709.446 7                 115365382.765 7
C30  21870300.156 7                 113884388.635 7
E10  23441189.907 8  23441190.459 9 123184283.812 8  93188112.101 9
E16  23366102.568 8  23366102.732 9 122789694.680 8  92889606.688 9
E24  24292512.644 8  24292513.297 8 127658014.910 8  96572457.856 8
E25  23589149.366 8  23589150.576 8 123961815.810 8  93776313.804 8
G16  21035738.295 7  21035741.755 5                 110543548.097 7  86137844.078 5
G18  20459381.575 7                  20459386.460 9 107514773.540 7                  83777768.404 9
G23  22685193.139 7                  22685199.215 8 119211491.846 7                  92892099.839 8
G27  23153469.843 6                  23153477.540 6 121672293.462 6                  94809963.507 6
G29  22544166.822 7                  22544172.896 7 118470395.437 7                  92314614.495 7
G31  24211965.757 5                  24211964.499 4 127234867.604 5                  99143929.932 4
R12  22271727.298 8  22271730.646 7 118971545.863 8  92533447.721 7
R13  19709023.481 7                 105245085.011 7
R14  21162227.903 7  21162231.592 7 112806581.106 7  87738800.018 7
R22  20824627.287 8  20824629.218 7 111163271.885 8  86460328.228 7
R23  19239461.613 7                 102918142.683 7
R24  22281512.426 6  22281507.674 4 119149296.038 6  92671664.455 4
> 2025 06 15 06 52  0.0000000  0 19
C13  37468927.597 6  37468930.214 7 195110536.396 6 150871831.170 7
C29  22152081.473 7                 115351697.692 7
C30  21870454.167 7                 113885191.544 7
E10  23439943.916 8  23439944.155 9 123177734.609 8  93183157.666 9
E16  23365664.719 8  23365665.158 9 122787394.750 8  92887866.814 9
E24  24293351.923 8  24293352.582 8 127662425.470 8  96575794.411 8
E25  23587375.729 8  23587377.023 9 123952495.576 8  93769263.099 9
G16  21032902.935 7  21032906.162 5                 110528646.866 7  86126232.734 5
G18  20458417.236 7                  20458421.926 8 107509705.580 7                  83773819.344 8
G23  22681130.587 7                  22681136.389 8 119190143.278 7                  92875464.593 8
G27  23149294.591 6                  23149301.750 6 121650348.382 6                  94792863.419 6
G29  22545703.833 7                  22545710.067 7 118478472.813 7                  92320908.540 7
G31  24214088.542 5                  24214086.534 3 127246023.284 5                  99152622.670 3
R12  22274709.803 7  22274714.161 6 118987480.955 7  92545841.659 6
R13  19709639.690 7                 105248375.114 7
R14  21158446.294 7  21158451.405 7 112786428.124 7  87723125.477 7
R22  20826318.390 8  20826320.664 7 111172300.356 8  86467350.370 7
R23  19238470.577 7                 102912840.142 7
R24  22277281.740 5  22277279.648 4 119126680.889 5  92654075.072 4
> 2025 06 15 06 52  5.0000000  0 19
C13  37467492.796 6  37467496.137 7 195103067.614 6 150866055.826 7
C29  22149453.531 7                 115338012.859 7
C30  21870607.928 7                 113885994.743 7
E10  23438698.023 8  23438698.482 9 123171188.339 8  93178205.462 9
E16  23365227.496 8  23365228.036 9 122785097.824 8  92886129.203 9
E24  24294191.426 8  24294192.037 8 127666836.760 8  96579131.521 8
E25  23585602.331 8  23585603.863 8 123943177.700 8  93762214.200 8
G16  21030068.100 7  21030071.984 5                 110513752.251 7  86114626.547 5
G18  20457454.161 8                  20457458.969 8 107504644.296 8                  83769875.492 8
G23  22677068.078 7                  22677074.112 8 119168795.596 7                  92858830.056 8
G27  23145118.569 6                  23145125.557 6 121628400.037 6                  94775760.813 6
G29  22547240.727 7                  22547246.778 7 118486548.508 7                  92327201.272 7
G31  24216212.702 5                  24216209.375 3 127257175.187 5                  99161312.403 3
R12  22277693.121 7  22277697.202 6 119003415.722 7  92558235.350 6
R13  19710258.108 7                 105251678.808 7
R14  21154668.321 8  21154672.040 7 112766283.488 8  87707457.388 7
R22  20828009.186 8  20828011.384 7 111181328.568 8  86474372.289 7
R23  19237480.493 7                 102907544.900 7
R24  22273050.676 5  22273054.337 4 119104065.434 5  92636485.221 4
> 2025 06 15 06 52 10.0000000  0 19
C13  37466058.374 6  37466060.879 7 195095596.126 6 150860278.396 7
C29  22146825.692 7                 115324327.873 7
C30  21870762.310 7                 113886797.796 7
E10  23437452.549 8  23437453.125 9 123164644.604 8  93173255.168 9
E16  23364790.966 8  23364791.458 9 122782803.479 8  92884393.539 9
E24  24295031.255 8  24295031.433 8 127671248.370 8  96582468.858 8
E25  23583829.740 8  23583831.111 9 123933861.852 8  93755166.803 9
G16  21027235.687 7  21027238.799 5                 110498863.797 7  86103025.157 5
G18  20456492.527 8                  20456496.719 8 107499589.315 8                  83765936.550 8
G23  22673005.963 7                  22673012.036 8 119147448.419 7                  92842195.893 8
G27  23140940.257 6                  23140948.202 6 121606448.072 6                  94758655.401 6
G29  22548777.789 7                  22548783.270 7 118494622.089 7                  92333492.344 7
G31  24218337.615 4                                                                
R12  22280676.366 7  22280679.734 7 119019349.677 7  92570628.387 7
R13  19710880.061 7                 105254995.666 7
R14  21150890.966 8  21150894.543 7 112746146.980 8  87691795.685 7
R22  20829700.492 7  20829703.201 7 111190356.086 7  86481393.701 7
R23  19236492.362 7                 102902256.642 7
R24  22268823.274 5                 119081449.001 5
> 2025 06 15 06 52 15.0000000  0 18
C13  37464622.860 6  37464625.717 7 195088120.782 6 150854497.990 7
C29  22144197.265 7                 115310641.456 7
C30  21870916.800 7                 113887599.418 7
E10  23436207.569 8  23436208.163 9 123158102.066 8  93168305.791 9
E16  23364354.531 8  23364355.086 9 122780510.404 8  92882658.849 9
E24  24295870.546 8  24295870.804 8 127675659.034 8  96585805.477 8
E25  23582056.821 8  23582058.443 8 123924546.660 8  93748119.923 8
G16  21024403.418 7  21024406.545 5                 110483980.247 7  86091427.553 5
G18  20455531.236 8                  20455536.001 8 107494539.340 8                  83762001.480 8
G23  22668944.370 7                  22668949.783 8 119126100.378 7                  92825561.068 8
G27  23136763.951 6                  23136769.624 6 121584491.134 6                  94741546.070 6
G29  22550313.162 7                  22550319.039 7 118502692.211 7                  92339780.743 7
R12  22283657.651 7  22283662.847 6 119035281.467 7  92583019.777 6
R13  19711503.627 7                 105258324.390 7
R14  21147113.929 7  21147118.130 7 112726017.164 7  87676139.152 7
R22  20831390.799 8  20831393.544 7 111199381.601 8  86488413.534 7
R23  19235505.232 8                 102896973.699 8
R24  22264593.601 5  22264616.088 4 119058830.49815
> 2025 06 15 06 52 20.0000000  0 17
C13  37463186.012 6  37463189.273 7 195080641.057 6 150848714.183 7
C29  22141568.274 7                 115296953.111 7
C30  21871070.595 7                 113888399.127 7
E10  23434962.664 8  23434963.265 8 123151560.289 8  93163356.977 8
E16  23363918.584 8  23363918.904 9 122778218.135 8  92880924.755 9
E24  24296709.681 8  24296709.740 8 127680068.189 8  96589140.955 8
E25  23580284.170 8  23580285.864 8 123915231.687 8  93741073.212 8
G16  21021571.891 7  21021574.946 5                 110469101.130 7  86079833.428 5
G18  20454571.333 8                  20454575.968 8 107489493.828 8                  83758069.892 8
G23  22664880.673 7                  22664886.602 8 119104751.088 7                  92808925.260 8
G27  23132583.495 6                  23132589.892 6 121562528.766 6                  94724432.561 6
G29  22551848.157 7                  22551853.893 7 118510758.416 7                  92346066.130 7
R12  22286638.966 7  22286644.204 6 119051210.705 7  92595409.163 6
R13  19712128.535 7                 105261664.449 7
R14  21143338.848 7  21143343.412 7 112705893.731 7  87660487.612 7
R22  20833081.522 7  20833084.187 7 111208404.627 7  86495431.438 7
R23  19234517.486 7                 102891695.899 7
> 2025 06 15 06 52 25.0000000  0 17
C13  37461748.845 6  37461751.917 7 195073155.643 6 150842925.981 7
C29  22138938.553 7                 115283261.538 7
C30  21871223.168 7                 113889195.608 7
E10  23433717.711 8  23433718.280 9 123145017.898 8  93158407.696 9
E16  23363482.352 8  23363482.560 9 122775925.310 8  92879190.238 9
E24  24297547.756 8  24297548.337 8 127684474.518 8  96592474.310 8
E25  23578511.486 8  23578513.069 8 123905915.590 8  93734025.642 8
G16  21018740.769 7  21018743.824 5                 110454225.082 7  86068241.702 5
G18  20453611.784 8                  20453616.366 8 107484451.446 8                  83754140.769 8
G23  22660817.162 7                  22660823.231 7 119083399.165 7                  92792287.396 7
G27  23128404.050 5                  23128409.132 6 121540559.677 5                  94707313.813 6
G29  22553381.562 7                  22553387.908 7 118518819.386 7                  92352347.373 7
R12  22289620.647 7  22289625.603 7 119067135.933 7  92607795.415 7
R13  19712756.139 7                 105265014.442 7
R14  21139564.571 7  21139568.666 7 112685775.212 7  87644839.872 7
R22  20834771.161 7  20834773.531 7 111217423.741 7  86502446.278 7
R23  19233532.065 8                 102886421.718 8
> 2025 06 15 06 52 30.0000000  0 17
C13  37460310.876 6  37460313.391 7 195065664.751 6 150837133.538 7
C29  22136308.886 7                 115269566.953 7
C30  21871375.615 7                 113889989.072 7
E10  23432472.652 8  23432473.228 8 123138475.151 8  93153458.147 8
E16  23363045.807 8  23363046.180 9 122773632.192 8  92877455.516 9
E24  24298385.978 8  24298386.344 9 127688878.297 8  96595805.727 9
E25  23576738.487 8  23576740.131 8 123896598.624 8  93726977.413 8
G16  21015910.420 7  21015913.787 5                 110439352.402 7  86056652.599 5
G18  20452652.726 8                  20452657.605 9 107479412.461 8                  83750214.291 9
G23  22656753.604 7                  22656759.805 7 119062044.900 7                  92775647.736 7
G27  23124219.521 5                  23124226.960 6 121518584.038 5                  94690189.990 6
G29  22554915.028 7                  22554921.125 7 118526875.382 7                  92358624.780 7
R12  22292600.588 7  22292606.361 7 119083057.289 7  92620178.679 7
R13  19713384.786 7                 105268374.679 7
R14  21135792.573 7  21135795.920 7 112665661.927 7  87629196.214 7
R22  20836459.444 7  20836462.571 7 111226439.123 7  86509458.236 7
R23  19232546.662 7                 102881151.524 7
> 2025 06 15 06 52 35.0000000  0 17
C13  37458870.802 6  37458873.834 7 195058169.691 6 150831337.889 7
C29  22133678.467 7                 115255870.731 7
C30  21871528.208 7                 113890780.900 7
E10  23431227.941 8  23431228.461 9 123131933.409 8  93148509.358 9
E16  23362609.629 8  23362610.048 9 122771340.145 8  92875721.593 9
E24  24299224.002 8  24299224.225 9 127693280.869 8  96599136.231 9
E25  23574965.868 8  23574967.137 8 123887282.136 8  93719929.550 8
G16  21013081.583 7  21013085.204 5                 110424484.424 7  86045067.177 5
G18  20451695.046 8                  20451699.752 8 107474378.222 8                  83746291.531 8
G23  22652690.069 7                  22652696.583 8 119040689.646 7                  92759007.284 8
G27  23120037.419 5                  23120044.459 6 121496603.208 5                  94673062.165 6
G29  22556446.748 7                  22556453.186 7 118534927.749 7                  92364899.336 7
R12  22295580.056 7  22295585.651 6 119098976.242 7  92632560.063 6
R13  19714015.429 7                 105271746.408 7
R14  21132020.266 7  21132024.167 7 112645555.237 7  87613557.712 7
R22  20838148.899 8  20838151.397 7 111235452.292 8  86516468.466 7
R23  19231561.651 7                 102875886.518 7
> 2025 06 15 06 52 40.0000000  0 17
C13  37457431.067 6  37457434.057 7 195050671.517 6 150825539.810 7
C29  22131047.621 7                 115242173.744 7
C30  21871679.777 7                 113891571.990 7
E10  23429983.680 8  23429983.949 9 123125393.543 8  93143561.987 9
E16  23362173.968 8  23362174.206 9 122769050.072 8  92873989.162 9
E24  24300061.805 8  24300061.955 8 127697683.104 8  96602466.483 8
E25  23573193.206 8  23573194.537 8 123877967.062 8  93712882.752 8
G16  21010253.190 7  21010257.367 5                 110409622.024 7  86033486.090 5
G18  20450737.756 8                  20450742.681 8 107469349.639 8                  83742373.160 8
G23  22648625.758 7                  22648632.875 8 119019334.340 7                  92742366.822 8
G27  23115853.705 6                  23115861.331 6 121474618.216 6                  94655931.036 6
G29  22557978.840 7                  22557985.091 7 118542977.424 7                  92371171.781 7
R12  22298559.965 7  22298565.052 6 119114893.715 7  92644940.320 6
R13  19714649.491 7                 105275130.717 7
R14  21128248.603 7  21128253.643 7 112625456.191 7  87597925.111 7
R22  20839836.091 8  20839839.573 7 111244464.060 8  86523477.614 7
R23  19230579.583 7                 102870627.725 7
> 2025 06 15 06 52 45.0000000  0 18
C13  37455990.677 6  37455993.275 7 195043169.645 6 150819738.912 7
C29  22128417.150 7                 115228475.622 7
C30  21871831.411 7                 113892361.873 7
E10  23428739.718 8  23428739.654 9 123118855.166 8  93138615.757 9
E16  23361738.386 8  23361738.693 9 122766761.568 8  92872257.916 9
E24  24300899.278 8  24300899.472 8 127702084.625 8  96605796.195 8
E25  23571420.792 8  23571422.180 8 123868652.962 8  93705836.707 8
G16  21007426.644 7  21007429.957 5                 110394764.895 7  86021909.087 5
G18  20449781.315 7                  20449786.868 8 107464326.300 7                  83738458.849 8
G23  22644561.966 7                  22644568.831 7 118997978.601 7                  92725726.010 7
G27  23111671.695 6                  23111676.713 5 121452628.590 6                  94638796.331 5
G29  22559510.112 7                  22559516.679 7 118551023.860 7                  92377441.715 7
R12  22301538.718 6  22301544.770 7 119130809.268 6  92657319.099 7
R13  19715285.653 7                 105278526.952 7
R14  21124479.822 7  21124485.152 7 112605364.344 7  87582298.090 7
R22  20841524.125 8  20841527.364 7 111253474.024 8  86530485.362 7
R23  19229598.058 7                 102865374.676 7
R24  22239202.180 5                 118923047.06715
> 2025 06 15 06 52 50.0000000  0 18
C13  37454548.962 6  37454551.828 7 195035663.759 6 150813934.866 7
C29  22125786.640 7                 115214775.995 7
C30  21871982.250 7                 113893150.261 7
E10  23427495.104 8  23427495.663 9 123112317.915 8  93133670.363 9
E16  23361303.299 8  23361303.471 9 122764474.268 8  92870527.582 9
E24  24301737.030 8  24301736.855 9 127706485.071 8  96609125.098 9
E25  23569648.575 8  23569649.963 8 123859339.528 8  93698791.155 8
G16  21004599.982 7  21004603.701 5                 110379912.651 7  86010335.912 5
G18  20448826.592 8                  20448831.825 8 107459307.842 8                  83734548.360 8
G23  22640497.750 7                  22640504.754 7 118976622.066 7                  92709084.550 7
G27  23107486.421 6                  23107491.120 6 121430634.007 6                  94621657.732 6
G29  22561041.091 7                  22561047.022 7 118559066.828 7                  92383708.952 7
R12  22304517.438 7  22304524.036 7 119146722.434 7  92669696.001 7
R13  19715923.489 7                 105281935.050 7
R14  21120713.073 7  21120717.177 7 112585279.288 7  87566676.382 7
R22  20843211.976 8  20843214.777 7 111262481.889 8  86537491.441 7
R23  19228616.684 7                 102860126.993 7
R24  22234965.588 5  22234984.679 4 118900410.110 5
> 2025 06 15 06 52 55.0000000  0 19
C13  37453107.429 7  37453109.356 7 195028154.471 7 150808128.199 7
C29  22123155.358 7                 115201075.402 7
C30  21872133.754 7                 113893937.637 7
E02  26948324.566 7  26948326.334 7 141614407.07717 107130382.43317
E10  23426251.781 8  23426251.989 9 123105782.361 8  93128726.261 9
E16  23360868.172 8  23360868.531 9 122762188.727 8  92868798.581 9
E24  24302574.086 8  24302574.080 8 127710884.983 8  96612453.588 8
E25  23567876.591 8  23567877.845 8 123850027.281 8  93691746.495 8
G16  21001774.457 7  21001778.445 5                 110365065.816 7  85998766.963 5
G18  20447872.947 7                  20447877.811 8 107454294.800 7                  83730642.089 8
G23  22636434.635 7                  22636440.638 7 118955265.286 7                  92692442.897 7
G27  23103299.721 6                  23103305.523 6 121408635.047 6                  94604515.692 6
G29  22562571.105 7                  22562577.329 7 118567106.777 7                  92389973.829 7
R12  22307496.831 6  22307502.492 6 119162633.851 6  92682071.517 6
R13  19716564.596 7                 105285355.269 7
R14  21116945.940 7  21116950.562 7 112565201.596 7  87551060.410 7
R22  20844898.948 8  20844902.399 7 111271488.143 8  86544496.284 7
R23  19227636.098 8                 102854885.320 8
R24  22230736.315 6  22230749.707 4 118877771.432 6  92460522.01014
> 2025 06 15 06 53  0.0000000  0 19
C13  37451664.744 7  37451667.053 7 195020641.665 7 150802318.819 7
C29  22120524.634 7                 115187373.803 7
C30  21872284.949 7                 113894723.971 7
E02  26944609.026 7  26944610.404 7 141594880.019 7 107115610.344 7
E10  23425008.392 8  23425008.639 9 123099248.392 8  93123783.354 9
E16  23360433.696 8  23360433.934 9 122759904.881 8  92867070.854 9
E24  24303411.235 8  24303411.267 8 127715284.271 8  96615781.619 8
E25  23566104.968 8  23566106.018 8 123840716.192 8  93684702.712 8
G16  20998950.655 7  20998954.062 5                 110350224.339 7  85987202.163 5
G18  20446919.105 7                  20446924.991 8 107449287.130 7                  83726740.004 8
G23  22632370.955 7                  22632376.511 7 118933908.245 7                  92675801.043 7
G27  23099110.689 5                  23099118.103 6 121386631.592 5                  94587370.122 6
G29  22564100.151 7                  22564106.574 7 118575143.694 7                  92396236.346 7
R12  22310474.884 7  22310480.505 6 119178543.370 7  92694445.584 6
R13  19717206.746 7                 105288787.861 7
R14  21113180.681 7  21113185.749 7 112545131.354 7  87535450.228 7
R22  20846586.214 8  20846588.795 7 111280492.632 8  86551499.763 7
R23  19226656.850 8                 102849649.557 8
R24  22226497.386 6  22226515.265 3 118855131.090 6  92442912.993 3
> 2025 06 15 06 53  5.0000000  0 19
C13  37450221.973 7  37450223.839 7 195013126.746 7 150796507.816 7
C29  22117893.224 7                 115173672.540 7
C30  21872436.120 7                 113895510.631 7
E02  26940892.899 7  26940893.543 7 141575348.641 7 107100834.983 7
E10  23423765.866 8  23423765.841 9 123092717.437 8  93118842.734 9
E16  23359999.499 8  23359999.934 9 122757624.107 8  92865345.467 9
E24  24304248.734 8  24304248.582 8 127719684.373 8  96619110.250 8
E25  23564333.498 8  23564334.568 8 123831407.627 8  93677660.831 8
G16  20996127.708 7  20996130.842 5                 110335389.649 7  85975642.668 5
G18  20445968.387 7                  20445973.111 8 107444286.188 7                  83722843.173 8
G23  22628306.432 7                  22628312.347 7 118912552.276 7                  92659160.057 7
G27  23094921.297 5                  23094930.150 5 121364625.016 5                  94570222.180 5
G29  22565628.980 7                  22565635.452 7 118583178.978 7                  92402497.580 7
R12  22313452.685 7  22313459.278 6 119194452.416 7  92706819.268 6
R13  19717851.266 7                 105292233.818 7
R14  21109416.357 7  21109422.158 7 112525069.806 7  87519846.824 7
R22  20848273.693 8  20848275.720 7 111289496.882 8  86558503.070 7
R23  19225680.010 7                 102844421.070 7
R24  22222267.551 6  22222280.017 3 118832490.453 6  92425303.646 3
> 2025 06 15 06 53 10.0000000  0 19
C13  37448778.572 7  37448780.310 7 195005609.559 7 150790695.040 7
C29  22115262.220 7                 115159971.522 7
C30  21872587.375 7                 113896297.483 7
E02  26937174.900 7  26937175.955 7 141555812.806 7 107086056.270 7
E10  23422523.329 8  23422523.599 9 123086189.338 8  93113904.265 9
E16  23359566.046 8  23359566.354 9 122755346.297 8  92863622.313 9
E24  24305086.347 8  24305086.051 8 127724085.113 8  96622439.369 8
E25  23562562.713 8  23562563.750 8 123822101.472 8  93670620.781 8
G16  20993306.562 7  20993308.842 5                 110320561.634 7  85964088.359 5
G18  20445018.005 8                  20445022.964 8 107439291.854 8                  83718951.489 8
G23  22624242.449 7                  22624248.564 7 118891197.339 7                  92642519.863 7
G27  23090732.269 5                  23090741.787 5 121342615.262 5                  94553071.726 5
G29  22567157.917 7                  22567164.779 7 118591212.485 7                  92408757.456 7
R12  22316432.411 7  22316438.005 6 119210360.858 7  92719192.472 6
R13  19718500.795 7                 105295693.340 7
R14  21105654.825 7  21105659.576 7 112505016.932 7  87504250.165 7
R22  20849960.640 8  20849962.553 7 111298500.707 8  86565506.027 7
R23  19224703.883 7                 102839199.701 7
R24  22218025.485 6                 118809849.376 6
> 2025 06 15 06 53 15.0000000  0 19
C13  37447335.323 7  37447336.507 7 194998090.849 7 150784881.096 7
C29  22112631.597 7                 115146271.553 7
C30  21872738.060 7                 113897085.312 7
E02  26933456.041 7  26933457.650 7 141536273.357 7 107071274.801 7
E10  23421281.898 8  23421282.027 8 123079664.915 8  93108968.581 8
E16  23359133.512 8  23359133.615 9 122753072.246 8  92861901.999 9
E24  24305924.077 8  24305923.823 8 127728487.332 8  96625769.598 8
E25  23560792.454 8  23560793.443 8 123812798.535 8  93663583.164 8
G16  20990485.864 7  20990488.451 5                 110305741.107 7  85952539.905 5
G18  20444069.187 8                  20444073.798 8 107434304.920 8                  83715065.580 8
G23  22620178.768 7                  22620185.497 7 118869844.237 7                  92625881.103 7
G27  23086543.584 5                  23086552.585 5 121320603.16615                  94535919.40415
G29  22568686.781 7                  22568693.006 7 118599244.999 7                  92415016.537 7
R12  22319409.433 7  22319415.877 6 119226269.455 7  92731565.790 6
R13  19719150.883 7                 105299167.064 7
R14  21101895.284 7  21101899.975 7 112484973.630 7  87488660.940 7
R22  20851647.242 8  20851649.362 7 111307504.905 8  86572509.274 7
R23  19223729.047 7                 102833986.323 7
R24  22213794.105 6                 118787208.665 6
> 2025 06 15 06 53 20.0000000  0 19
C13  37445890.617 7  37445892.557 7 194990570.855 7 150779066.152 7
C29  22110000.704 7                 115132572.613 7
C30  21872889.460 7                 113897874.140 7
E02  26929736.186 6  26929738.720 7 141516730.312 6 107056490.597 7
E10  23420040.919 8  23420041.212 9 123073144.185 8  93104035.688 9
E16  23358701.603 8  23358701.622 9 122750801.976 8  92860184.562 9
E24  24306761.654 8  24306761.806 8 127732891.004 8  96629100.948 8
E25  23559022.875 8  23559023.769 8 123803498.843 8  93656548.001 8
G16  20987667.230 7  20987669.418 5                 110290928.062 7  85940997.271 5
G18  20443121.433 8                  20443126.005 8 107429325.429 8                  83711185.453 8
G23  22616116.118 7                  22616122.561 7 118848492.979 7                  92609243.770 7
G27  23082354.077 5                  23082363.183 5 121298588.553 5                  94518765.208 5
G29  22570215.436 7                  22570221.244 7 118607276.534 7                  92421274.865 7
R12  22322387.215 7  22322394.385 6 119242178.195 7  92743939.282 6
R13  19719803.495 6                 105302654.941 6
R14  21098136.160 7  21098141.301 7 112464939.799 7  87473079.092 7
R22  20853333.927 8  20853336.226 7 111316509.543 8  86579512.880 7
R23  19222756.706 8                 102828781.023 8
R24  22209565.688 6                 118764568.549 6
> 2025 06 15 06 53 25.0000000  0 18
C13  37444445.968 7  37444447.588 7 194983048.351 7 150773249.279 7
C29  22107369.788 7                 115118873.801 7
C30  21873041.062 7                 113898663.042 7
E02  26926016.367 6  26926018.857 7 141497182.734 6 107041703.024 7
E10  23418800.435 8  23418800.936 8 123066626.180 8  93099104.849 8
E16  23358269.859 8  23358270.103 9 122748534.542 8  92858469.255 9
E24  24307600.008 8  24307599.884 8 127737295.189 8  96632432.676 8
E25  23557253.177 8  23557254.409 8 123794201.438 8  93649514.581 8
G16  20984849.579 7  20984851.992 5                 110276121.573 7  85929459.741 5
G18  20442175.108 7                  20442179.683 8 107424352.456 7                  83707310.392 8
G23  22612053.146 7                  22612059.393 7 118827142.654 7                  92592607.152 7
G29  22571743.810 7                  22571748.857 7 118615306.138 7                  92427531.687 7
R12  22325365.851 7  22325372.374 6 119258086.240 7  92756312.146 6
R13  19720460.216 7                 105306156.202 7
R14  21094379.892 7  21094384.877 7 112444914.572 7  87457503.912 7
R22  20855020.495 8  20855022.722 7 111325513.518 8  86586515.964 7
R23  19221784.786 7                 102823582.740 7
R24  22205333.004 6                 118741927.844 6
> 2025 06 15 06 53 30.0000000  0 18
C13  37443000.449 7  37443002.623 7 194975524.125 7 150767431.064 7
C29  22104738.867 7                 115105175.697 7
C30  21873192.825 7                 113899452.576 7
E02  26922295.481 6  26922298.370 7 141477631.157 6 107026912.384 7
E10  23417561.065 8  23417561.177 8 123060111.519 8  93094176.556 8
E16  23357839.004 8  23357839.287 9 122746270.547 8  92856756.559 9
E24  24308438.115 8  24308438.241 8 127741700.500 8  96635765.263 8
E25  23555484.805 8  23555485.879 8 123784906.940 8  93642483.349 8
G16  20982033.652 7  20982035.668 5                 110261322.258 7  85917927.813 5
G18  20441230.482 8                  20441234.759 8 107419386.524 8                  83703440.830 8
G23  22607990.787 7                  22607997.023 7 118805793.868 7                  92575971.754 7
G29  22573271.371 7                  22573276.883 7 118623334.428 7                  92433787.484 7
R12  22328343.680 7  22328350.763 6 119273994.018 7  92768684.854 6
R13  19721118.530 7                 105309671.231 7
R14  21090624.848 7  21090629.872 7 112424898.571 7  87441935.885 7
R22  20856706.745 8  20856708.954 7 111334517.462 8  86593519.025 7
R23  19220814.580 7                 102818392.041 7
R24  22201098.961 5  22201097.885 5 118719287.139 5
> 2025 06 15 06 53 35.0000000  0 18
C13  37441555.152 7  37441557.461 7 194967998.857 7 150761612.060 7
C29  22102108.065 7                 115091479.066 7
C30  21873344.180 7                 113900243.491 7
E02  26918574.200 6  26918577.235 7 141458076.391 6 107012119.381 7
E10  23416322.016 8  23416322.244 8 123053600.932 8  93089251.335 8
E16  23357409.176 8  23357409.292 9 122744010.720 8  92855047.004 9
E24  24309276.742 8  24309276.878 8 127746107.677 8  96639099.243 8
E25  23553717.022 8  23553717.914 8 123775616.111 8  93635454.884 8
G16  20979218.990 7  20979221.296 5                 110246530.862 7  85906402.054 5
G18  20440286.639 7                  20440291.063 8 107414428.401 7                  83699577.354 8
G23  22603928.612 7                  22603934.820 7 118784447.367 7                  92559338.127 7
G29  22574798.454 7                  22574804.333 7 118631362.179 7                  92440042.871 7
R12  22331320.400 7  22331329.293 6 119289902.383 7  92781057.948 6
R13  19721780.695 7                 105313201.021 7
R14  21086872.112 7  21086877.247 7 112404892.588 7  87426375.680 7
R22  20858393.857 8  20858396.239 7 111343522.174 8  86600522.690 7
R23  19219846.016 7                 102813209.710 7
R24  22196851.054 6  22196862.866 5 118696647.413 6  92319586.83915
> 2025 06 15 06 53 40.0000000  0 18
C13  37440109.612 7  37440112.294 7 194960472.568 7 150755792.246 7
C29  22099478.054 7                 115077783.906 7
C30  21873497.092 7                 113901035.839 7
E02  26914851.380 6  26914855.624 7 141438518.547 6 106997324.022 7
E10  23415083.893 8  23415084.065 9 123047094.467 8  93084329.231 9
E16  23356979.664 8  23356980.076 9 122741755.137 8  92853340.665 9
E24  24310116.180 8  24310115.901 8 127750516.735 8  96642434.662 8
E25  23551949.713 8  23551950.620 8 123766328.963 8  93628429.218 8
G16  20976405.182 7  20976408.146 5                 110231747.447 7  85894882.517 5
G18  20439344.888 8                  20439349.072 8 107409478.153 8                  83695720.025 8
G23  22599866.537 7                  22599873.417 7 118763103.236 7                  92542706.335 7
G29  22576326.307 7                  22576331.719 7 118639389.375 7                  92446297.807 7
R12  22334300.377 7  22334307.220 6 119305811.325 7  92793431.527 6
R13  19722443.321 7                 105316745.412 7
R14  21083120.571 7  21083125.506 7 112384896.636 7  87410823.284 7
R22  20860081.112 8  20860083.526 7 111352527.684 8  86607526.981 7
R23  19218878.149 8                 102808035.907 8
R24  22192617.273 6  22192630.259 5 118674008.570 6  92301978.891 5
> 2025 06 15 06 53 45.0000000  0 19
C13  37438663.620 7  37438666.538 7 194952944.371 7 150749970.977 7
C29  22096848.695 7                 115064089.379 7
C30  21873648.776 7                 113901828.708 7
E02  26911128.696 6  26911133.079 7 141418956.694 6 106982525.633 7
E10  23413846.137 8  23413846.571 9 123040591.208 8  93079409.572 9
E16  23356550.903 8  23356551.484 9 122739502.884 8  92851636.840 9
E24  24310955.230 8  24310955.176 8 127754926.833 8  96645770.870 8
E25  23550182.794 8  23550183.921 9 123757044.642 8  93621405.695 9
G16  20973594.373 7  20973596.737 5                 110216971.126 7  85883368.507 5
G18  20438404.056 8                  20438408.474 8 107404534.871 8                  83691868.113 8
G23  22595804.735 7                  22595812.329 8 118741760.579 7                  92526075.710 8
G27  23061401.019 5                                 121188485.19615                
G29  22577852.876 7                  22577859.411 7 118647415.164 7                  92452551.657 7
R12  22337278.612 7  22337285.199 7 119321719.813 7  92805804.806 7
R13  19723109.618 7                 105320303.401 7
R14  21079371.888 7  21079376.375 7 112364910.050 7  87395278.183 7
R22  20861768.425 8  20861770.432 7 111361533.051 8  86614531.153 7
R23  19217912.700 8                 102802869.441 8
R24  22188384.822 6  22188395.238 5 118651369.737 6  92284370.911 5
> 2025 06 15 06 53 50.0000000  0 19
C13  37437217.539 6  37437220.663 7 194945414.983 6 150744148.754 7
C29  22094218.763 7                 115050396.058 7
C30  21873801.733 7                 113902622.713 7
E02  26907406.851 6  26907409.989 7 141399391.453 6 106967724.643 7
E10  23412609.606 8  23412609.747 9 123034091.797 8  93074492.798 9
E16  23356123.494 8  23356123.660 9 122737254.580 8  92849936.007 9
E24  24311794.253 8  24311794.646 8 127759338.518 8  96649108.285 8
E25  23548416.977 8  23548417.832 8 123747763.733 8  93614384.752 8
G16  20970783.275 7  20970786.427 5                 110202202.521 7  85871860.533 5
G18  20437464.252 8                  20437469.543 8 107399599.160 8                  83688022.103 8
G23  22591743.876 7                  22591750.528 7 118720420.044 7                  92509446.702 7
G27  23057210.243 5                  23057217.760 6 121166455.827 5                  94415452.76116
G29  22579380.315 7                  22579386.491 7 118655440.143 7                  92458804.858 7
R12  22340255.532 7  22340263.681 7 119337628.664 7  92818178.318 7
R13  19723777.186 7                 105323875.854 7
R14  21075624.166 8  21075628.850 7 112344933.125 8  87379740.583 7
R22  20863455.250 8  20863457.526 7 111370538.896 8  86621535.682 7
R23  19216948.702 8                 102797711.155 8
R24  22184152.688 6  22184160.057 5 118628731.554 6  92266763.404 5
> 2025 06 15 06 53 55.0000000  0 19
C13  37435772.339 6  37435774.259 7 194937885.459 6 150738326.447 7
C29  22091590.271 7                 115036705.230 7
C30  21873954.155 7                 113903419.138 7
E02  26903684.502 6  26903686.519 7 141379824.096 6 106952922.080 7
E10  23411373.585 8  23411373.924 9 123027597.491 8  93069579.905 9
E16  23355696.285 8  23355696.816 9 122735011.509 8  92848239.131 9
E24  24312634.407 8  24312634.790 8 127763753.104 8  96652447.880 8
E25  23546651.818 8  23546652.603 8 123738487.556 8  93607367.386 8
G16  20967974.379 7  20967977.554 5                 110187442.948 7  85860359.563 5
G18  20436527.325 8                  20436531.706 8 107394672.292 8                  83684182.969 8
G23  22587684.096 7                  22587690.564 7 118699082.882 7                  92492820.357 7
G27  23053017.187 5                  23053025.542 6 121144425.601 5                  94398286.330 6
G29  22580907.063 7                  22580913.758 7 118663465.515 7                  92465058.379 7
R12  22343235.801 7  22343241.596 7 119353539.086 7  92830553.049 7
R13  19724450.114 7                 105327463.912 7
R14  21071878.306 8  21071883.501 7 112324967.287 8  87364211.612 7
R22  20865142.365 8  20865144.966 7 111379546.543 8  86628541.611 7
R23  19215986.477 8                 102792562.274 8
R24  22179921.269 7  22179925.838 5 118606095.231 7  92249157.395 5
> 2025 06 15 06 54  0.0000000  0 19
C13  37434326.768 7  37434328.359 7 194930355.224 7 150732503.586 7
C29  22088961.603 7                 115023016.168 7
C30  21874107.409 7                 113904217.212 7
E02  26899960.159 6  26899962.512 7 141360253.892 6 106938117.320 7
E10  23410138.553 8  23410138.921 9 123021107.557 8  93064670.307 9
E16  23355270.308 8  23355270.798 9 122732772.901 8  92846545.632 9
E24  24313475.205 8  24313475.233 8 127768169.804 8  96655789.073 8
E25  23544887.171 8  23544888.181 8 123729215.338 8  93600353.010 8
G16  20965167.696 7  20965170.500 5                 110172691.638 7  85848865.051 5
G18  20435591.055 7                  20435595.684 8 107389753.516 7                  83680350.146 8
G23  22583624.179 7                  22583630.899 7 118677748.371 7                  92476196.070 7
G27  23048825.881 5                  23048833.191 6 121122393.816 5                  94381118.712 6
G29  22582434.533 7                  22582440.881 7 118671490.578 7                  92471311.658 7
R12  22346214.277 7  22346220.305 7 119369450.196 7  92842928.350 7
R13  19725125.345 7                 105331066.813 7
R14  21068134.833 8  21068139.895 7 112305011.806 8  87348690.679 7
R22  20866829.900 8  20866832.977 7 111388555.174 8  86635548.294 7
R23  19215025.403 8                 102787422.054 8
R24  22175685.847 7  22175692.883 5 118583460.104 7  92231552.354 5
> 2025 06 15 06 54  5.0000000  0 20
C13  37432879.843 6  37432881.876 7 194922823.553 6 150726679.610 7
C26  25704808.651 6                 133851679.35216
C29  22086332.559 7                 115009328.162 7
C30  21874260.668 7                 113905016.247 7
E02  26896236.224 6  26896237.687 7 141340680.171 6 106923309.931 7
E10  23408904.789 8  23408904.658 9 123014621.293 8  93059763.491 9
E16  23354844.747 8  23354845.504 9 122730538.085 8  92844855.014 9
E24  24314315.726 8  24314316.017 8 127772588.004 8  96659131.401 8
E25  23543123.175 8  23543124.342 8 123719946.424 8  93593341.134 8
G16  20962361.766 7  20962364.913 5                 110157947.935 7  85837376.448 5
G18  20434656.659 8                  20434661.040 8 107384842.122 8                  83676523.096 8
G23  22579564.165 7                  22579571.645 8 118656415.848 7                  92459573.336 8
G27  23044632.649 5                  23044640.187 6 121100359.589 5                  94363949.192 6
G29  22583961.595 7                  22583967.746 7 118679514.646 7                  92477564.171 7
R12  22349193.728 8  22349198.967 7 119385361.380 8  92855303.685 7
R13  19725803.098 7                 105334683.893 7
R14  21064392.109 8  21064398.179 7 112285066.101 8  87333177.354 7
R22  20868516.984 8  20868519.942 7 111397564.073 8  86642555.207 7
R23  19214065.672 7                 102782289.727 7
R24  22171454.665 7  22171459.780 5 118560825.469 7  92213947.604 5
> 2025 06 15 06 54 10.0000000  0 20
C13  37431433.106 7  37431434.918 7 194915289.650 7 150720853.938 7
C26  25701260.162 6                 133833204.981 6
C29  22083704.318 7                 114995640.472 7
C30  21874414.346 7                 113905815.474 7
E02  26892510.567 6  26892512.049 7 141321102.166 6 106908499.277 7
E10  23407670.769 8  23407670.924 9 123008137.908 8  93054858.842 9
E16  23354420.521 8  23354420.856 9 122728306.300 8  92843166.679 9
E24  24315156.253 8  24315156.856 8 127777006.812 8  96662474.196 8
E25  23541360.072 8  23541361.003 8 123710680.022 8  93586331.158 8
G16  20959557.170 7  20959560.359 5                 110143211.078 7  85825893.195 5
G18  20433723.520 8                  20433727.738 8 107379937.375 8                  83672701.217 8
G23  22575505.031 7                  22575512.122 8 118635084.501 7                  92442951.545 8
G27  23040439.526 5                  23040446.732 6 121078322.361 5                  94346777.278 6
G29  22585487.699 7                  22585494.320 7 118687536.923 7                  92483815.270 7
R12  22352170.906 7  22352177.419 7 119401271.735 7  92867678.344 7
R13  19726483.981 7                 105338314.386 7
R14  21060652.291 8  21060658.034 7 112265129.268 8  87317670.936 7
R22  20870205.288 8  20870207.770 7 111406572.474 8  86649561.711 7
R23  19213107.919 7                 102777164.556 7
R24  22167221.639 7  22167226.165 5 118538190.538 7  92196342.713 5
> 2025 06 15 06 54 15.0000000  0 20
C13  37429985.401 6  37429988.234 7 194907754.651 6 150715027.388 7
C26  25697714.331 6                 133814733.220 6
C29  22081076.387 7                 114981954.194 7
C30  21874567.727 7                 113906615.999 7
E02  26888785.278 6  26888785.773 8 141301520.958 6 106893686.180 8
E10  23406437.966 8  23406437.933 8 123001658.541 8  93049957.242 8
E16  23353996.657 8  23353996.976 9 122726078.632 8  92841481.465 9
E24  24315997.904 8  24315998.013 8 127781427.459 8  96665818.381 8
E25  23539597.241 8  23539598.335 8 123701417.268 8  93579323.938 8
G16  20956755.332 7  20956757.408 5                 110128482.187 7  85814416.156 5
G18  20432791.380 8                  20432796.089 8 107375040.347 8                  83668885.344 8
G23  22571446.763 7                  22571453.970 8 118613755.573 7                  92426331.627 8
G27  23036246.753 6                  23036253.544 6 121056283.158 6                  94329603.867 6
G29  22587014.132 7                  22587020.945 7 118695558.544 7                  92490065.872 7
R12  22355149.084 7  22355156.270 7 119417182.505 7  92880053.356 7
R13  19727164.745 7                 105341959.389 7
R14  21056914.615 8  21056919.692 7 112245202.561 8  87302172.378 7
R22  20871893.896 8  20871895.231 7 111415581.544 8  86656568.736 7
R23  19212150.925 7                 102772047.706 7
R24  22162990.300 7  22162994.356 6 118515556.480 7  92178738.408 6
> 2025 06 15 06 54 20.0000000  0 20
C13  37428539.253 6  37428540.819 7 194900218.886 6 150709200.255 7
C26  25694167.390 6                 133796264.341 6
C29  22078447.757 7                 114968269.687 7
C30  21874722.744 7                 113907418.171 7
E02  26885057.957 6  26885058.941 7 141281936.918 6 106878870.966 7
E10  23405205.330 7  23405205.819 8 122995183.543 7  93045058.941 8
E16  23353573.763 8  23353573.865 9 122723855.446 8  92839799.644 9
E24  24316839.758 8  24316839.605 8 127785850.237 8  96669164.170 8
E25  23537835.698 8  23537836.447 8 123692158.491 8  93572319.729 8
G16  20953953.383 7  20953956.220 5                 110113761.624 7  85802945.599 5
G18  20431861.527 8                  20431865.671 8 107370151.432 8                  83665075.789 8
G23  22567388.170 7                  22567395.885 8 118592429.333 7                  92409713.775 8
G27  23032051.923 6                  23032059.125 6 121034242.382 6                  94312429.253 6
G29  22588540.895 7                  22588547.860 7 118703579.890 7                  92496316.224 7
R12  22358128.764 7  22358134.954 6 119433093.873 7  92892428.882 6
R13  19727850.713 7                 105345619.124 7
R14  21053178.154 7  21053183.541 7 112225286.248 7  87286681.934 7
R22  20873581.673 8  20873583.211 7 111424591.509 8  86663576.491 7
R23  19211195.570 7                 102766939.416 7
R24  22158755.608 7  22158762.033 6 118492923.582 7  92161135.054 6
> 2025 06 15 06 54 25.0000000  0 20
C13  37427091.872 6  37427093.464 7 194892682.076 6 150703372.325 7
C26  25690618.950 6                 133777798.238 6
C29  22075819.727 7                 114954586.714 7
C30  21874877.252 7                 113908221.799 7
E02  26881330.653 6  26881331.596 7 141262349.801 6 106864053.465 7
E10  23403973.924 8  23403974.500 9 122988712.664 8  93040163.769 9
E16  23353151.405 8  23353151.590 9 122721636.555 8  92838121.059 9
E24  24317681.479 8  24317681.583 8 127790274.908 8  96672511.401 8
E25  23536074.557 8  23536075.243 8 123682903.507 8  93565318.393 8
G16  20951152.976 7  20951156.452 5                 110099049.161 7  85791481.337 5
G18  20430932.203 8                  20430936.652 8 107365270.386 8                  83661272.380 8
G23  22563330.567 7                  22563338.221 8 118571105.619 7                  92393097.905 8
G27  23027857.565 6                  23027863.963 6 121012199.772 6                  94295253.165 6
G29  22590067.832 7                  22590074.041 7 118711600.714 7                  92502566.190 7
R12  22361107.229 7  22361113.477 7 119449005.756 7  92904804.771 7
R13  19728539.050 7                 105349293.595 7
R14  21049444.062 8  21049448.665 7 112205380.268 8  87271199.491 7
R22  20875269.374 8  20875271.662 7 111433602.241 8  86670584.806 7
R23  19210242.934 7                 102761839.651 7
R24  22154524.313 7  22154530.581 6 118470291.728 7  92143532.526 6
> 2025 06 15 06 54 30.0000000  0 20
C13  37425644.414 6  37425646.407 7 194885144.538 6 150697543.801 7
C26  25687072.886 5                 133759335.023 5
C29  22073191.865 7                 114940905.513 7
C30  21875031.786 7                 113909027.027 7
E02  26877602.454 6  26877603.669 7 141242759.914 6 106849233.835 7
E10  23402743.694 8  23402743.926 9 122982246.122 8  93035271.867 9
E16  23352730.168 8  23352730.226 9 122719422.116 8  92836445.844 9
E24  24318523.988 8  24318523.972 8 127794701.666 8  96675860.201 8
E25  23534314.303 8  23534314.847 8 123673652.491 8  93558320.053 8
G16  20948355.169 7  20948358.127 5                 110084345.027 7  85780023.595 5
G18  20430005.464 8                  20430009.495 8 107360397.385 8                  83657475.252 8
G23  22559273.438 7                  22559280.464 8 118549784.649 7                  92376484.149 8
G27  23023663.099 6                  23023668.793 6 120990155.526 6                  94278075.829 6
G29  22591593.986 7                  22591600.109 7 118719621.160 7                  92508815.887 7
R12  22364085.325 7  22364092.130 7 119464918.259 7  92917181.140 7
R13  19729228.892 7                 105352982.820 7
R14  21045711.313 8  21045716.464 7 112185484.660 8  87255725.132 7
R22  20876957.169 8  20876959.799 7 111442613.890 8  86677593.857 7
R23  19209291.768 7                 102756748.465 7
R24  22150292.787 7  22150298.562 6 118447661.139 7  92125931.020 6
> 2025 06 15 06 54 35.0000000  0 20
C13  37424196.609 6  37424198.595 7 194877606.494 6 150691714.910 7
C26  25683527.905 5                 133740874.974 5
C29  22070565.046 7                 114927226.247 7
C30  21875185.964 7                 113909834.103 7
E02  26873874.280 6  26873875.323 7 141223167.365 6 106834412.199 7
