     3.04           OBSERVATION DATA    Mixed(MIXED)        RINEX VERSION / TYPE
cnvtToRINEX 3.14.0  convertToRINEX OPR  20250615 162729 UTC PGM / RUN BY / DATE 
----------------------------------------------------------- COMMENT             
36.1B                                                       MARKER NAME         
36.1B                                                       MARKER NUMBER       
GEODETIC                                                    MARKER TYPE         
GNSS Observer       Trimble                                 OBSERVER / AGENCY   
6203S17886          Geo Explorer 3      5.53                REC # / TYPE / VERS 
                    UNKNOWN EXT     NONE                    ANT # / TYPE        
  3913235.7670  1190474.1991  4878392.0749                  APPROX POSITION XYZ 
        1.3120        0.0000        0.0000                  ANTENNA: DELTA H/E/N
G    6 C1C C2W C2X L1C L2W L2X                              SYS / # / OBS TYPES 
R    4 C1C C2C L1C L2C                                      SYS / # / OBS TYPES 
C    4 C2I C7I L2I L7I                                      SYS / # / OBS TYPES 
E    4 C1X C8X L1X L8X                                      SYS / # / OBS TYPES 
     5.000                                                  INTERVAL            
  2025     6    15    10    40   25.0000000     GPS         TIME OF FIRST OBS   
  2025     6    15    11    20   30.0000000     GPS         TIME OF LAST OBS    
     0                                                      RCV CLOCK OFFS APPL 
  8 R01  1 R02 -4 R03  5 R08  6 R16 -1 R17  4 R18 -3 R24  2 GLONASS SLOT / FRQ #
G L2X -0.25000                                              SYS / PHASE SHIFT   
R L2C -0.25000                                              SYS / PHASE SHIFT   
    18                                                      LEAP SECONDS        
    27                                                      # OF SATELLITES     
   C12     6     6     6     6                              PRN / # OF OBS      
   C13     2     0     2     0                              PRN / # OF OBS      
   C19   477     0   477     0                              PRN / # OF OBS      
   C20   477     0   477     0                              PRN / # OF OBS      
   C22   321     0   319     0                              PRN / # OF OBS      
   C29   164     0   164     0                              PRN / # OF OBS      
   E02   476   475   476   475                              PRN / # OF OBS      
   E04   318   283   311   283                              PRN / # OF OBS      
   E06   477   477   477   477                              PRN / # OF OBS      
   E09   302   302   302   302                              PRN / # OF OBS      
   E11   420   414   416   414                              PRN / # OF OBS      
   E30   477   477   477   477                              PRN / # OF OBS      
   E34   477   477   477   477                              PRN / # OF OBS      
   E36   477   477   477   477                              PRN / # OF OBS      
   G01   477     0   477   477     0   477                  PRN / # OF OBS      
   G02   477   477     0   477   477     0                  PRN / # OF OBS      
   G03    78     0    75    77     0    75                  PRN / # OF OBS      
   G08   477     0   477   477     0   477                  PRN / # OF OBS      
   G10   477     0   477   477     0   477                  PRN / # OF OBS      
   G27   453     1   443   449     1   442                  PRN / # OF OBS      
   G32   477     0   477   477     0   477                  PRN / # OF OBS      
   R01   477     0   477     0                              PRN / # OF OBS      
   R02   477   477   477   477                              PRN / # OF OBS      
   R16   213   152   206   137                              PRN / # OF OBS      
   R17   477   477   477   477                              PRN / # OF OBS      
   R18   465   455   464   452                              PRN / # OF OBS      
   R24   477   477   477   477                              PRN / # OF OBS      
DBHZ                                                        SIGNAL STRENGTH UNIT
                                                            END OF HEADER       
>                              2  1
              *** Start of Kinematic Data ***               COMMENT             
> 2025 06 15 10 40 25.0000000  0 22
C19  22590634.296 7                 117635428.52117
C20  23369743.872 7                 121692626.66617
C29  23726081.069 6                 123548007.18816
E02  25715551.767 6  25715556.390 7 135136127.47516 102229627.33217
E04  25837342.865 5  25837360.126 5 135776263.03015 102713865.58715
E06  25581682.302 7  25581686.074 8 134432609.62117 101697447.01418
E11  25380778.703 7  25380777.582 7 133376938.36617 100898745.22717
E30  26445263.747 7  26445267.021 8 138970791.20617 105130520.77018
E34  25894568.536 7  25894571.515 8 136076889.97617 102941287.66618
E36  23463949.133 8  23463951.048 9 123303877.45218  93278600.51419
G01  23184153.129 5                  23184165.437 6 121833745.99615                  94935370.18916
G02  21411142.927 7  21411145.764 6                 112516433.53517  87675067.96916
G08  20404765.482 8                  20404772.468 7 107227993.94518                  83554138.70817
G10  21432065.550 8                  21432071.665 7 112626438.12918                  87760767.81117
G27  21598845.437 7                  21598852.431 7 113502787.73617                  88443705.11817
G32  22576800.954 7                  22576808.759 6 118641896.51617                  92448298.20016
R01  19952846.631 7                 106659620.95417
R02  20681249.583 7  20681254.986 7 110359208.91317  85834885.22917
R16  22393327.130 6  22393332.655 5 119621305.19016  93038686.78915
R17  19530479.956 8  19530484.870 7 104511760.27718  81286783.93517
R18  22448181.174 5  22448186.112 5 119830079.52115  93201063.97915
R24  20614240.277 8  20614244.536 7 110233645.92718  85737285.04417
> 2025 06 15 10 40 55.0000000  0 21
C19  22575126.340 7                 117554679.569 7
C20  23371909.746 7                 121703898.433 7
C29  23734392.469 6                 123591263.274 6
E02  25721985.510 5  25721986.414 7 135169918.755 5 102255190.056 7
E04  25829417.826 4  25829422.330 6 135734606.90114 102682353.40116
E06  25566085.505 7  25566088.607 8 134350643.919 7 101635440.562 8
E11  25385139.405 7  25385138.609 7 133399856.312 7 100916082.429 7
E30  26437012.078 7  26437015.379 8 138927427.861 7 105097716.663 8
E34  25875327.924 7  25875330.644 8 135975776.308 7 102864795.892 8
E36  23456228.209 8  23456230.434 9 123263304.835 8  93247907.580 9
G01  23160266.815 6                  23160272.696 5 121708218.629 6                  94837556.665 5
G02  21395378.672 7  21395381.449 6                 112433592.556 7  87610516.599 6
G08  20400786.579 8                  20400792.616 7 107207082.164 8                  83537843.796 7
G10  21435116.773 8                  21435122.425 7 112642471.387 8                  87773261.217 7
G27  21608164.219 7                  21608171.815 7 113551761.019 7                  88481866.052 7
G32  22558442.535 7                  22558449.370 6 118545419.168 7                  92373121.139 6
R01  19951058.611 8                 106650058.910 8
R02  20656466.080 7  20656470.918 7 110226961.393 7  85732026.135 7
R17  19516236.226 8  19516241.167 7 104435537.450 8  81227499.523 7
R18  22421925.346 5  22421927.552 5 119689921.127 5  93092052.099 5
R24  20620487.631 8  20620492.527 7 110267055.257 8  85763270.033 7
>                              3  5
              *** Start of Occupation ***                   COMMENT             
36.1B                                                       MARKER NAME         
36.1B                                                       MARKER NUMBER       
  3913235.7670  1190474.1991  4878392.0749                  APPROX POSITION XYZ 
        1.3120        0.0000        0.0000                  ANTENNA: DELTA H/E/N
> 2025 06 15 10 41  0.0000000  0 21
C19  22572551.705 7                 117541269.393 7
C20  23372279.085 7                 121705822.326 7
C29  23735781.411 6                 123598495.450 6
E02  25723061.400 6  25723063.607 7 135175579.736 6 102259472.515 7
E04  25828113.318 4  25828110.271 6 135727709.82814 102677135.76616
E06  25563492.880 7  25563496.436 8 134337021.677 7 101625135.425 8
E11  25385869.259 7  25385868.097 7 133403689.624 7 100918982.279 7
E30  26435645.574 7  26435648.662 8 138920245.932 7 105092283.602 8
E34  25872123.377 7  25872125.938 8 135958935.353 7 102852055.839 8
E36  23454945.616 8  23454947.863 9 123256565.008 8  93242808.939 9
G01  23156290.118 6                  23156294.142 5 121687312.237 6                  94821266.017 5
G02  21392756.975 7  21392758.632 6                 112419812.738 7  87599779.066 6
G08  20400133.435 8                  20400140.165 7 107203653.192 8                  83535171.864 7
G10  21435632.506 8                  21435638.425 7 112645183.019 8                  87775374.182 7
G27  21609725.312 7                  21609732.780 7 113559961.908 7                  88488256.343 7
G32  22555391.687 7                  22555398.382 6 118529385.128 7                  92360627.083 6
R01  19950775.849 8                 106648546.050 8
R02  20652346.462 7  20652351.581 7 110204978.029 7  85714927.962 7
R17  19513870.978 8  19513875.202 7 104422876.847 8  81217652.366 7
R18  22417548.412 5  22417554.669 5 119666571.97715  93073891.56915
R24  20621537.102 8  20621541.421 7 110272662.616 8  85767631.283 7
> 2025 06 15 10 41  5.0000000  0 19
C19  22569978.579 7                 117527871.750 7
C20  23372650.739 7                 121707757.950 7
C29  23737172.032 6                 123605732.953 6
E02  25724139.188 6  25724142.082 7 135181247.777 6 102263760.385 7
E06  25560902.496 7  25560906.090 8 134323409.318 7 101614837.762 8
E11  25386599.202 7  25386598.086 7 133407525.626 7 100921884.185 7
E30  26434281.523 7  26434284.279 8 138913075.782 7 105086859.418 8
E34  25868918.334 7  25868921.502 8 135942096.435 7 102839317.297 8
E36  23453663.556 8  23453666.290 9 123249830.322 8  93237714.204 9
G01  23152311.312 6                  23152315.532 5 121666408.893 6                  94804977.663 5
G02  21390135.671 7  21390136.932 6                 112406039.456 7  87589046.650 6
G08  20399484.087 8                  20399490.338 7 107200239.122 8                  83532511.569 7
G10  21436151.000 8                  21436156.292 7 112647904.686 8                  87777494.955 7
G27  21611287.112 7                  21611295.121 7 113568172.626 7                  88494654.285 7
G32  22552342.038 7                  22552349.671 6 118513362.935 7                  92348142.260 6
R01  19950497.033 8                 106647054.947 8
R02  20648229.133 7  20648234.699 7 110183010.053 7  85697841.762 7
R17  19511507.569 8  19511511.550 7 104410227.387 8  81207813.890 7
R24  20622587.008 8  20622591.546 7 110278279.900 8  85772000.282 7
> 2025 06 15 10 41 10.0000000  0 21
C19  22567408.241 7                 117514487.894 7
C20  23373025.932 7                 121709706.512 7
C29  23738562.525 6                 123612977.034 6
E02  25725219.868 6  25725222.281 7 135186924.124 6 102268054.481 7
E06  25558314.786 7  25558317.975 8 134309808.063 7 101604548.505 8
E11  25387329.811 7  25387328.794 7 133411365.576 7 100924789.072 7
E30  26432919.422 7  26432922.301 8 138905918.634 7 105081445.071 8
E34  25865715.018 7  25865717.648 8 135925260.800 7 102826581.252 8
E36  23452383.496 8  23452385.891 9 123243102.088 8  93232624.325 9
G01  23148333.516 6                  23148338.950 5 121645509.867 6                  94788692.755 5
G02  21387515.720 7  21387517.460 6                 112392273.984 7  87578320.316 6
G08  20398837.692 8                  20398843.945 7 107196841.227 8                  83529863.866 7
G10  21436670.872 8                  21436676.461 7 112650637.657 8                  87779624.544 7
G27  21612852.070 7                  21612860.021 7 113576394.402 7                  88501060.849 7
G32  22549295.610 7                  22549302.888 6 118497353.805 7                  92335667.600 6
R01  19950222.528 7                 106645586.979 7
R02  20644116.369 7  20644121.748 7 110161058.967 7  85680768.667 7
R16  22392640.987 6                 119617537.98216
R17  19509146.175 8  19509149.941 7 104397590.339 8  81197985.091 7
R18  22408802.104 5                 119619881.50415
R24  20623640.651 8  20623643.895 7 110283908.479 8  85776378.079 7
> 2025 06 15 10 41 15.0000000  0 22
C19  22564841.255 7                 117501119.219 7
C20  23373402.581 7                 121711669.450 7
C22  25223602.776 4                 131345894.72014
C29  23739954.471 6                 123620229.085 6
E02  25726302.351 6  25726304.315 7 135192610.228 6 102272355.968 7
E06  25555728.200 7  25555732.158 8 134296219.360 7 101594268.754 8
E11  25388061.204 7  25388060.582 7 133415210.881 7 100927698.005 7
E30  26431559.995 7  26431563.091 8 138898775.903 7 105076041.639 8
E34  25862511.957 7  25862514.728 8 135908429.877 7 102813848.768 8
E36  23451104.195 8  23451107.023 9 123236381.652 8  93227540.375 9
G01  23144358.074 6                  23144362.590 5 121624616.604 6                  94772412.303 5
G02  21384898.773 7  21384900.057 6                 112378517.770 7  87567601.177 6
G08  20398193.783 8                  20398200.736 7 107193460.870 8                  83527229.813 7
G10  21437193.276 8                  21437198.974 7 112653383.321 8                  87781764.017 7
G27  21614418.578 7                  21614427.092 7 113584628.675 7                  88507477.169 7
G32  22546252.304 7                  22546259.446 7 118481359.233 7                  92323204.284 7
R01  19949952.430 7                 106644143.567 7
R02  20640006.541 7  20640011.300 7 110139125.762 7  85663709.527 7
R16  22392576.243 5  22392570.119 6 119617228.065 5  93035511.17816
R17  19506786.758 8  19506790.786 7 104384967.212 8  81188167.091 7
R18  22404432.307 5  22404434.191 5 119596541.764 5  93019416.85115
R24  20624695.281 8  20624698.491 7 110289549.687 8  85780765.675 7
> 2025 06 15 10 41 20.0000000  0 21
C19  22562276.963 7                 117487765.503 7
C20  23373782.002 7                 121713646.496 7
C29  23741347.124 6                 123627488.846 6
E02  25727384.480 6  25727388.065 7 135198305.844 6 102276664.652 7
E06  25553144.902 7  25553148.547 8 134282642.932 7 101583998.303 8
E11  25388794.163 7  25388793.350 7 133419061.334 7 100930610.835 7
E30  26430203.700 8  26430206.644 8 138891647.336 8 105070648.907 8
E34  25859309.871 7  25859312.733 8 135891603.417 7 102801119.680 8
E36  23449826.847 8  23449829.623 9 123229668.817 8  93222462.164 9
G01  23140384.140 6                  23140387.830 6 121603728.801 6                  94756136.134 6
G02  21382282.401 7  21382283.844 6                 112364770.532 7  87556889.056 6
G08  20397553.888 8                  20397560.568 7 107190097.829 8                  83524609.260 7
G10  21437718.103 8                  21437723.871 7 112656141.429 8                  87783913.191 7
G27  21615988.547 6                  21615996.651 8 113592875.141 6                  88513902.970 8
G32  22543211.576 7                  22543218.806 6 118465378.913 7                  92310752.093 6
R01  19949687.192 7                 106642724.423 7
R02  20635898.529 8  20635904.087 7 110117210.416 8  85646664.269 7
R16  22392509.373 6  22392516.568 6 119616940.636 6  93035287.554 6
R17  19504430.532 8  19504434.701 7 104372357.651 8  81178359.653 7
R18  22400063.264 6  22400062.897 5 119573206.251 6  93001267.070 5
R24  20625752.743 8  20625756.279 7 110295203.329 8  85785162.940 7
> 2025 06 15 10 41 25.0000000  0 21
C19  22559715.464 7                 117474425.518 7
C20  23374163.954 7                 121715636.398 7
C29  23742743.081 6                 123634755.115 6
E02  25728471.918 6  25728473.433 7 135204009.697 6 102280979.548 7
E06  25550562.880 7  25550567.091 8 134269077.639 7 101573736.261 8
E11  25389528.006 7  25389526.842 7 133422915.651 7 100933526.601 7
E30  26428849.777 8  26428852.571 8 138884531.724 8 105065265.985 8
E34  25856108.639 7  25856111.347 8 135874780.211 7 102788393.047 8
E36  23448550.542 8  23448553.392 9 123222962.364 8  93217388.762 9
G01  23136410.108 6                  23136414.001 5 121582845.285 6                  94739863.263 5
G02  21379667.934 7  21379670.028 6                 112351031.046 7  87546182.971 6
G08  20396917.464 8                  20396923.674 7 107186750.896 8                  83522001.253 7
G10  21438245.635 8                  21438250.635 7 112658910.751 8                  87786071.099 7
G27  21617559.702 7                  21617567.587 7 113601132.642 7                  88520337.353 7
G32  22540173.380 7                  22540180.411 7 118449411.689 7                  92298310.116 7
R01  19949426.167 7                 106641328.344 7
R02  20631795.712 8  20631800.283 7 110095311.834 8  85629632.056 7
R16  22392460.695 5  22392465.822 6 119616674.764 5  93035080.807 6
R17  19502076.427 8  19502080.377 7 104359760.568 8  81168561.924 7
R18  22395686.678 6  22395693.296 5 119549873.852 6  92983119.680 5
R24  20626811.430 8  20626816.067 7 110300868.110 8  85789568.879 7
> 2025 06 15 10 41 30.0000000  0 22
C19  22557156.791 7                 117461099.154 7
C20  23374548.448 7                 121717639.047 7
C29  23744138.908 6                 123642027.703 6
E02  25729557.556 6  25729560.438 7 135209721.661 6 102285300.611 7
E04  25820324.836 5                 135686678.81215
E06  25547983.781 7  25547987.690 8 134255523.315 7 101563482.511 8
E11  25390262.036 7  25390261.081 7 133426773.742 7 100936445.215 7
E30  26427497.999 8  26427500.994 8 138877428.941 8 105059892.771 8
E34  25852907.372 7  25852910.511 8 135857960.106 7 102775668.751 8
E36  23447275.837 8  23447278.369 9 123216262.140 8  93212320.095 9
G01  23132436.015 6                  23132440.662 6 121561965.923 6                  94723593.650 6
G02  21377054.981 7  21377057.445 6                 112337299.146 7  87535482.803 6
G08  20396283.499 8                  20396290.492 7 107183419.921 8                  83519405.697 7
G10  21438774.181 8                  21438779.851 7 112661691.152 8                  87788237.636 7
G27  21619133.103 7                  21619140.980 7 113609400.962 7                  88526780.201 7
G32  22537136.862 7                  22537144.812 7 118433457.389 7                  92285878.217 7
R01  19949169.177 7                 106639955.085 7
R02  20627694.555 7  20627699.705 7 110073429.896 7  85612612.776 7
R16  22392414.301 5  22392420.347 6 119616430.229 5  93034890.601 6
R17  19499724.266 8  19499728.641 7 104347175.689 8  81158773.693 7
R18  22391317.090 6  22391322.103 5 119526544.397 6  92964974.536 5
R24  20627871.819 8  20627877.538 7 110306543.918 8  85793983.415 7
> 2025 06 15 10 41 35.0000000  0 22
C19  22554599.057 7                 117447784.182 7
C20  23374935.595 7                 121719652.176 7
C29  23745536.897 6                 123649304.430 6
E02  25730647.472 6  25730648.544 7 135215439.435 6 102289626.051 7
E04  25819021.136 5  25818997.031 5 135679871.626 5 102640952.82915
E06  25545406.650 7  25545409.965 8 134241977.688 7 101553235.334 8
E11  25390996.820 7  25390995.573 7 133430633.295 7 100939364.929 7
E30  26426148.709 8  26426151.310 8 138870336.694 8 105054527.516 8
E34  25849706.762 7  25849709.879 8 135841140.831 7 102762945.081 8
E36  23446001.125 8  23446004.101 9 123209565.866 8  93207254.401 9
G01  23128463.458 6                  23128468.881 6 121541088.435 6                  94707325.518 6
G02  21374443.141 8  21374445.202 6                 112323572.601 8  87524786.808 6
G08  20395651.872 8                  20395658.938 7 107180102.626 8                  83516820.772 7
G10  21439305.083 8                  21439310.679 7 112664480.322 8                  87790411.002 7
G27  21620708.901 7                  21620715.901 7 113617677.855 7                  88533229.717 7
G32  22534103.521 7                  22534110.809 7 118417513.787 7                  92273454.643 7
R01  19948915.876 7                 106638602.384 7
R02  20623597.460 8  20623602.072 7 110051561.929 8  85595604.360 7
R16  22392372.911 6  22392378.550 5 119616204.625 6  93034715.130 5
R17  19497374.051 8  19497378.738 7 104334600.803 8  81148993.226 7
R18  22386948.025 6  22386951.461 5 119503215.605 6  92946829.895 5
R24  20628935.548 8  20628940.473 7 110312228.436 8  85798404.717 7
> 2025 06 15 10 41 40.0000000  0 22
C19  22552044.557 7                 117434481.581 7
C20  23375323.907 7                 121721676.823 7
C29  23746935.486 6                 123656586.312 6
E02  25731734.874 6  25731737.964 7 135221164.117 6 102293956.682 7
E04  25817717.479 4  25817693.299 5 135673076.28714 102635812.70915
E06  25542830.659 7  25542834.129 8 134228441.830 7 101542995.540 8
E11  25391731.364 7  25391730.565 7 133434495.401 7 100942286.570 7
E30  26424801.252 8  26424803.821 8 138863256.048 8 105049171.052 8
E34  25846506.814 7  25846509.624 8 135824323.470 7 102750222.851 8
E36  23444728.166 8  23444730.790 9 123202874.612 8  93202192.513 9
G01  23124490.508 6                  23124496.835 6 121520213.848 6                  94691059.601 6
G02  21371832.501 8  21371834.494 6                 112309852.448 8  87514095.787 6
G08  20395023.684 8                  20395030.494 7 107176800.083 8                  83514247.367 7
G10  21439837.875 8                  21439843.312 7 112667279.343 8                  87792592.074 7
G27  21622285.259 7                  21622293.062 7 113625964.339 7                  88539686.714 7
G32  22531070.846 7                  22531079.411 7 118401581.944 7                  92261040.229 7
R01  19948666.348 7                 106637271.394 7
R02  20619501.765 8  20619507.040 7 110029709.392 8  85578607.970 7
R16  22392333.502 5  22392339.694 5 119615999.286 5  93034555.475 5
R17  19495025.727 8  19495030.545 7 104322036.994 8  81139221.370 7
R18  22382579.496 6  22382581.648 5 119479888.555 6  92928686.620 5
R24  20630000.478 8  20630005.688 7 110317922.722 8  85802833.588 7
> 2025 06 15 10 41 45.0000000  0 22
C19  22549492.365 7                 117421193.154 7
C20  23375714.996 7                 121723714.747 7
C29  23748335.702 6                 123663875.041 6
E02  25732826.566 6  25732829.043 7 135226897.466 6 102298293.907 7
E04  25816400.501 5  25816401.648 6 135666294.245 5 102630682.009 6
E06  25540256.938 7  25540260.504 8 134214917.495 7 101532764.477 8
E11  25392467.477 7  25392466.371 7 133438361.813 7 100945211.476 7
E30  26423456.592 8  26423458.917 8 138856188.782 8 105043824.705 8
E34  25843307.137 7  25843309.954 8 135807509.754 7 102737503.408 8
E36  23443456.473 8  23443458.816 9 123196190.138 8  93197135.752 9
G01  23120518.442 6                  23120525.952 6 121499344.035 6                  94674797.418 6
G02  21369223.402 8  21369225.204 6                 112296140.470 8  87503411.116 6
G08  20394397.880 7                  20394405.093 7 107173514.043 7                  83511686.806 7
G10  21440372.278 8                  21440378.112 7 112670089.948 8                  87794782.152 7
G27  21623863.789 7                  21623871.881 7 113634262.200 7                  88546152.575 7
G32  22528042.444 7                  22528050.105 7 118385663.600 7                  92248636.334 7
R01  19948422.013 7                 106635963.738 7
R02  20615409.236 8  20615414.802 7 110007874.043 8  85561624.961 7
R16  22392297.507 5  22392304.573 5 119615815.644 5  93034412.576 5
R17  19492680.559 8  19492685.364 7 104309485.979 8  81129459.479 7
R18  22378209.010 6  22378212.803 5 119456564.945 6  92910546.069 5
R24  20631068.143 8  20631072.624 7 110323628.622 8  85807271.467 7
> 2025 06 15 10 41 50.0000000  0 22
C19  22546942.889 7                 117407918.340 7
C20  23376109.036 7                 121725765.315 7
C29  23749737.018 6                 123671170.069 6
E02  25733918.905 6  25733921.533 7 135232638.856 6 102302637.178 7
E04  25815110.648 6  25815112.707 6 135659525.180 6 102625561.152 6
E06  25537685.111 7  25537688.916 8 134201404.093 7 101522541.694 8
E11  25393203.748 7  25393202.880 7 133442231.930 7 100948139.175 7
E30  26422114.135 8  26422116.452 8 138849134.289 8 105038488.023 8
E34  25840108.712 7  25840111.016 8 135790699.123 7 102724786.258 8
E36  23442186.277 8  23442187.917 9 123189511.848 8  93192083.668 9
G01  23116548.921 6                  23116555.544 6 121478478.311 6                  94658538.398 6
G02  21366614.151 7  21366616.790 5                 112282436.030 7  87492732.338 5
G08  20393776.080 7                  20393782.676 7 107170243.918 7                  83509138.657 7
G10  21440909.309 8                  21440914.503 7 112672911.535 8                  87796980.792 7
G27  21625445.137 7                  21625452.844 7 113642570.841 7                  88552626.834 7
G32  22525014.589 7                  22525023.127 7 118369758.231 7                  92236242.548 7
R01  19948181.265 7                 106634678.889 7
R02  20611320.459 7  20611325.420 7 109986055.167 7  85544654.744 7
R16  22392266.643 5  22392274.062 5 119615653.364 5  93034286.297 5
R17  19490337.215 8  19490342.552 7 104296947.235 8  81119707.124 7
R18  22373840.193 6  22373841.895 3 119433244.275 6  92892407.814 3
R24  20632137.108 8  20632141.799 7 110329345.483 8  85811717.914 7
> 2025 06 15 10 41 55.0000000  0 22
C19  22544396.063 7                 117394657.041 7
C20  23376504.742 7                 121727828.505 7
C29  23751139.183 6                 123678471.387 6
E02  25735014.050 6  25735015.778 7 135238388.176 6 102306986.495 7
E04  25813824.635 6  25813826.231 6 135652768.734 6 102620449.97116
E06  25535115.929 7  25535119.472 8 134187901.596 7 101512327.159 8
E11  25393941.113 7  25393940.061 7 133446105.700 7 100951069.640 7
E30  26420773.421 8  26420776.308 8 138842092.527 8 105033160.975 8
E34  25836909.629 7  25836912.668 8 135773891.481 7 102712071.420 8
E36  23440916.274 8  23440918.290 9 123182839.701 8  93187036.235 9
G01  23112579.037 6                  23112585.582 6 121457616.676 6                  94642282.546 6
G02  21364008.313 7  21364010.678 6                 112268739.139 7  87482059.431 6
G08  20393157.174 8                  20393163.706 7 107166989.655 8                  83506602.862 7
G10  21441447.682 8                  21441454.152 7 112675744.067 8                  87799187.972 7
G27  21627028.456 7                  21627036.249 7 113650890.172 7                  88559109.430 7
G32  22521990.346 7                  22521999.250 7 118353865.769 7                  92223858.807 7
R01  19947944.794 7                 106633416.780 7
R02  20607234.588 7  20607240.193 7 109964252.929 7  85527697.462 7
R16  22392238.068 4  22392247.021 5 119615512.068 4  93034176.353 5
R17  19487996.424 8  19488001.382 7 104284420.771 8  81109964.335 7
R18  22369473.523 7  22369472.860 5 119409926.440 7
R24  20633207.804 8  20633212.959 7 110335073.318 8  85816172.907 7
> 2025 06 15 10 42  0.0000000  0 22
C19  22541853.057 7                 117381409.896 7
C20  23376903.440 7                 121729904.877 7
C29  23752540.580 6                 123685779.606 6
E02  25736108.608 6  25736111.341 7 135244146.027 6 102311342.295 7
E04  25812540.441 5  25812542.510 6 135646025.794 5 102615348.903 6
E06  25532548.107 7  25532552.230 8 134174410.599 7 101502121.313 8
E11  25394677.991 7  25394678.037 7 133449983.684 7 100954003.296 7
E30  26419435.874 8  26419438.959 8 138835064.079 8 105027844.012 8
E34  25833711.935 7  25833715.028 8 135757087.487 7 102699359.305 8
E36  23439648.018 8  23439649.884 9 123176174.275 8  93181993.877 9
G01  23108609.708 6                  23108617.141 6 121436759.640 6                  94626030.331 6
G02  21361403.624 7  21361406.033 6                 112255050.338 7  87471392.855 6
G08  20392540.981 8                  20392547.533 7 107163751.828 8                  83504079.896 7
G10  21441989.434 8                  21441995.680 7 112678588.081 8                  87801404.097 7
G27  21628612.609 7                  21628620.895 7 113659220.784 7                  88565600.787 7
G32  22518969.603 7                  22518977.328 7 118337986.773 7                  92211485.599 7
R01  19947712.964 7                 106632177.976 7
R02  20603152.207 7  20603157.801 7 109942467.768 7  85510753.434 7
R16  22392221.889 5  22392224.360 5 119615392.758 5  93034083.434 5
R17  19485658.208 8  19485662.720 7 104271907.082 8  81100231.463 7
R18  22365105.189 6  22365104.943 5 119386612.146 6  92856126.56315
R24  20634281.099 8  20634286.374 7 110340812.710 8  85820636.856 7
> 2025 06 15 10 42  5.0000000  0 22
C19  22539311.051 7                 117368175.567 7
C20  23377304.285 7                 121731993.115 7
C29  23753946.108 6                 123693093.232 6
E02  25737206.926 6  25737208.273 7 135249911.116 6 102315703.506 7
E04  25811260.019 6  25811261.244 6 135639294.790 6 102610257.004 6
E06  25529982.542 7  25529987.035 8 134160929.820 7 101491923.200 8
E11  25395417.366 6  25395416.548 7 133453864.607 6 100956939.174 7
E30  26418100.679 8  26418103.741 8 138828047.665 8 105022536.110 8
E34  25830514.964 7  25830517.980 8 135740285.774 7 102686648.920 8
E36  23438380.842 8  23438382.510 9 123169514.274 8  93176955.621 9
G01  23104640.617 6                  23104647.921 6 121415905.991 6                  94609780.750 6
G02  21358799.543 7  21358802.444 6                 112241368.386 7  87460731.594 6
G08  20391927.320 8                  20391934.299 7 107160529.155 8                  83501568.711 7
G10  21442533.262 8                  21442538.350 7 112681442.303 8                  87803628.158 7
G27  21630200.633 7                  21630208.008 7 113667561.389 7                  88572099.938 7
G32  22515949.533 7                  22515958.138 7 118322120.017 7                  92199121.878 7
R01  19947485.806 7                 106630961.225 7
R02  20599073.046 8  20599077.325 7 109920698.416 8  85493821.737 7
R16  22392203.120 6  22392205.902 5 119615293.670 6  93034006.421 5
R17  19483321.907 8  19483326.313 7 104259404.898 8  81090507.555 7
R18  22360736.602 6  22360739.310 5 119363299.923 6  92837994.871 5
R24  20635356.139 8  20635361.475 7 110346562.182 8  85825108.665 7
> 2025 06 15 10 42 10.0000000  0 22
C19  22536772.004 7                 117354955.016 7
C20  23377708.055 7                 121734094.149 7
C29  23755352.870 6                 123700413.362 6
E02  25738305.559 6  25738306.871 7 135255684.392 6 102320070.966 7
E04  25809981.522 6  25809982.591 6 135632576.901 6 102605174.934 6
E06  25527419.730 7  25527423.760 8 134147460.140 7 101481733.497 8
E11  25396156.801 6  25396155.779 7 133457749.383 6 100959877.974 7
E30  26416767.620 7  26416771.111 8 138821044.155 7 105017238.001 8
E34  25827318.417 7  25827321.615 8 135723487.354 7 102673941.003 8
E36  23437114.576 8  23437116.385 9 123162860.618 8  93171922.174 9
G01  23100674.341 7                  23100680.257 6 121395056.664 7                  94593534.503 6
G02  21356197.667 7  21356200.900 6                 112227694.204 7  87450076.368 6
G08  20391317.226 8                  20391324.130 7 107157322.554 8                  83499070.042 7
G10  21443077.480 8                  21443083.958 7 112684307.691 8                  87805860.892 7
G27  21631789.986 7                  21631797.560 7 113675912.877 7                  88578607.612 7
G32  22512933.584 7                  22512941.302 7 118306266.415 7                  92186768.439 7
R01  19947262.407 7                 106629767.362 7
R02  20594996.606 8  20595000.895 7 109898945.791 8  85476903.041 7
R16  22392187.386 6  22392191.304 5 119615215.920 6  93033945.963 5
R17  19480988.317 8  19480992.546 7 104246915.128 8  81080793.302 7
R18  22356371.130 6  22356374.356 6 119339990.857 6  92819865.572 6
R24  20636433.479 8  20636438.434 7 110352322.784 8  85829589.109 7
> 2025 06 15 10 42 15.0000000  0 22
C19  22534235.690 7                 117341747.601 7
C20  23378113.331 7                 121736207.332 7
C29  23756759.779 6                 123707739.262 6
E02  25739406.244 6  25739406.886 7 135261465.206 6 102324444.088 7
E04  25808705.965 6  25808706.333 5 135625871.299 6 102600102.196 5
E06  25524858.935 7  25524862.486 8 134134000.974 7 101471551.721 8
E11  25396896.102 6  25396895.549 7 133461637.390 6 100962819.229 7
E30  26415438.137 7  26415440.800 8 138814052.953 7 105011949.202 8
E34  25824121.636 7  25824125.537 8 135706691.442 7 102661235.035 8
E36  23435849.558 8  23435851.328 9 123156212.656 8  93166893.037 9
G01  23096708.016 7                  23096712.892 6 121374210.982 7                  94577291.106 6
G02  21353596.826 7  21353600.405 6                 112214027.145 7  87439426.722 6
G08  20390710.044 8                  20390716.825 7 107154131.338 8                  83496583.391 7
G10  21443624.428 8                  21443631.370 7 112687183.521 8                  87808101.813 7
G27  21633381.735 7                  21633388.256 7 113684274.619 7                  88585123.229 7
G32  22509918.589 7                  22509926.524 7 118290425.304 7                  92174424.708 7
R01  19947043.202 7                 106628595.709 7
R02  20590922.125 8  20590927.546 7 109877209.416 8  85459996.967 7
R16  22392176.230 6  22392181.598 5 119615158.872 6  93033901.548 5
R17  19478656.368 8  19478661.043 7 104234437.278 8  81071088.308 7
R18  22352004.400 6  22352009.644 5 119316684.247 6  92801738.158 5
R24  20637512.459 7  20637517.501 7 110358093.788 7  85834077.637 7
> 2025 06 15 10 42 20.0000000  0 22
C19  22531701.907 7                 117328554.096 7
C20  23378522.401 7                 121738333.438 7
C29  23758168.692 6                 123715071.815 6
E02  25740507.861 6  25740508.385 7 135267254.238 6 102328823.483 7
E04  25807434.057 6  25807432.361 5 135619178.881 6 102595039.388 5
E06  25522299.951 7  25522303.509 8 134120553.097 7 101461378.481 8
E11  25397636.867 6  25397636.138 7 133465529.439 6 100965763.521 7
E30  26414109.843 7  26414112.834 8 138807074.857 7 105006670.315 8
E34  25820926.438 7  25820930.207 8 135689898.961 7 102648531.634 8
E36  23434585.807 8  23434587.515 9 123149571.189 8  93161868.811 9
G01  23092740.815 7                  23092746.642 6 121353369.731 7                  94561051.193 6
G02  21350997.331 7  21351001.110 6                 112200368.021 7  87428783.236 6
G08  20390106.288 8                  20390112.563 7 107150956.364 8                  83494109.391 7
G10  21444174.586 8                  21444181.180 7 112690070.597 8                  87810351.467 7
G27  21634975.026 7                  21634981.046 7 113692647.380 7                  88591647.422 7
G32  22506907.184 7                  22506914.769 7 118274597.512 7                  92162091.371 7
R01  19946828.547 7                 106627447.214 7
R02  20586852.325 8  20586857.529 7 109855490.059 8  85443104.140 7
R16  22392169.154 6  22392174.810 5 119615123.494 6  93033873.996 5
R17  19476327.289 8  19476331.171 7 104221972.065 8  81061393.130 7
R18  22347640.888 6  22347643.616 6 119293380.893 6  92783613.353 6
R24  20638594.191 8  20638599.037 7 110363876.162 8  85838575.039 7
> 2025 06 15 10 42 25.0000000  0 22
C19  22529170.669 7                 117315374.216 7
C20  23378932.778 7                 121740472.169 7
C29  23759577.640 6                 123722410.612 6
E02  25741610.491 6  25741611.684 7 135273051.270 6 102333208.887 7
E04  25806163.961 6  25806161.182 5 135612499.307 6 102589986.314 5
E06  25519743.419 7  25519746.580 8 134107116.212 7 101451213.574 8
E11  25398378.867 6  25398377.468 7 133469425.188 6 100968710.606 7
E30  26412784.787 7  26412787.595 8 138800109.547 7 105001401.090 8
E34  25817731.210 7  25817735.308 8 135673109.526 7 102635830.571 8
E36  23433323.035 8  23433324.900 9 123142935.936 8  93156849.286 9
G01  23088776.284 7                  23088781.450 6 121332532.652 7                  94544814.554 6
G02  21348399.685 7  21348402.928 6                 112186716.480 7  87418145.682 6
G08  20389504.850 8                  20389511.245 7 107147797.305 8                  83491647.796 7
G10  21444726.235 8                  21444732.849 8 112692968.628 8                  87812609.658 8
G27  21636570.050 7                  21636576.681 7 113701030.846 7                  88598179.967 7
G32  22503897.810 7                  22503905.531 7 118258782.735 7                  92149768.179 7
R01  19946619.303 7                 106626321.458 7
R02  20582784.412 8  20582790.288 7 109833787.189 8  85426224.165 7
R16  22392165.717 6  22392173.511 5 119615109.141 6  93033862.722 5
R17  19473999.611 8  19474004.140 7 104209519.114 8  81051707.494 7
R18  22343277.113 7  22343278.085 6 119270080.505 7  92765490.876 6
R24  20639678.648 8  20639682.565 7 110369669.563 8  85843080.986 7
> 2025 06 15 10 42 30.0000000  0 22
C19  22526642.852 7                 117302208.687 7
C20  23379346.573 7                 121742624.225 7
C29  23760988.127 6                 123729756.447 6
E02  25742714.542 6  25742716.524 7 135278857.038 6 102337600.913 7
E04  25804894.827 6  25804892.868 5 135605833.285 6 102584943.482 5
E06  25517188.744 7  25517191.925 8 134093691.060 7 101441057.549 8
E11  25399120.404 6  25399119.592 7 133473325.315 6 100971661.034 7
E30  26411461.968 7  26411464.714 8 138793157.760 7 104996142.110 8
E34  25814537.466 7  25814541.161 8 135656323.989 7 102623132.405 8
E36  23432061.238 8  23432063.594 9 123136307.611 8  93151834.999 9
G01  23084811.469 7                  23084817.413 6 121311700.448 7                  94528581.686 6
G02  21345803.885 7  21345806.137 6                 112173073.321 7  87407514.653 6
G08  20388906.374 8                  20388913.293 7 107144654.920 8                  83489199.157 7
G10  21445280.369 8                  21445286.267 7 112695878.324 8                  87814876.933 7
G27  21638167.778 7                  21638173.949 7 113709425.733 7                  88604721.442 7
G32  22500890.145 7                  22500899.171 7 118242981.740 7                  92137455.721 7
R01  19946412.690 7                 106625219.208 7
R02  20578721.060 8  20578726.730 7 109812101.866 8  85409357.787 7
R16  22392168.834 6  22392173.996 5 119615116.692 6  93033868.602 5
R17  19471675.108 8  19471679.819 7 104197079.355 8  81042032.135 7
R18  22338912.145 6  22338914.284 6 119246783.892 6  92747371.262 6
R24  20640763.596 8  20640768.232 7 110375474.526 8  85847595.957 7
> 2025 06 15 10 42 35.0000000  0 22
C19  22524116.672 7                 117289056.889 7
C20  23379763.059 7                 121744788.947 7
C29  23762399.690 6                 123737108.614 6
E02  25743819.565 6  25743822.988 7 135284670.831 6 102341998.991 7
E04  25803629.010 6  25803627.725 5 135599180.186 6 102579910.398 5
E06  25514635.698 7  25514639.438 8 134080276.970 7 101430909.896 8
E11  25399863.740 6  25399862.469 7 133477229.270 6 100974614.326 7
E30  26410141.815 7  26410144.288 8 138786218.831 7 104990892.858 8
E34  25811344.672 7  25811347.570 8 135639541.557 7 102610436.602 8
E36  23430800.896 8  23430803.478 9 123129685.536 8  93146825.440 9
G01  23080847.790 7                  23080853.931 6 121290872.489 7                  94512352.112 6
G02  21343209.060 7  21343211.172 6                 112159437.838 7  87396889.603 6
G08  20388312.043 8                  20388318.429 7 107141528.486 8                  83486762.969 7
G10  21445835.625 8                  21445842.061 7 112698799.005 8                  87817152.784 7
G27  21639767.687 7                  21639773.800 7 113717831.382 7                  88611271.282 7
G32  22497886.068 7                  22497895.032 7 118227193.855 7                  92125153.475 7
R01  19946210.176 7                 106624139.660 7
R02  20574660.190 7  20574665.811 7 109790433.202 7  85392504.374 7
R16  22392174.753 6  22392178.811 5 119615145.431 6  93033890.974 5
R17  19469352.990 8  19469357.122 7 104184651.854 8  81032366.295 7
R18  22334546.175 6  22334550.685 6 119223490.309 6  92729254.079 6
R24  20641851.092 8  20641855.837 7 110381290.524 8  85852119.510 7
> 2025 06 15 10 42 40.0000000  0 22
C19  22521593.902 7                 117275918.167 7
C20  23380179.758 7                 121746965.769 7
C29  23763813.032 6                 123744466.548 6
E02  25744929.219 6  25744930.847 7 135290492.084 6 102346402.709 7
E04  25802363.713 6  25802364.597 6 135592539.379 6 102574886.662 6
E06  25512085.028 7  25512088.836 8 134066873.395 7 101420770.169 8
E11  25400607.477 6  25400605.874 7 133481136.364 6 100977570.002 7
E30  26408823.527 7  26408826.198 8 138779292.165 7 104985652.892 8
E34  25808151.453 7  25808154.400 8 135622761.690 7 102597742.752 8
E36  23429541.787 8  23429544.411 9 123123069.120 8  93141820.176 9
G01  23076885.677 7                  23076891.894 6 121270048.201 7                  94496125.386 6
G02  21340616.138 8  21340617.703 6                 112145809.433 8  87386270.070 6
G08  20387719.890 8                  20387726.399 7 107138417.438 8                  83484338.769 7
G10  21446393.658 8                  21446399.667 7 112701730.050 8                  87819436.695 7
G27  21641368.859 7                  21641375.460 7 113726247.198 7                  88617829.047 7
G32  22494884.547 7                  22494892.671 7 118211418.498 7                  92112860.972 7
R01  19946012.056 7                 106623082.389 7
R02  20570603.206 7  20570607.921 7 109768780.981 7  85375663.760 7
R16  22392183.683 6  22392188.327 6 119615194.678 6  93033929.310 6
R17  19467033.058 8  19467037.149 7 104172236.298 8  81022709.745 7
R18  22330184.547 6  22330187.566 6 119200199.259 6  92711138.793 6
R24  20642940.731 8  20642945.230 7 110387116.894 8  85856651.117 7
> 2025 06 15 10 42 45.0000000  0 22
C19  22519073.530 7                 117262793.159 7
C20  23380601.144 7                 121749155.233 7
C29  23765227.728 6                 123751830.804 6
E02  25746037.568 6  25746040.309 7 135296321.298 6 102350812.488 7
E04  25801102.891 6  25801103.510 6 135585911.540 6 102569872.744 6
E06  25509536.513 7  25509540.400 8 134053480.860 7 101410638.805 8
E11  25401351.183 6  25401350.079 7 133485047.192 6 100980528.546 7
E30  26407507.567 7  26407510.490 8 138772378.353 7 104980422.641 8
E34  25804959.052 7  25804961.877 8 135605984.979 7 102585051.290 8
E36  23428284.020 8  23428286.533 9 123116458.976 8  93136819.637 9
G01  23072923.237 6                  23072929.900 6 121249228.104 6                  94479901.939 6
G02  21338023.628 8  21338026.124 6                 112132188.701 8  87375656.515 6
G08  20387130.939 8                  20387137.206 7 107135322.357 8                  83481927.018 7
G10  21446953.682 8                  21446959.614 7 112704672.054 8                  87821729.168 7
G27  21642972.396 7                  21642979.119 7 113734673.722 7                  88624395.186 7
G32  22491885.342 7                  22491893.217 7 118195656.256 7                  92100578.708 7
R01  19945817.965 7                 106622047.826 7
R02  20566548.794 8  20566553.854 7 109747145.442 8  85358836.155 7
R16  22392197.064 6  22392202.528 6 119615265.241 6  93033984.256 6
R17  19464714.466 8  19464719.356 7 104159832.975 8  81013062.727 7
R18  22325822.801 6  22325825.568 6 119176911.247 6  92693025.918 6
R24  20644032.823 8  20644037.141 7 110392954.379 8  85861191.374 7
> 2025 06 15 10 42 50.0000000  0 22
C19  22516554.959 7                 117249681.714 7
C20  23381023.502 7                 121751357.168 7
C29  23766642.830 6                 123759201.236 6
E02  25747148.589 6  25747151.082 7 135302158.396 6 102355228.190 7
E04  25799844.614 6  25799853.789 6 135579296.417 6 102564868.57816
E06  25506990.539 7  25506993.807 8 134040099.292 7 101400515.730 8
E11  25402094.950 6  25402094.980 7 133488961.669 6 100983489.795 7
E30  26406193.888 7  26406197.209 8 138765477.222 7 104975201.979 8
E34  25801766.817 7  25801769.925 8 135589211.272 7 102572362.095 8
E36  23427027.358 8  23427029.847 9 123109854.928 8  93131823.716 9
G01  23068963.014 6                  23068968.198 6 121228412.107 6                  94463681.671 6
G02  21335433.149 8  21335435.605 6                 112118575.518 8  87365048.838 6
G08  20386545.146 8                  20386551.652 8 107132243.094 8                  83479527.576 8
G10  21447515.476 8                  21447521.249 7 112707624.876 8                  87824030.059 7
G27  21644578.457 7                  21644584.615 7 113743110.834 7                  88630969.550 7
G32  22488887.775 7                  22488896.535 7 118179906.971 7                  92088306.550 7
R01  19945628.460 7                 106621035.900 7
R02  20562496.712 7  20562502.490 7 109725526.549 7  85342021.492 7
R16  22392215.393 6  22392219.812 6 119615356.809 6  93034055.447 6
R17  19462398.944 8  19462404.286 7 104147442.021 8  81003425.313 7
R18  22321461.846 6  22321462.696 6 119153626.126 6  92674915.257 6
R24  20645125.358 8  20645131.093 7 110398802.668 8  85865740.028 7
> 2025 06 15 10 42 55.0000000  0 22
C19  22514039.755 7                 117236584.144 7
C20  23381448.879 7                 121753571.890 7
C29  23768058.787 6                 123766578.158 6
E02  25748260.132 6  25748263.505 7 135308003.621 6 102359650.085 7
E04  25798586.684 6  25798597.787 6 135572694.408 6 102559874.533 6
E06  25504446.729 7  25504449.528 8 134026728.976 7 101390401.173 8
E11  25402841.914 6  25402840.637 7 133492880.091 6 100986454.049 7
E30  26404882.913 7  26404886.460 8 138758589.150 7 104969991.195 8
E34  25798575.437 7  25798578.581 8 135572440.865 7 102559675.410 8
E36  23425772.001 8  23425774.357 9 123103257.325 8  93126832.672 9
G01  23065002.874 7                  23065008.193 6 121207600.489 7                  94447464.835 6
G02  21332843.962 7  21332846.479 6                 112104970.148 7  87354447.277 6
G08  20385962.018 8                  20385968.292 8 107129179.968 8                  83477140.732 8
G10  21448079.231 8                  21448085.072 7 112710588.822 8                  87826339.616 7
G27  21646186.031 7                  21646191.634 7 113751558.816 7                  88637552.394 7
G32  22485893.007 7                  22485902.504 7 118164171.002 7                  92076044.766 7
R01  19945443.879 7                 106620046.915 7
R02  20558448.934 7  20558454.589 7 109703924.791 7  85325220.129 7
R16  22392235.194 6  22392240.812 5 119615469.800 6  93034143.317 5
R17  19460086.165 8  19460090.196 7 104135063.703 8  80993797.702 7
R18  22317114.121 6  22317102.762 6 119130344.151 6  92656807.127 6
R24  20646221.133 7  20646226.809 8 110404662.147 7  85870297.378 8
> 2025 06 15 10 43  0.0000000  0 22
C19  22511527.020 7                 117223499.957 7
C20  23381875.650 7                 121755798.962 7
C29  23769475.912 6                 123773961.077 6
E02  25749374.920 6  25749377.288 7 135313856.535 6 102364077.755 7
E04  25797333.094 6  25797343.500 5 135566104.939 6 102554889.610 5
E06  25501904.026 7  25501907.361 8 134013369.404 7 101380294.761 8
E11  25403587.224 6  25403586.962 7 133496801.898 6 100989420.863 7
E30  26403574.976 7  26403577.975 8 138751713.596 7 104964789.882 8
E34  25795384.747 7  25795387.745 8 135555673.306 7 102546990.873 8
E36  23424517.331 8  23424519.976 9 123096665.631 8  93121846.098 9
G01  23061043.390 7                  23061048.223 6 121186792.807 7                  94431251.051 6
G02  21330256.710 7  21330258.565 6                 112091372.036 7  87343851.356 6
G08  20385382.127 8                  20385388.348 7 107126132.495 8                  83474766.086 7
G10  21448645.774 8                  21448651.380 7 112713563.398 8                  87828657.465 7
G27  21647795.664 7                  21647801.349 7 113760017.206 7                  88644143.329 7
G32  22482901.011 7                  22482909.917 7 118148447.871 7                  92063792.956 7
R01  19945263.047 7                 106619080.347 7
R02  20554403.312 7  20554409.101 7 109682339.537 7  85308431.603 7
R16  22392260.240 6  22392266.581 5 119615603.468 6  93034247.264 5
R17  19457775.309 8  19457779.514 7 104122697.466 8  80984179.532 7
R18  22312764.980 5  22312740.068 6 119107064.918 5  92638701.132 6
R24  20647318.545 7  20647324.848 7 110410532.296 7  85874863.026 7
> 2025 06 15 10 43  5.0000000  0 21
C19  22509016.604 7                 117210429.026 7
C20  23382305.602 7                 121758038.160 7
C29  23770894.346 6                 123781349.842 6
E02  25750490.854 7  25750492.453 7 135319716.946 7 102368511.138 7
E04  25796081.740 5  25796091.575 5 135559528.003 5 102549914.16515
E06  25499363.980 7  25499367.137 8 134000020.472 7 101370196.388 8
E11  25404334.699 6  25404333.960 7 133500726.987 6 100992390.169 7
E30  26402268.680 7  26402271.941 8 138744850.441 7 104959597.937 8
E34  25792194.224 7  25792197.414 8 135538908.431 7 102534308.371 8
E36  23423264.190 8  23423266.712 8 123090079.718 8  93116863.903 8
G01  23057084.550 7                  23057090.113 7 121165988.920 7                  94415040.243 7
G02  21327670.284 7  21327672.189 6                 112077781.220 7  87333261.121 6
G08  20384804.879 8                  20384811.570 7 107123100.514 8                  83472403.510 7
G10  21449213.584 8                  21449219.254 7 112716548.414 8                  87830983.456 7
G27  21649407.065 7                  21649413.426 7 113768485.832 7                  88650742.243 7
G32  22479912.054 7                  22479920.378 7 118132737.473 7                  92051551.069 7
R01  19945086.741 7                 106618136.012 7
R02  20550362.345 7  20550366.714 7 109660770.532 7  85291655.721 7
R16  22392289.991 6  22392294.719 5 119615757.925 6  93034367.415 5
R17  19455466.317 8  19455470.921 7 104110343.175 8  80974570.638 7
R24  20648418.927 7  20648424.522 7 110416412.898 7  85879436.812 7
> 2025 06 15 10 43 10.0000000  0 21
C19  22506510.060 7                 117197371.834 7
C20  23382738.600 7                 121760289.965 7
C29  23772316.145 6                 123788744.895 6
E02  25751606.505 6  25751609.572 7 135325585.359 6 102372950.520 7
E04  25794831.979 5  25794841.996 5 135552963.872 5 102544948.516 5
E06  25496826.751 7  25496829.073 8 133986682.685 7 101360106.440 8
E11  25405081.794 6  25405081.651 7 133504655.875 6 100995362.325 7
E30  26400965.022 7  26400968.409 8 138738000.122 7 104954415.718 8
E34  25789004.653 7  25789007.705 8 135522146.711 7 102521628.250 8
E36  23422012.471 8  23422014.651 8 123083500.083 8  93111886.459 8
G01  23053126.160 7                  23053131.518 6 121145189.290 7                  94398832.731 6
G02  21325085.445 7  21325087.107 6                 112064198.128 7  87322676.892 6
G08  20384231.545 8                  20384237.866 8 107120084.543 8                  83470053.391 8
G10  21449783.514 8                  21449789.303 7 112719544.360 8                  87833317.965 7
G27  21651020.539 7                  21651027.029 7 113776965.188 7                  88657349.486 7
G32  22476924.910 7                  22476932.345 7 118117040.212 7                  92039319.443 7
R01  19944914.113 7                 106617214.469 7
R02  20546323.303 7  20546327.989 7 109639218.471 7  85274893.025 7
R16  22392323.547 6  22392327.127 5 119615933.627 6  93034503.979 5
R17  19453160.289 8  19453164.083 7 104098001.396 8  80964971.488 7
R24  20649520.991 7  20649526.094 7 110422304.587 7  85884019.231 7
> 2025 06 15 10 43 15.0000000  0 21
C19  22504005.379 7                 117184328.079 7
C20  23383173.215 7                 121762554.092 7
C29  23773738.500 6                 123796146.061 6
E02  25752725.904 6  25752727.991 7 135331461.436 6 102377395.719 7
E04  25793578.886 4  25793594.899 5 135546412.45014 102539992.48315
E06  25494289.701 7  25494293.073 8 133973355.691 7 101350024.671 8
E11  25405830.443 6  25405830.020 7 133508588.203 6 100998337.111 7
E30  26399664.288 7  26399667.235 8 138731162.381 7 104949243.029 8
E34  25785815.000 7  25785818.518 8 135505387.888 7 102508950.326 8
E36  23420761.344 8  23420763.726 9 123076926.434 8  93106913.532 9
G01  23049167.373 6                  23049174.267 6 121124393.645 6                  94382628.354 6
G02  21322502.036 7  21322503.826 6                 112050622.429 7  87312098.436 6
G08  20383660.120 8                  20383666.655 7 107117084.232 8                  83467715.497 7
G10  21450355.408 8                  21450361.511 7 112722550.954 8                  87835660.773 7
G27  21652635.710 7                  21652642.016 7 113785454.900 7                  88663964.859 7
G32  22473940.164 7                  22473948.016 7 118101355.841 7                  92027097.869 7
R01  19944745.720 7                 106616315.396 7
R02  20542287.913 8  20542292.244 7 109617683.023 8  85258143.220 7
R16  22392359.318 6  22392363.469 5 119616130.011 6  93034656.787 5
R17  19450855.769 8  19450860.295 7 104085671.828 8  80955381.847 7
R24  20650625.318 8  20650629.681 7 110428206.952 8  85888609.938 7
> 2025 06 15 10 43 20.0000000  0 21
C19  22501502.687 7                 117171297.247 7
C20  23383610.467 7                 121764830.003 7
C29  23775161.172 6                 123803552.620 6
E02  25753844.658 6  25753847.514 7 135337344.674 6 102381846.333 7
E06  25491755.967 7  25491758.956 8 133960039.022 7 101339950.696 8
E11  25406578.989 6  25406578.882 7 133512523.483 6 101001314.104 7
E30  26398365.281 7  26398368.306 8 138724336.708 7 104944079.453 8
E34  25782626.493 7  25782629.904 8 135488631.393 7 102496274.156 8
E36  23419511.601 8  23419513.834 9 123070358.206 8  93101944.708 9
G01  23045211.853 6                  23045217.772 6 121103601.419 6                  94366426.623 6
G02  21319919.840 7  21319922.498 6                 112037053.635 7  87301525.352 6
G08  20383092.019 8                  20383098.616 7 107114099.047 8                  83465389.376 7
G10  21450929.575 8                  21450935.353 7 112725567.649 8                  87838011.457 7
G27  21654252.967 7                  21654260.010 7 113793954.463 7                  88670587.877 7
G32  22470957.894 7                  22470965.733 7 118085683.868 7                  92014885.950 7
R01  19944581.904 7                 106615438.033 7
R02  20538255.206 8  20538259.603 7 109596163.685 8  85241405.969 7
R16  22392401.252 6  22392403.917 5 119616346.838 6  93034825.422 5
R17  19448553.679 8  19448558.994 7 104073353.755 8  80945801.124 7
R18  22295314.747 6  22295301.090 6 119013992.00116
R24  20651730.425 8  20651735.384 7 110434119.420 8  85893208.503 7
> 2025 06 15 10 43 25.0000000  0 21
C19  22499002.339 7                 117158280.372 7
C20  23384049.605 7                 121767118.702 7
C29  23776584.284 6                 123810965.740 6
E02  25754965.485 6  25754968.486 7 135343235.971 6 102386303.079 7
E06  25489223.560 7  25489227.061 8 133946733.639 7 101329885.276 8
E11  25407328.183 6  25407328.590 7 133516462.695 6 101004294.091 7
E30  26397069.344 7  26397071.905 8 138717524.091 7 104938925.743 8
E34  25779439.573 7  25779442.003 8 135471878.267 7 102483600.540 8
E36  23418263.355 8  23418265.183 9 123063796.455 8  93096980.790 9
G01  23041256.686 7                  23041261.772 6 121082813.675 7                  94350228.393 6
G02  21317339.188 7  21317341.882 6                 112023492.792 7  87290958.451 6
G08  20382527.381 8                  20382533.868 7 107111130.045 8                  83463075.869 7
G10  21451505.993 8                  21451511.502 7 112728595.433 8                  87840370.754 7
G27  21655872.495 7                  21655879.599 7 113802464.895 7                  88677219.373 7
G32  22467978.137 7                  22467986.095 7 118070025.259 7                  92002684.445 7
R01  19944422.169 7                 106614583.783 7
R02  20534225.240 8  20534229.630 7 109574661.475 8  85224682.031 7
R16  22392447.406 7  22392449.076 5 119616584.872 7  93035010.550 5
R17  19446254.852 8  19446258.774 7 104061048.505 8  80936230.362 7
R18  22290947.425 6  22290943.372 6 118990727.023 6  92548216.03516
R24  20652838.366 8  20652843.443 7 110440043.079 8  85897815.793 7
> 2025 06 15 10 43 30.0000000  0 21
C19  22496505.144 7                 117145276.905 7
C20  23384492.138 7                 121769419.629 7
C29  23778008.356 6                 123818384.878 6
E02  25756088.687 6  25756091.017 7 135349134.946 6 102390765.590 7
E06  25486693.169 7  25486697.104 8 133933439.098 7 101319828.059 8
E11  25408078.803 6  25408078.908 7 133520405.345 6 101007276.658 7
E30  26395775.058 7  26395777.855 8 138710724.010 7 104933781.529 8
E34  25776250.743 7  25776254.529 8 135455127.952 7 102470929.055 8
E36  23417015.595 8  23417017.616 9 123057240.620 8  93092021.339 9
G01  23037300.751 7                  23037307.068 6 121062029.859 7                  94334033.230 6
G02  21314760.340 7  21314762.467 6                 112009939.294 7  87280397.295 6
G08  20381965.215 8                  20381971.967 7 107108176.666 8                  83460774.529 7
G10  21452084.179 8                  21452089.873 7 112731633.779 8                  87842738.290 7
G27  21657493.394 7                  21657501.329 7 113810985.653 7                  88683858.937 7
G32  22464999.834 7                  22465009.000 7 118054379.549 7                  91990493.037 7
R01  19944265.864 7                 106613751.750 7
R02  20530199.457 8  20530203.596 7 109553175.871 8  85207971.036 7
R16  22392492.612 6  22392496.811 5 119616843.714 6  93035211.827 5
R17  19443958.144 8  19443961.324 7 104048755.349 8  80926669.018 7
R18  22286584.190 6  22286585.685 6 118967464.846 6  92530123.265 6
R24  20653947.242 7  20653952.570 7 110445977.332 7  85902431.331 7
> 2025 06 15 10 43 35.0000000  0 21
C19  22494010.139 7                 117132286.668 7
C20  23384936.397 7                 121771732.639 7
C29  23779435.078 6                 123825809.762 6
E02  25757212.393 6  25757214.994 7 135355041.376 6 102395233.755 7
E06  25484165.441 7  25484169.269 8 133920155.179 7 101309778.842 8
E11  25408830.201 6  25408829.870 7 133524351.260 6 101010261.719 7
E30  26394482.966 7  26394486.104 8 138703936.276 7 104928646.646 8
E34  25773063.762 7  25773067.582 8 135438380.336 7 102458259.604 8
E36  23415769.210 8  23415771.160 9 123050690.540 8  93087066.236 9
G01  23033346.678 7                  23033352.396 6 121041249.829 7                  94317840.982 6
G02  21312182.278 7  21312184.520 6                 111996393.046 7  87269841.771 6
G08  20381406.261 8                  20381412.753 7 107105238.770 8                  83458485.251 7
G10  21452663.916 8                  21452670.261 7 112734682.491 8                  87845113.919 7
G27  21659117.464 7                  21659124.574 7 113819516.502 7                  88690506.363 7
