     3.04           OBSERVATION DATA    Mixed(MIXED)        RINEX VERSION / TYPE
cnvtToRINEX 3.14.0  convertToRINEX OPR  20250615 162732 UTC PGM / RUN BY / DATE 
----------------------------------------------------------- COMMENT             
37K                                                         MARKER NAME         
37K                                                         MARKER NUMBER       
GEODETIC                                                    MARKER TYPE         
GNSS Observer       Trimble                                 OBSERVER / AGENCY   
6203S17886          Geo Explorer 3      5.53                REC # / TYPE / VERS 
                    UNKNOWN EXT     NONE                    ANT # / TYPE        
  3912819.3862  1190414.5219  4878774.6612                  APPROX POSITION XYZ 
        1.3060        0.0000        0.0000                  ANTENNA: DELTA H/E/N
G    6 C1C C2W C2X L1C L2W L2X                              SYS / # / OBS TYPES 
R    4 C1C C2C L1C L2C                                      SYS / # / OBS TYPES 
C    4 C2I C7I L2I L7I                                      SYS / # / OBS TYPES 
E    4 C1X C8X L1X L8X                                      SYS / # / OBS TYPES 
     5.000                                                  INTERVAL            
  2025     6    15    11    45   50.0000000     GPS         TIME OF FIRST OBS   
  2025     6    15    12    26    0.0000000     GPS         TIME OF LAST OBS    
     0                                                      RCV CLOCK OFFS APPL 
  6 R01  1 R02 -4 R03  5 R17  4 R18 -3 R24  2               GLONASS SLOT / FRQ #
G L2X -0.25000                                              SYS / PHASE SHIFT   
R L2C -0.25000                                              SYS / PHASE SHIFT   
    18                                                      LEAP SECONDS        
    24                                                      # OF SATELLITES     
   C12   445   440   444   440                              PRN / # OF OBS      
   C19   483     0   483     0                              PRN / # OF OBS      
   C20   212     0   211     0                              PRN / # OF OBS      
   C21    96     0    96     0                              PRN / # OF OBS      
   C22   483     0   483     0                              PRN / # OF OBS      
   E04   483   483   483   483                              PRN / # OF OBS      
   E05   483   483   483   483                              PRN / # OF OBS      
   E06   483   483   483   483                              PRN / # OF OBS      
   E09   483   483   483   483                              PRN / # OF OBS      
   E30    41    32    36    32                              PRN / # OF OBS      
   E34   483   483   483   483                              PRN / # OF OBS      
   E36   483   483   483   483                              PRN / # OF OBS      
   G01   483     0   483   483     0   483                  PRN / # OF OBS      
   G02   483   483     0   483   483     0                  PRN / # OF OBS      
   G03   483     0   483   483     0   483                  PRN / # OF OBS      
   G08   483     0   483   483     0   483                  PRN / # OF OBS      
   G10   135     0   102   124     0   101                  PRN / # OF OBS      
   G27   138     0   137   137     0   137                  PRN / # OF OBS      
   G32   483     0   483   483     0   483                  PRN / # OF OBS      
   R01   401     0   401     0                              PRN / # OF OBS      
   R02   483   483   483   483                              PRN / # OF OBS      
   R03   483   483   483   483                              PRN / # OF OBS      
   R17   483   483   483   483                              PRN / # OF OBS      
   R18   483   483   483   483                              PRN / # OF OBS      
DBHZ                                                        SIGNAL STRENGTH UNIT
                                                            END OF HEADER       
>                              2  1
              *** Start of Kinematic Data ***               COMMENT             
> 2025 06 15 11 45 50.0000000  0 21
C19  22271520.663 7                 115973712.31917
C20  25151978.536 6                 130973129.55616
C22  22917180.047 7                 119335747.66317
E04  26410518.747 7  26410520.680 8 138788193.21717 104992392.61518
E05  25039496.692 7  25039503.110 8 131583473.16217  99542051.47218
E06  25119865.191 7  25119867.810 8 132005746.16817  99861530.92718
E09  24905004.555 7  24905005.874 8 130876643.11317  99007370.63318
E34  24461132.094 8  24461134.565 8 128544089.00018  97242796.59018
E36  23700413.013 8  23700415.581 9 124546517.03918  94218640.02219
G01  21248378.712 8                  21248382.969 8 111661083.46318                  87008592.21718
G02  20717161.400 8  20717162.457 6                 108869539.40718  84833321.63716
G03  22709346.862 7                  22709352.887 6 119338586.91217                  92991021.18016
G08  21643011.344 7                  21643018.247 7 113734863.40717                  88624548.81817
G10  23230583.137 6                  23230591.852 6 122077676.07816                  95125419.18916
G27  24186143.222 6                  24186153.936 6 127099151.65416                  99038252.94516
G32  21918482.701 7                  21918489.423 7 115182327.07217                  89752563.47417
R01  21725817.792 7                 116137021.44417
R02  19444607.823 8  19444611.645 7 103760259.07018  80702355.05517
R03  21453649.973 7  21453656.709 6 114843394.60217  89322368.88016
R17  19351246.292 8  19351251.019 7 103552645.95418  80540800.23917
R18  20189662.246 8  20189665.976 7 107773820.57018  83824044.08317
> 2025 06 15 11 45 55.0000000  0 21
C19  22271010.857 7                 115971058.479 7
C20  25153701.516 6                 130982097.946 6
C22  22913608.413 7                 119317148.781 7
E04  26410965.101 7  26410967.153 8 138790539.068 7 104994167.244 8
E05  25035434.404 7  25035440.863 8 131562125.815 7  99525902.354 8
E06  25119057.112 7  25119059.401 8 132001497.755 7  99858317.021 8
E09  24902887.974 7  24902889.317 8 130865520.570 7  98998956.505 8
E34  24458443.160 8  24458445.724 8 128529959.013 8  97232107.340 8
E36  23700030.615 8  23700033.379 9 124544508.919 8  94217120.896 9
G01  21245247.345 8                  21245252.031 8 111644629.127 8                  86995770.652 8
G02  20715803.654 8  20715804.269 6                 108862401.816 8  84827759.890 6
G03  22705126.959 6                  22705134.549 6 119316419.757 6                  92973748.082 6
G08  21644438.789 7                  21644445.994 7 113742366.363 7                  88630395.297 7
G10  23232218.446 6                  23232226.828 7 122086267.018 6                  95132113.406 7
G27  24188701.697 6                  24188711.837 6 127112593.085 6                  99048726.739 6
G32  21917680.352 7                  21917686.879 7 115178111.153 7                  89749278.339 7
R01  21728063.794 6                 116149031.077 6
R02  19443464.807 8  19443468.532 7 103754157.554 8  80697609.414 7
R03  21448922.014 7  21448928.301 6 114818080.993 7  89302680.499 6
R17  19351000.709 8  19351004.918 8 103551328.402 8  80539775.468 8
R18  20186203.193 8  20186206.646 7 107755355.538 8  83809682.405 7
>                              3  5
              *** Start of Occupation ***                   COMMENT             
37K                                                         MARKER NAME         
37K                                                         MARKER NUMBER       
  3912819.3862  1190414.5219  4878774.6612                  APPROX POSITION XYZ 
        1.3060        0.0000        0.0000                  ANTENNA: DELTA H/E/N
> 2025 06 15 11 46  0.0000000  0 21
C19  22270503.948 7                 115968418.224 7
C20  25155424.358 6                 130991072.243 6
C22  22910039.039 7                 119298559.877 7
E04  26411413.420 7  26411415.647 8 138792895.616 7 104995949.970 8
E05  25031372.737 7  25031379.304 8 131540782.599 7  99509756.372 8
E06  25118251.683 7  25118253.417 8 131997262.241 7  99855112.881 8
E09  24900773.271 7  24900775.193 8 130854410.566 7  98990551.860 8
E34  24455754.843 8  24455757.876 9 128515833.860 8  97221421.759 9
E36  23699650.153 8  23699652.565 9 124542507.608 8  94215606.912 9
G01  21242117.872 8                  21242122.334 8 111628183.143 8                  86982955.613 8
G02  20714446.637 8  20714447.809 6                 108855274.500 8  84822206.115 6
G03  22700910.716 6                  22700917.449 6 119294259.799 6                  92956480.594 6
G08  21645868.574 7                  21645875.935 7 113749880.921 7                  88636250.763 7
G10  23233853.444 6                  23233862.766 6 122094862.932 6                  95138811.498 6
G27  24191259.888 6                  24191270.556 6 127126037.617 6                  99059202.952 6
G32  21916881.454 8                  21916888.566 7 115173911.850 8                  89746006.152 7
R01  21730314.476 7                 116161051.987 7
R02  19442325.048 8  19442328.729 7 103748078.541 8  80692881.306 7
R03  21444196.150 8  21444201.135 6 114792779.101 8  89283001.292 6
R17  19350757.798 8  19350761.402 7 103550027.658 8  80538763.795 7
R18  20182744.819 8  20182749.607 7 107736901.632 8  83795329.364 7
> 2025 06 15 11 46  5.0000000  0 21
C19  22269999.578 7                 115965791.632 7
C20  25157147.079 6                 131000052.545 6
C22  22906471.559 7                 119279980.999 7
E04  26411862.836 7  26411866.189 8 138795263.063 7 104997740.928 8
E05  25027313.487 7  25027318.600 8 131519443.663 7  99493613.633 8
E06  25117448.219 7  25117449.900 8 131993039.724 7  99851918.578 8
E09  24898662.810 7  24898663.304 8 130843313.122 7  98982156.724 8
E34  24453068.528 8  24453070.796 8 128501713.689 8  97210739.941 8
E36  23699270.664 8  23699273.034 9 124540513.172 8  94214098.125 9
G01  21238989.850 8                  21238994.653 8 111611745.606 8                  86970147.161 8
G02  20713092.564 8  20713093.583 6                 108848157.487 8  84816660.402 6
G03  22696694.214 6                  22696702.498 7 119272107.145 6                  92939218.835 7
G08  21647301.307 7                  21647308.330 7 113757407.192 7                  88642115.414 7
G10  23235490.963 6                  23235498.706 6 122103463.844 6                  95145513.534 6
G27  24193818.537 6                  24193829.774 6 127139485.419 6                  99069681.724 6
G32  21916085.149 8                  21916092.507 7 115169729.248 8                  89742746.996 7
R01  21732564.765 7                 116173084.249 7
R02  19441191.251 8  19441193.876 7 103742022.005 8  80688170.660 7
R03  21439471.384 8  21439477.216 7 114767489.148 8  89263331.344 7
R17  19350517.573 8  19350521.832 7 103548743.878 8  80537765.295 7
R18  20179290.233 7  20179294.407 7 107718459.064 7  83780985.159 7
> 2025 06 15 11 46 10.0000000  0 21
C19  22269497.713 7                 115963178.085 7
C20  25158870.614 6                 131009038.227 6
C22  22902905.563 7                 119261411.593 7
E04  26412315.733 7  26412318.573 8 138797640.632 7 104999539.524 8
E05  25023252.820 7  25023258.621 8 131498108.366 7  99477473.653 8
E06  25116647.000 7  25116648.659 8 131988829.574 7  99848733.635 8
E09  24896552.267 7  24896553.791 8 130832227.728 7  98973770.688 8
E34  24450382.438 8  24450384.534 8 128487597.862 8  97200061.409 8
E36  23698891.658 8  23698894.708 9 124538524.974 8  94212594.065 9
G01  21235863.538 7                  21235868.216 8 111595315.903 7                  86957344.797 8
G02  20711739.756 8  20711741.602 6                 108841050.198 8  84811122.251 6
G03  22692479.900 6                  22692487.901 6 119249961.227 6                  92921962.268 6
G08  21648735.908 7                  21648743.034 7 113764944.554 7                  88647988.656 7
G10  23237127.896 6                  23237135.815 6 122112069.228 6                  95152219.014 6
G27  24196378.317 6                  24196389.215 6 127152935.758 6                  99080162.495 6
G32  21915292.413 8                  21915299.549 7 115165562.735 8                  89739500.352 7
R01  21734817.822 7                 116185127.291 7
R02  19440058.935 8  19440062.937 7 103735987.500 8  80683477.166 7
R03  21434749.718 8  21434755.244 7 114742210.313 8  89243670.054 7
R17  19350280.508 8  19350284.185 7 103547476.341 8  80536779.417 7
R18  20175837.040 7  20175841.622 7 107700027.188 7  83766649.263 7
> 2025 06 15 11 46 15.0000000  0 21
C19  22268998.187 7                 115960578.346 7
C20  25160598.469 6                 131018030.008 6
C22  22899340.886 7                 119242852.356 7
E04  26412771.476 7  26412773.095 8 138800029.173 7 105001346.428 8
E05  25019193.589 7  25019199.365 8 131476777.497 7  99461337.016 8
E06  25115848.563 8  25115850.069 8 131984632.572 8  99845558.642 8
E09  24894445.736 7  24894446.751 8 130821155.079 7  98965394.300 8
E34  24447697.022 8  24447699.385 8 128473487.143 8  97189386.744 8
E36  23698515.261 8  23698517.725 9 124536543.794 8  94211095.314 9
G01  21232738.164 7                  21232743.512 8 111578894.827 7                  86944549.175 8
G02  20710389.614 8  20710391.072 6                 108833953.392 8  84805592.281 6
G03  22688265.916 6                  22688275.079 7 119227822.709 6                  92904711.498 7
G08  21650171.510 7                  21650179.397 7 113772493.742 7                  88653871.152 7
G10  23238766.900 6                  23238774.768 6 122120679.665 6                  95158928.430 6
G27  24198937.293 6                  24198949.178 6 127166389.426 6                  99090645.850 6
G32  21914503.268 8                  21914510.431 7 115161413.082 8                  89736266.871 7
R01  21737072.418 7                 116197181.737 7
R02  19438933.340 8  19438936.294 7 103729975.652 8  80678801.277 7
R03  21430028.748 7  21430035.506 7 114716943.526 7  89224018.131 7
R17  19350047.528 8  19350050.649 7 103546225.939 8  80535806.845 7
R18  20172387.805 7  20172390.607 7 107681606.765 7  83752322.305 7
> 2025 06 15 11 46 20.0000000  0 21
C19  22268501.494 7                 115957991.731 7
C20  25162325.454 6                 131027027.223 6
C22  22895778.616 7                 119224302.720 7
E04  26413227.146 7  26413229.652 8 138802428.042 7 105003161.147 8
E05  25015134.577 7  25015140.919 8 131455450.447 7  99445203.253 8
E06  25115052.065 8  25115053.827 8 131980448.094 8  99842393.105 8
E09  24892341.585 7  24892342.070 7 130810094.568 7  98957027.068 7
E34  24445013.153 8  24445014.993 9 128459380.889 8  97178715.462 9
E36  23698139.407 8  23698141.942 9 124534568.994 8  94209601.396 9
G01  21229615.148 8                  21229619.858 8 111562481.744 8                  86931759.773 8
G02  20709040.902 8  20709042.361 6                 108826866.436 8  84800069.985 6
G03  22684054.872 6                  22684064.286 7 119205691.061 6                  92887466.094 7
G08  21651611.049 7                  21651617.923 7 113780054.134 7                  88659762.349 7
G10  23240406.709 6                  23240413.696 6 122129294.660 6                  95165641.453 6
G27  24201498.638 6                  24201509.876 5 127179845.815 6                  99101131.291 5
G32  21913716.261 8                  21913723.883 7 115157279.634 8                  89733045.989 7
R01  21739330.530 7                 116209247.131 7
R02  19437811.070 8  19437813.648 7 103723986.045 8  80674142.690 7
R03  21425312.241 8  21425317.953 7 114691688.213 8  89204375.146 7
R17  19349816.430 8  19349820.106 7 103544991.923 8  80534847.088 7
R18  20168938.760 8  20168942.134 7 107663197.196 8  83738003.760 7
> 2025 06 15 11 46 25.0000000  0 21
C19  22268006.784 7                 115955418.699 7
C20  25164054.965 6                 131036030.311 6
C22  22892219.023 7                 119205763.039 7
E04  26413685.973 7  26413688.081 8 138804837.594 7 105004983.957 8
E05  25011076.645 7  25011083.316 8 131434127.600 7  99429072.659 8
E06  25114258.151 8  25114259.891 8 131976276.503 8  99839237.326 8
E09  24890237.896 7  24890239.803 8 130799046.589 7  98948669.346 8
E34  24442329.446 8  24442331.618 8 128445279.516 8  97168047.879 8
E36  23697764.839 8  23697767.427 9 124532600.994 8  94208112.610 9
G01  21226493.766 8                  21226498.193 8 111546077.051 8                  86918976.886 8
G02  20707694.353 8  20707695.734 6                 108819789.738 8  84794555.676 6
G03  22679844.920 6                  22679853.929 7 119183566.667 6                  92870226.342 7
G08  21653051.191 7                  21653059.054 7 113787626.075 7                  88665662.548 7
G10  23242047.152 6                  23242053.823 6 122137914.590 6                  95172358.268 6
G27  24204059.735 5                  24204071.294 6 127193305.374 5                  99111619.262 6
G32  21912932.373 8                  21912940.530 7 115153162.816 8                  89729838.065 7
R01  21741589.152 7                 116221323.725 7
R02  19436691.981 8  19436695.983 7 103718018.788 8  80669501.500 7
R03  21420596.695 8  21420601.272 7 114666444.396 8  89184741.091 7
R17  19349589.252 8  19349593.154 7 103543774.742 8  80533900.390 7
R18  20165491.512 8  20165494.997 7 107644798.847 8  83723693.939 7
> 2025 06 15 11 46 30.0000000  0 21
C19  22267515.414 7                 115952858.788 7
C20  25165785.322 6                 131045038.863 6
C22  22888659.921 7                 119187232.955 7
E04  26414145.872 7  26414148.657 8 138807257.458 7 105006814.560 8
E05  25007020.083 7  25007026.261 8 131412808.538 7  99412944.954 8
E06  25113466.851 8  25113468.410 8 131972117.410 8  99836090.998 8
E09  24888138.690 7  24888139.779 8 130788010.712 7  98940320.782 8
E34  24439646.849 8  24439648.889 8 128431182.620 8  97157383.670 8
E36  23697391.512 8  23697394.160 9 124530639.354 8  94206628.631 9
G01  21223373.275 8                  21223378.006 8 111529680.315 8                  86906200.210 8
G02  20706349.693 8  20706350.601 6                 108812722.846 8  84789049.019 6
G03  22675635.604 6                  22675644.429 7 119161449.068 6                  92852991.865 7
G08  21654494.292 7                  21654501.871 7 113795209.172 7                  88671571.441 7
G10  23243687.432 6                  23243695.387 6 122146538.998 6                  95179078.630 6
G27  24206622.062 5                  24206632.435 5 127206767.453 5                  99122109.104 5
G32  21912152.026 8                  21912159.841 7 115149062.150 8                  89726642.746 7
R01  21743850.376 7                 116233411.136 7
R02  19435578.131 8  19435581.546 7 103712073.653 8  80664877.506 7
R03  21415881.962 8  21415888.494 7 114641212.084 8  89165115.966 7
R17  19349363.831 8  19349368.411 7 103542573.903 8  80532966.428 7
R18  20162047.251 8  20162050.152 7 107626411.354 8  83709392.530 7
> 2025 06 15 11 46 35.0000000  0 21
C19  22267026.645 7                 115950312.862 7
C20  25167516.935 6                 131054053.713 6
C22  22885103.226 7                 119168713.329 7
E04  26414609.079 7  26414611.242 8 138809688.469 7 105008653.584 8
E05  25002964.916 7  25002970.237 8 131391494.182 7  99396820.792 8
E06  25112677.466 8  25112679.454 8 131967971.671 8  99832954.770 8
E09  24886040.777 6  24886042.230 8 130776987.873 6  98931982.062 8
E34  24436965.109 8  24436967.344 8 128417091.093 8  97146723.520 8
E36  23697019.439 8  23697022.237 9 124528684.957 8  94205150.149 9
G01  21220255.225 7                  21220259.599 8 111513292.476 7                  86893430.470 8
G02  20705006.647 8  20705008.108 6                 108805666.690 8  84783550.714 6
G03  22671428.974 6                  22671437.173 7 119139339.218 6                  92835763.438 7
G08  21655939.586 7                  21655947.603 7 113802804.321 7                  88677489.744 7
G10  23245329.790 6                  23245336.903 6 122155168.829 6                  95185803.148 6
G27  24209184.172 5                  24209195.460 6 127220233.075 5                  99132601.798 6
G32  21911375.424 8                  21911383.178 7 115144978.573 8                  89723460.746 7
R01  21746113.115 7                 116245510.154 7
R02  19434468.361 8  19434471.936 7 103706151.417 8  80660271.303 7
R03  21411169.706 7  21411176.596 7 114615991.943 7  89145500.325 7
R17  19349141.806 8  19349147.628 7 103541390.440 8  80532045.958 7
R18  20158605.015 8  20158608.482 7 107608035.590 8  83695100.249 7
> 2025 06 15 11 46 40.0000000  0 21
C19  22266540.108 7                 115947779.705 7
C20  25169248.698 6                 131063073.613 6
C22  22881548.618 7                 119150202.899 7
E04  26415073.835 7  26415075.631 8 138812129.341 7 105010500.085 8
E05  24998908.642 7  24998914.910 8 131370183.285 7  99380699.245 8
E06  25111890.090 7  25111892.829 8 131963838.044 7  99829827.710 8
E09  24883945.931 6  24883946.877 8 130765976.710 6  98923652.196 8
E34  24434284.759 8  24434286.547 8 128403003.660 8  97136066.465 8
E36  23696648.681 8  23696651.462 9 124526736.570 8  94203676.204 9
G01  21217137.615 7                  21217142.692 8 111496912.236 7                  86880666.648 8
G02  20703665.817 8  20703667.238 6                 108798619.967 8  84778059.755 6
G03  22667221.683 6                  22667230.724 6 119117235.793 6                  92818540.013 6
G08  21657387.065 7                  21657394.215 7 113810410.179 7                  88683416.386 7
G10  23246973.486 7                  23246979.854 6 122163802.731 7                  95192530.853 6
G27  24211747.731 6                  24211758.270 6 127233701.017 6                  99143096.304 6
G32  21910600.662 7                  21910608.967 7 115140910.828 7                  89720291.061 7
R01  21748379.367 7                 116257619.563 7
R02  19433362.196 8  19433366.071 7 103700250.833 8  80655681.976 7
R03  21406460.159 7  21406466.904 7 114590782.914 7  89125893.321 7
R17  19348923.621 8  19348929.430 7 103540223.060 8  80531138.003 7
R18  20155164.219 8  20155167.811 7 107589670.307 8  83680816.140 7
> 2025 06 15 11 46 45.0000000  0 22
C12  24024494.529 5                 125101826.98815
C19  22266056.595 7                 115945258.793 7
C20  25170982.157 6                 131072098.034 6
C22  22877995.972 7                 119131701.186 7
E04  26415540.374 7  26415541.893 8 138814579.582 7 105012353.696 8
E05  24994854.218 7  24994860.095 8 131348875.297 7  99364579.920 8
E06  25111105.449 7  25111108.541 8 131959716.003 7  99826709.418 8
E09  24881852.569 6  24881853.676 8 130754976.840 6  98915330.883 8
E34  24431604.682 8  24431606.487 8 128388919.804 8  97125412.122 8
E36  23696278.963 8  23696281.722 9 124524793.649 8  94202206.402 9
G01  21214021.701 7                  21214027.470 8 111480539.105 7                  86867908.384 8
G02  20702326.830 8  20702327.874 6                 108791582.229 8  84772575.793 6
G03  22663015.817 6                  22663025.848 6 119095138.335 6                  92801321.234 6
G08  21658836.033 7                  21658843.510 7 113818026.280 7                  88689351.006 7
G10  23248616.560 6                  23248623.807 6 122172440.223 6                  95199261.383 6
G27  24214310.236 6                  24214321.634 5 127247170.641 6                  99153592.083 5
G32  21909830.249 8                  21909837.707 7 115136858.337 8                  89717133.293 7
R01  21750647.534 7                 116269738.952 7
R02  19432260.273 8  19432264.161 7 103694371.636 8  80651109.255 7
R03  21401752.679 7  21401759.295 7 114565584.494 7  89106294.564 7
R17  19348709.420 8  19348713.841 7 103539071.182 8  80530242.045 7
R18  20151726.020 8  20151729.444 7 107571315.008 8  83666539.779 7
> 2025 06 15 11 46 50.0000000  0 22
C12  24020812.169 5  24020809.980 5 125082645.020 5  96721844.96615
C19  22265574.303 7                 115942750.992 7
C20  25172717.497 6                 131081127.896 6
C22  22874445.005 7                 119113209.064 7
E04  26416008.574 7  26416010.122 8 138817040.071 7 105014215.033 8
E05  24990800.205 7  24990805.994 8 131327571.146 7  99348463.491 8
E06  25110323.338 7  25110326.555 8 131955606.434 7  99823600.555 8
E09  24879761.006 6  24879762.786 8 130743989.095 6  98907018.730 8
E34  24428925.291 8  24428927.191 8 128374840.413 8  97114761.157 8
E36  23695910.445 8  23695913.163 9 124522857.114 8  94200741.417 9
G01  21210908.077 7                  21210913.205 8 111464173.989 7                  86855156.341 8
G02  20700988.883 8  20700990.786 6                 108784554.311 8  84767099.489 6
G03  22658813.384 6                  22658822.227 7 119073047.707 6                  92784107.823 7
G08  21660288.849 7                  21660295.317 7 113825653.492 7                  88695294.285 7
G10  23250260.171 6                  23250268.589 6 122181082.177 6                  95205995.367 6
G27  24216874.555 6                  24216884.841 5 127260642.904 6                  99164090.002 5
G32  21909062.123 7                  21909069.558 7 115132822.054 7                  89713988.140 7
R01  21752916.122 7                 116281868.984 7
R02  19431163.111 8  19431167.104 7 103688514.260 8  80646553.565 7
R03  21397047.881 7  21397053.931 7 114540397.457 7  89086704.667 7
R17  19348497.452 8  19348501.656 7 103537935.728 8  80529358.923 7
R18  20148289.324 8  20148292.791 7 107552970.564 8  83652271.898 7
> 2025 06 15 11 46 55.0000000  0 22
C12  24017126.618 5  24017127.522 4 125063467.627 5  96707015.818 4
C19  22265095.226 7                 115940255.339 7
C20  25174452.552 6                 131090162.212 6
C22  22870894.540 7                 119094725.661 7
E04  26416478.456 7  26416480.144 8 138819509.892 7 105016083.433 8
E05  24986745.857 7  24986752.446 8 131306269.920 7  99332349.235 8
E06  25109543.814 7  25109546.727 8 131951508.445 7  99820500.460 8
E09  24877671.601 6  24877673.991 8 130733012.562 6  98898715.057 8
E34  24426246.979 8  24426248.612 8 128360764.600 8  97104112.891 8
E36  23695543.051 8  23695545.703 9 124520926.037 8  94199280.557 9
G01  21207794.332 7                  21207800.155 8 111447815.908 7                  86842409.817 8
G02  20699653.592 8  20699655.153 6                 108777535.296 8  84761630.137 6
G03  22654610.118 6                  22654619.964 7 119050963.090 6                  92766899.043 7
G08  21661740.821 7                  21661748.590 7 113833290.924 7                  88701245.482 7
G10  23251906.781 6                  23251913.395 6 122189727.659 6                  95212732.079 6
G27  24219438.678 6                  24219448.716 5 127274116.885 6                  99174589.150 5
G32  21908296.508 7                  21908304.466 7 115128801.021 7                  89710854.832 7
R01  21755187.192 7                 116294008.781 7
R02  19430069.292 8  19430072.831 7 103682678.061 8  80642014.292 7
R03  21392344.777 7  21392350.333 6 114515221.085 7  89067123.032 6
R17  19348288.052 8  19348292.438 7 103536815.854 8  80528487.917 7
R18  20144854.522 8  20144858.099 7 107534636.194 8  83638011.832 7
> 2025 06 15 11 47  0.0000000  0 22
C12  24013443.832 5  24013444.405 4 125044296.371 5  96692191.313 4
C19  22264619.470 7                 115937773.354 7
C20  25176188.229 6                 131099202.452 6
C22  22867347.307 7                 119076252.375 7
E04  26416950.095 7  26416952.150 8 138821990.464 7 105017959.970 8
E05  24982693.029 7  24982699.781 8 131284973.068 7  99316238.331 8
E06  25108766.396 7  25108769.271 8 131947423.414 7  99817410.164 8
E09  24875585.153 6  24875587.542 8 130722048.698 6  98890420.961 8
E34  24423568.633 8  24423570.923 8 128346693.777 8  97093468.408 8
E36  23695176.746 8  23695179.570 9 124519001.832 8  94197824.906 9
G01  21204683.354 7                  21204689.368 8 111431466.417 7                  86829669.971 8
G02  20698319.859 8  20698321.628 6                 108770526.645 8  84756168.839 6
G03  22650410.444 6                  22650418.987 6 119028885.812 6                  92749695.976 6
G08  21663196.296 7                  21663203.726 7 113840939.905 7                  88707205.747 7
G10  23253551.719 6                  23253560.664 6 122198378.107 6                  95219472.699 6
G27  24222003.072 6                  24222013.943 5 127287593.938 6                  99185090.706 5
G32  21907534.959 8                  21907542.180 7 115124796.671 8                  89707734.580 7
R01  21757460.283 7                 116306159.716 7
R02  19428979.134 8  19428983.461 7 103676864.563 8  80637492.676 7
R03  21387645.038 7  21387649.487 7 114490056.571 7  89047550.644 7
R17  19348082.535 8  19348086.530 7 103535712.788 8  80527629.979 7
R18  20141421.751 8  20141425.416 7 107516313.202 8  83623760.596 7
> 2025 06 15 11 47  5.0000000  0 22
C12  24009760.908 5  24009763.584 4 125025131.642 5  96677371.902 4
C19  22264145.324 7                 115935305.614 7
C20  25177925.343 6                 131108249.200 6
C22  22863802.019 7                 119057789.870 7
E04  26417424.162 7  26417426.341 8 138824482.486 7 105019845.163 8
E05  24978642.005 7  24978648.054 8 131263681.263 7  99300131.218 8
E06  25107991.479 7  25107994.500 8 131943352.062 7  99814330.202 8
E09  24873502.423 6  24873503.677 8 130711098.170 6  98882136.948 8
E34  24420891.725 8  24420894.390 8 128332628.621 8  97082828.211 8
E36  23694812.178 8  23694814.830 9 124517085.191 8  94196374.980 9
G01  21201574.398 8                  21201580.086 8 111415126.118 8                  86816937.276 8
G02  20696988.407 8  20696989.964 6                 108763529.035 8  84750716.154 6
G03  22646210.018 6                  22646219.139 6 119006816.609 6                  92732499.196 6
G08  21664655.298 7                  21664661.529 7 113848601.140 7                  88713175.526 7
G10  23255199.189 6                  23255208.107 6 122207034.185 6                  95226217.678 6
G27  24224569.217 6                  24224578.776 5 127301074.768 6                  99195595.252 5
G32  21906776.786 7                  21906783.638 7 115120809.696 7                  89704627.840 7
R01  21759736.220 7                 116318322.600 7
R02  19427895.297 8  19427898.608 7 103671074.289 8  80632989.130 7
R03  21382945.122 8  21382951.708 7 114464904.873 8  89027988.261 7
R17  19347879.971 8  19347883.777 7 103534627.448 8  80526785.851 7
R18  20137992.118 8  20137995.393 7 107498002.377 8  83609518.845 7
> 2025 06 15 11 47 10.0000000  0 22
C12  24006081.690 5  24006085.004 3 125005973.600 5  96662557.646 3
C19  22263673.937 7                 115932852.158 7
C20  25179663.315 6                 131117302.528 6
C22  22860258.589 7                 119039338.179 7
E04  26417899.928 7  26417902.711 8 138826985.894 7 105021738.986 8
E05  24974590.920 7  24974597.245 8 131242394.475 7  99284027.941 8
E06  25107219.610 7  25107222.396 8 131939294.384 7  99811260.592 8
E09  24871420.418 6  24871422.339 8 130700160.938 6  98873863.015 8
E34  24418217.037 8  24418219.008 8 128318569.143 8  97072192.312 8
E36  23694449.084 8  23694451.530 9 124515176.093 8  94194930.749 9
G01  21198466.559 8                  21198471.634 8 111398795.053 8                  86804211.787 8
G02  20695658.269 8  20695660.468 6                 108756542.482 8  84745272.089 6
G03  22642012.310 6                  22642020.911 6 118984755.498 6                  92715308.730 6
G08  21666114.585 7                  21666122.388 7 113856274.671 7                  88719154.908 7
G10  23256846.755 6                  23256856.603 6 122215695.895 6                  95232967.033 6
G27  24227134.908 6                  24227145.073 5 127314559.328 6                  99206102.722 5
G32  21906021.154 7                  21906028.100 7 115116840.094 7                  89701534.645 7
R01  21762014.381 7                 116330497.296 7
R02  19426814.172 8  19426817.617 7 103665307.156 8  80628503.589 7
R03  21378249.981 8  21378255.157 7 114439765.558 8  89008435.480 7
R17  19347680.839 8  19347684.330 7 103533559.676 8  80525955.352 7
R18  20134564.279 8  20134567.713 7 107479703.673 8  83595286.533 7
> 2025 06 15 11 47 15.0000000  0 22
C12  24002405.044 5                 124986820.854 5
C19  22263204.689 7                 115930411.667 7
C20  25181402.231 6                 131126361.104 6
C22  22856717.103 7                 119020895.957 7
E04  26418378.213 7  26418381.086 8 138829499.425 7 105023640.437 8
E05  24970541.814 7  24970547.292 8 131221111.436 7  99267927.480 8
E06  25106450.267 7  25106452.558 8 131935248.994 7  99808200.271 8
E09  24869341.097 6  24869343.441 8 130689235.756 6  98865598.158 8
E34  24415542.169 8  24415544.182 8 128304514.012 8  97061559.706 8
E36  23694086.824 8  23694089.423 9 124513273.264 8  94193491.260 9
G01  21195359.891 7                  21195365.724 8 111382471.824 7                  86791492.392 8
G02  20694330.618 8  20694332.731 6                 108749565.586 8  84739835.550 6
G03  22637815.858 7                  22637823.208 6 118962701.105 7                  92698123.486 6
G08  21667577.201 7                  21667584.453 7 113863959.087 7                  88725142.750 7
G10  23258496.232 6                  23258505.682 6 122224361.862 6                  95239719.768 6
G27  24229700.984 6                  24229712.220 5 127328046.323 6                  99216612.071 5
G32  21905268.674 8                  21905275.659 7 115112886.483 8                  89698453.909 7
R01  21764292.032 7                 116342682.415 7
R02  19425737.380 8  19425741.294 7 103659561.981 8  80624035.117 7
R03  21373556.875 8  21373561.139 7 114414637.978 8  88988891.813 7
R17  19347483.758 8  19347487.724 7 103532508.237 8  80525137.558 7
R18  20131137.584 8  20131141.964 7 107461415.787 8  83581062.655 7
> 2025 06 15 11 47 20.0000000  0 22
C12  23998730.938 4  23998751.275 4 124967673.157 4  96633027.41214
C19  22262738.192 7                 115927983.800 7
C20  25183143.167 6                 131135424.581 6
C22  22853176.664 7                 119002462.975 7
E04  26418859.389 7  26418861.237 8 138832022.724 7 105025549.292 8
E05  24966493.257 7  24966498.011 8 131199831.855 7  99251829.624 8
E06  25105682.262 7  25105685.044 8 131931215.649 7  99805149.098 8
E09  24867266.349 6  24867266.663 8 130678322.292 6  98857342.198 8
E34  24412867.947 8  24412870.453 8 128290462.935 8  97050930.192 8
E36  23693726.085 8  23693728.517 9 124511376.339 8  94192056.264 9
G01  21192255.691 7                  21192261.009 8 111366156.227 7                  86778778.974 8
G02  20693005.056 8  20693007.028 6                 108742598.151 8  84734406.378 6
G03  22633620.117 7                  22633628.190 6 118940653.115 7                  92680943.285 6
G08  21669041.585 7                  21669048.856 7 113871654.152 7                  88731138.882 7
G10  23260147.376 6                  23260155.293 6 122233031.867 6                  95246475.578 6
G27  24232269.663 6                  24232278.256 6 127341535.464 6                  99227123.016 6
G32  21904518.504 7                  21904526.504 7 115108948.623 7                  89695385.445 7
R01  21766574.611 7                 116354877.803 7
R02  19424664.236 8  19424668.403 7 103653838.395 8  80619583.454 7
R03  21368864.870 8  21368869.213 6 114389521.515 8  88969356.791 6
R17  19347289.845 8  19347294.068 7 103531472.826 8  80524332.234 7
R18  20127714.163 8  20127717.854 7 107443138.459 8  83566846.979 7
> 2025 06 15 11 47 25.0000000  0 22
C12  23995054.214 4  23995074.461 4 124948530.946 4  96618225.365 4
C19  22262274.625 7                 115925568.989 7
C20  25184885.542 6                 131144493.313 6
C22  22849637.676 7                 118984039.582 7
E04  26419340.668 7  26419343.259 8 138834556.173 7 105027465.802 8
E05  24962443.961 7  24962449.300 8 131178556.107 7  99235734.660 8
E06  25104917.138 7  25104919.893 8 131927194.728 7  99802107.283 8
E09  24865191.316 6  24865192.156 8 130667420.917 6  98849095.358 8
E34  24410195.440 8  24410197.290 8 128276416.312 8  97040304.016 8
E36  23693366.242 8  23693368.766 9 124509485.760 8  94190626.047 9
G01  21189152.424 7                  21189157.453 8 111349848.614 7                  86766071.744 8
G02  20691681.455 8  20691683.059 6                 108735640.567 8  84728984.881 6
G03  22629426.331 6                  22629434.124 7 118918612.034 6                  92663768.391 7
G08  21670507.905 7                  21670515.314 7 113879360.164 7                  88737143.589 7
G10  23261796.967 6                  23261805.396 6 122241706.194 6                  95253234.779 6
G27  24234835.862 6                  24234846.798 5 127355027.091 6                  99237635.933 5
G32  21903772.791 7                  21903780.760 8 115105026.880 7                  89692329.542 8
R01  21768857.709 7                 116367083.690 7
R02  19423595.928 8  19423600.465 7 103648136.782 8  80615148.846 7
R03  21364174.657 8  21364179.160 7 114364416.278 8  88949830.514 7
R17  19347099.038 8  19347103.461 7 103530453.743 8  80523539.602 7
R18  20124292.031 8  20124296.043 7 107424872.009 8  83552639.747 7
> 2025 06 15 11 47 30.0000000  0 22
C12  23991376.772 4  23991400.536 4 124929394.396 4  96603427.808 4
C19  22261813.677 7                 115923167.407 7
C20  25186626.897 6                 131153567.594 6
C22  22846101.343 7                 118965625.985 7
E04  26419825.620 7  26419827.382 8 138837100.014 7 105029390.200 8
E05  24958396.276 7  24958401.377 8 131157284.436 7  99219642.823 8
E06  25104154.362 7  25104157.072 8 131923186.439 7  99799075.042 8
E09  24863120.770 6  24863120.073 8 130656531.868 6  98840857.875 8
E34  24407522.825 8  24407525.103 8 128262374.372 8  97029681.375 8
E36  23693007.854 8  23693010.235 9 124507601.721 8  94189200.777 9
G01  21186050.435 7                  21186055.500 8 111333549.236 7                  86753370.916 8
G02  20690359.058 8  20690361.044 6                 108728693.011 8  84723571.192 6
G03  22625232.791 6                  22625241.386 6 118896578.036 6                  92646599.029 6
G08  21671976.418 7                  21671983.829 7 113887077.378 7                  88743156.977 7
G10  23263448.786 6                  23263456.978 6 122250385.207 6                  95259997.571 6
G27  24237403.308 6                  24237414.655 5 127368521.408 6                  99248150.944 5
G32  21903029.763 7                  21903037.165 7 115101121.459 7                  89689286.372 7
R01  21771143.162 7                 116379300.328 7
R02  19422532.347 8  19422536.078 7 103642457.477 8  80610731.604 7
R03  21359487.460 8  21359492.404 7 114339322.918 8  88930313.438 7
R17  19346912.182 8  19346916.261 7 103529451.244 8  80522759.880 7
R18  20120871.964 8  20120876.519 7 107406616.756 8  83538441.230 7
> 2025 06 15 11 47 35.0000000  0 22
C12  23987701.169 4  23987724.581 5 124910263.193 4  96588634.248 5
C19  22261355.585 7                 115920778.666 7
C20  25188370.257 6                 131162646.945 6
C22  22842567.594 7                 118947221.814 7
E04  26420310.466 7  26420313.465 8 138839653.810 7 105031322.140 8
E05  24954347.608 7  24954354.177 8 131136016.425 7  99203553.741 8
E06  25103394.128 7  25103396.706 8 131919190.396 7  99796052.038 8
E09  24861050.262 6  24861050.213 8 130645654.770 6  98832629.415 8
E34  24404851.979 8  24404853.868 8 128248336.724 8  97019061.990 8
E36  23692650.540 8  23692652.912 9 124505723.818 8  94187780.150 9
G01  21182950.251 8                  21182955.038 8 111317257.702 8                  86740676.228 8
G02  20689038.885 8  20689040.834 6                 108721755.126 8  84718165.059 6
G03  22621041.220 6                  22621049.711 6 118874550.649 6                  92629434.884 6
G08  21673447.303 7                  21673454.712 7 113894805.408 7                  88749178.813 7
G10  23265101.010 6                  23265109.698 6 122259068.232 6                  95266763.582 6
G27  24239970.672 6                  24239982.800 6 127382018.007 6                  99258667.837 6
G32  21902289.820 8                  21902297.222 7 115097232.008 8                  89686255.598 7
R01  21773431.130 7                 116391527.361 7
R02  19421470.700 8  19421475.047 7 103636799.787 8  80606331.202 7
R03  21354801.031 8  21354806.102 7 114314240.741 8  88910805.116 7
R17  19346727.328 8  19346731.872 7 103528464.984 8  80521992.804 7
R18  20117453.790 8  20117458.575 7 107388372.309 8  83524251.119 7
> 2025 06 15 11 47 40.0000000  0 22
C12  23984027.292 4  23984047.175 3 124891137.152 4  96573844.854 3
C19  22260898.179 7                 115918402.692 7
C20  25190114.077 6                 131171731.342 6
C22  22839034.068 7                 118928827.025 7
E04  26420798.880 7  26420801.318 8 138842217.528 7 105033261.550 8
E05  24950301.730 7  24950307.684 8 131114752.030 7  99187467.373 8
E06  25102636.374 8  25102638.663 8 131915206.485 8  99793038.263 8
E09  24858982.741 6  24858982.626 8 130634789.542 6  98824409.960 8
E34  24402181.171 8  24402183.384 8 128234303.300 8  97008445.779 8
E36  23692294.312 8  23692296.738 9 124503852.031 8  94186364.152 9
G01  21179851.667 8                  21179856.223 8 111300973.956 8                  86727987.545 8
G02  20687720.476 8  20687722.777 6                 108714826.882 8  84712766.428 6
G03  22616850.357 6                  22616859.182 7 118852529.936 6                  92612275.882 7
G08  21674920.091 7                  21674926.997 7 113902544.141 7                  88755208.950 7
G10  23266754.664 6                  23266763.290 6 122267755.412 6                  95273532.815 6
G27  24242540.729 6                  24242552.327 6 127395516.810 6                  99269186.354 6
G32  21901552.312 7                  21901560.244 8 115093358.386 7                  89683237.188 8
R01  21775720.359 7                 116403764.605 7
R02  19420415.367 8  19420419.058 7 103631163.864 8  80601947.711 7
R03  21350116.736 8  21350123.338 7 114289170.196 8  88891305.834 7
R17  19346545.950 8  19346550.309 7 103527494.938 8  80521238.301 7
R18  20114039.024 8  20114042.859 7 107370138.513 8  83510069.292 7
> 2025 06 15 11 47 45.0000000  0 22
C12  23980357.796 4                 124872016.676 4
C19  22260444.874 7                 115916039.776 7
C20  25191859.874 6                 131180821.023 6
C22  22835504.332 7                 118910441.923 7
E04  26421289.121 7  26421291.066 8 138844791.419 7 105035208.682 8
E05  24946256.110 7  24946261.947 8 131093491.622 7  99171384.040 8
E06  25101880.979 8  25101882.835 8 131911235.048 8  99790033.887 8
E09  24856918.032 7  24856917.314 8 130623936.510 7  98816199.672 8
E34  24399511.769 8  24399513.759 8 128220274.351 8  96997832.981 8
E36  23691939.038 8  23691941.813 9 124501986.616 8  94184952.968 9
G01  21176755.044 8                  21176759.811 8 111284698.300 8                  86715305.216 8
G02  20686403.748 8  20686405.699 6                 108707908.494 8  84707375.485 6
G03  22612662.434 7                  22612670.256 6 118830516.176 7                  92595122.320 6
G08  21676394.645 7                  21676402.020 7 113910293.882 7                  88761247.708 7
G10  23268408.765 6                  23268416.605 6 122276446.991 6                  95280305.454 6
G27  24245109.647 5                  24245121.531 5 127409018.165 5                  99279706.848 5
G32  21900818.097 7                  21900825.840 7 115089500.925 7                  89680231.397 7
R01  21778010.990 7                 116416012.391 7
R02  19419363.549 8  19419367.376 7 103625550.124 8  80597581.478 7
R03  21345435.815 8  21345442.196 7 114264111.058 8  88871815.417 7
R17  19346367.985 8  19346372.517 7 103526541.188 8  80520496.503 7
R18  20110624.632 8  20110629.096 7 107351915.800 8  83495896.086 7
> 2025 06 15 11 47 50.0000000  0 22
C12  23976688.474 5  23976683.747 5 124852902.554 5  96544164.39215
C19  22259993.638 7                 115913690.800 7
C20  25193606.464 6                 131189916.830 6
C22  22831975.717 7                 118892067.333 7
E04  26421780.750 7  26421783.020 8 138847376.386 7 105037164.178 8
E05  24942210.901 7  24942217.102 8 131072235.959 7  99155304.288 8
E06  25101127.452 7  25101129.497 8 131907276.919 7  99787039.595 8
E09  24854854.272 7  24854854.612 8 130613096.467 7  98807999.267 8
E34  24396843.670 8  24396845.275 8 128206250.810 8  96987224.254 8
E36  23691585.657 8  23691588.267 9 124500128.436 8  94183547.261 9
G01  21173658.928 8                  21173664.418 8 111268431.510 8                  86702629.809 8
G02  20685089.139 8  20685091.386 6                 108701000.836 8  84701992.888 6
G03  22608474.061 6                  22608482.819 6 118808510.191 6                  92577974.795 6
G08  21677871.725 7                  21677879.319 7 113918055.455 7                  88767295.688 7
G10  23270064.378 6                  23270072.150 6 122285143.846 6                  95287082.202 6
G27  24247679.316 5                  24247691.539 6 127422522.854 5                  99290229.931 6
G32  21900086.503 7                  21900094.698 7 115085660.475 7                  89677238.838 7
R01  21780305.366 7                 116428271.547 7
R02  19418316.509 8  19418319.716 7 103619959.205 8  80593232.976 7
R03  21340757.442 8  21340762.760 7 114239064.354 8  88852334.677 7
R17  19346192.849 8  19346197.416 7 103525604.958 8  80519768.340 7
R18  20107213.349 8  20107217.644 7 107333705.013 8  83481732.119 7
> 2025 06 15 11 47 55.0000000  0 22
C12  23973018.830 5  23973014.729 4 124833794.325 5  96529388.672 4
C19  22259545.299 7                 115911355.208 7
C20  25195354.041 6                 131199018.306 6
C22  22828449.246 7                 118873702.773 7
E04  26422275.190 7  26422276.969 8 138849971.814 7 105039127.604 8
E05  24938166.381 7  24938173.029 8 131050984.614 7  99139227.792 8
E06  25100376.685 7  25100378.761 8 131903331.616 7  99784054.993 8
E09  24852794.349 6  24852794.281 8 130602268.952 6  98799808.313 8
E34  24394176.426 8  24394177.678 8 128192232.131 8  96976619.212 8
E36  23691233.165 8  23691235.954 9 124498276.982 8  94182146.646 9
G01  21170565.472 7                  21170570.066 8 111252173.154 7                  86689960.974 8
G02  20683776.854 8  20683778.857 6                 108694103.378 8  84696618.240 6
G03  22604287.595 6                  22604295.965 7 118786511.395 6                  92560832.889 7
G08  21679351.705 7                  21679357.854 7 113925828.369 7                  88773352.505 7
G10  23271719.839 6                  23271727.877 6 122293845.408 6                  95293862.671 6
G27  24250249.522 5                  24250261.374 6 127436030.321 5                  99300755.213 6
G32  21899359.008 7                  21899367.699 7 115081836.563 7                  89674259.146 7
R01  21782599.410 7                 116440541.541 7
R02  19417272.117 8  19417275.941 7 103614390.549 8  80588901.797 7
R03  21336080.088 8  21336085.899 7 114214029.913 8  88832863.452 7
R17  19346021.637 8  19346026.211 7 103524685.385 8  80519053.110 7
R18  20103804.907 8  20103807.758 7 107315505.640 8  83467577.024 7
> 2025 06 15 11 48  0.0000000  0 22
C12  23969348.949 5  23969344.364 3 124814691.164 5  96514616.931 3
C19  22259099.713 7                 115909032.115 7
C20  25197102.793 6                 131208124.519 6
C22  22824923.667 7                 118855347.373 7
E04  26422770.381 7  26422772.685 8 138852576.894 7 105041098.337 8
E05  24934123.105 7  24934129.639 8 131029736.684 7  99123153.884 8
E06  25099628.070 7  25099630.255 8 131899398.233 7  99781079.414 8
E09  24850735.855 6  24850736.139 8 130591453.055 6  98791626.192 8
E34  24391508.900 8  24391510.842 8 128178217.427 8  96966017.190 8
E36  23690882.178 8  23690884.762 9 124496431.381 8  94180750.454 9
G01  21167473.071 7                  21167477.338 8 111235922.392 7                  86677298.047 8
G02  20682465.589 7  20682467.508 6                 108687215.218 7  84691250.850 6
G03  22600102.067 6                  22600111.317 7 118764519.048 6                  92543696.045 7
G08  21680830.971 7                  21680839.898 7 113933611.692 7                  88779417.421 7
G10  23273375.983 6                  23273384.449 6 122302550.800 6                  95300646.026 6
G27  24252821.556 6                  24252832.725 6 127449539.760 6                  99311282.003 6
G32  21898635.141 7                  21898642.683 8 115078028.266 7                  89671291.638 8
R01  21784895.546 6                 116452821.427 6
R02  19416232.808 8  19416236.202 7 103608843.469 8  80584587.402 7
R03  21331405.561 8  21331411.354 7 114189006.553 8  88813400.894 7
R17  19345853.359 8  19345856.750 7 103523781.757 8  80518350.279 7
R18  20100397.163 8  20100400.397 8 107297316.749 8  83453430.111 8
> 2025 06 15 11 48  5.0000000  0 22
C12  23965678.925 4  23965677.080 4 124795593.36714  96499849.32114
C19  22258655.829 7                 115906721.874 7
C20  25198851.309 6                 131217235.845 6
C22  22821400.846 7                 118837001.490 7
E04  26423267.679 7  26423270.334 8 138855191.978 7 105043076.626 8
E05  24930081.554 7  24930086.924 8 131008492.526 7  99107082.845 8
E06  25098881.374 7  25098884.006 8 131895477.109 7  99778113.116 8
E09  24848679.179 6  24848680.292 8 130580649.171 6  98783453.128 8
E34  24388842.599 8  24388844.828 8 128164207.070 8  96955418.437 8
E36  23690532.189 8  23690534.704 9 124494591.975 8  94179358.959 9
G01  21164382.034 8                  21164386.218 8 111219679.540 8                  86664641.290 8
G02  20681157.300 7  20681158.272 6                 108680336.788 7  84685891.028 6
G03  22595918.710 7                  22595927.172 7 118742533.551 7                  92526564.495 7
G08  21682314.058 7                  21682322.526 7 113941405.818 7                  88785490.742 7
G10  23275033.176 6                  23275041.101 6 122311260.395 6                  95307432.714 6
G27  24255393.387 6                  24255403.801 6 127463051.535 6                  99321810.579 6
G32  21897913.055 7                  21897920.629 7 115074235.892 7                  89668336.548 7
R01  21787195.230 7                 116465111.510 7
R02  19415197.622 8  19415201.167 7 103603318.186 8  80580289.938 7
R03  21326732.519 8  21326739.077 7 114163994.576 8  88793947.161 7
R17  19345686.564 8  19345690.956 7 103522894.346 8  80517660.074 7
R18  20096991.292 8  20096994.775 7 107279138.768 8  83439291.714 7
> 2025 06 15 11 48 10.0000000  0 22
C12  23962012.434 5  23962011.785 4 124776501.92315  96485086.48114
C19  22258215.709 7                 115904425.420 7
C20  25200602.549 5                 131226353.102 5
C22  22817879.546 7                 118818666.053 7
E04  26423767.979 7  26423770.116 8 138857817.908 7 105045063.119 8
E05  24926039.309 7  24926045.192 8 130987253.094 7  99091015.376 8
E06  25098137.922 7  25098140.320 8 131891569.173 7  99775156.792 8
E09  24846627.408 6  24846626.800 8 130569858.258 6  98775289.891 8
E34  24386177.330 8  24386179.817 8 128150201.974 8  96944823.672 8
E36  23690183.893 8  23690186.042 9 124492759.691 8  94177972.857 9
G01  21161292.801 8                  21161296.765 7 111203445.511 8                  86651991.394 7
G02  20679850.472 8  20679851.249 6                 108673468.990 8  84680539.500 6
G03  22591736.951 6                  22591745.020 7 118720555.634 6                  92509438.867 7
G08  21683800.547 7                  21683807.783 7 113949211.626 7                  88791573.196 7
G10  23276691.386 6                  23276699.528 6 122319975.044 6                  95314223.341 6
G27  24257964.936 5                  24257975.085 5 127476566.433 5                  99332341.635 5
G32  21897195.513 8                  21897201.978 7 115070460.423 8                  89665394.625 7
R01  21789495.736 7                 116477412.832 7
R02  19414166.060 8  19414170.163 7 103597815.617 8  80576010.175 7
R03  21322063.485 8  21322068.759 7 114138995.057 8  88774503.110 7
R17  19345524.191 8  19345527.826 7 103522024.117 8  80516983.201 7
R18  20093588.285 8  20093592.314 7 107260972.618 8  83425162.481 7
> 2025 06 15 11 48 15.0000000  0 22
C12  23958349.282 4  23958346.520 4 124757414.31714  96470326.69014
C19  22257775.753 7                 115902140.351 7
C20  25202354.999 6                 131235473.968 6
C22  22814361.083 7                 118800338.633 7
E04  26424268.928 7  26424271.343 8 138860452.340 7 105047056.039 8
E05  24921997.890 7  24922003.974 8 130966015.911 7  99074949.606 8
E06  25097396.850 7  25097398.663 8 131887671.980 7  99772208.594 8
E09  24844577.544 6  24844575.450 8 130559077.857 6  98767134.521 8
E34  24383512.875 8  24383515.410 8 128136199.716 8  96934231.062 8
E36  23689835.244 8  23689838.252 9 124490932.088 8  94176590.282 9
G01  21158204.678 7                  21158209.265 8 111187217.934 7                  86639346.520 8
G02  20678544.784 8  20678545.793 6                 108666609.403 8  84675194.356 6
G03  22587556.037 6                  22587564.074 7 118698583.019 6                  92492317.344 7
G08  21685287.671 7                  21685295.102 7 113957026.680 7                  88797662.817 7
G10  23278349.995 6                  23278357.970 6 122328692.323 6                  95321016.017 6
G27  24260536.462 6                  24260546.718 5 127490082.107 6                  99342873.257 5
G32  21896479.806 8                  21896486.096 7 115066699.399 8                  89662463.974 7
R01  21791799.071 6                 116489722.931 6
R02  19413138.245 8  19413142.424 7 103592333.377 8  80571746.199 7
R03  21317396.230 8  21317399.909 7 114114005.478 8  88755066.769 7
R17  19345364.561 8  19345368.428 7 103521168.566 8  80516317.764 7
R18  20090186.719 8  20090190.427 7 107242815.870 8  83411040.594 7
> 2025 06 15 11 48 20.0000000  0 22
C12  23954686.697 5  23954680.483 4 124738331.820 5  96455570.896 4
C19  22257339.949 7                 115899867.712 7
C20  25204109.217 6                 131244599.489 6
C22  22810843.035 7                 118782020.377 7
E04  26424771.844 7  26424774.330 8 138863096.332 7 105049056.202 8
E05  24917957.554 7  24917963.217 8 130944782.160 7  99058886.444 8
E06  25096656.851 7  25096659.407 8 131883786.669 7  99769269.386 8
E09  24842527.663 6  24842526.212 8 130548309.068 6  98758988.010 8
E34  24380848.604 7  24380851.488 8 128122201.425 7  96923641.464 8
E36  23689489.454 8  23689491.635 9 124489110.310 8  94175212.126 9
G01  21155118.827 8                  21155122.435 8 111170997.896 8                  86626707.487 8
G02  20677241.061 8  20677242.067 6                 108659759.114 8  84669856.455 6
G03  22583375.845 6                  22583384.309 7 118676616.783 6                  92475200.850 7
G08  21686777.693 7                  21686784.127 7 113964852.114 7                  88803760.539 7
G10  23280009.082 6                  23280017.282 6 122337413.433 6                  95327811.708 6
G27  24263108.562 5                  24263119.233 6 127503599.612 5                  99353406.318 6
G32  21895767.221 8                  21895774.413 7 115062954.000 8                  89659545.496 7
R01  21794103.845 7                 116502042.808 7
R02  19412115.054 8  19412118.944 7 103586872.433 8  80567498.802 7
R03  21312729.528 8  21312733.840 6 114089027.104 8  88735639.146 6
R17  19345207.027 8  19345211.604 7 103520328.959 8  80515664.761 7
R18  20086787.151 8  20086790.896 7 107224669.709 8  83396926.902 7
> 2025 06 15 11 48 25.0000000  0 22
C12  23951022.414 4  23951015.867 4 124719254.965 4  96440819.538 4
C19  22256905.473 7                 115897608.287 7
C20  25205860.916 6                 131253730.486 6
C22  22807326.951 7                 118763712.018 7
E04  26425277.105 7  26425279.329 8 138865750.635 7 105051064.150 8
E05  24913917.393 7  24913923.340 8 130923552.610 7  99042826.441 8
E06  25095920.361 7  25095922.385 8 131879913.967 7  99766339.735 8
E09  24840480.047 6  24840479.245 8 130537552.631 6  98750850.839 8
E34  24378186.442 8  24378188.770 8 128108207.851 8  96913055.413 8
E36  23689143.776 8  23689146.238 9 124487295.115 8  94173838.941 9
G01  21152032.997 8                  21152037.518 8 111154786.145 8                  86614074.951 8
G02  20675939.746 7  20675940.899 6                 108652918.892 7  84664526.407 6
G03  22579196.694 6                  22579205.482 7 118654657.699 6                  92458089.892 7
G08  21688269.522 7                  21688275.578 7 113972688.610 7                  88809866.889 7
G10  23281671.255 6                  23281677.980 5 122346139.012 6                  95334610.837 5
G27  24265680.387 5                  24265691.616 5 127517119.692 5                  99363941.362 5
G32  21895057.106 8                  21895064.399 7 115059224.739 8                  89656639.580 7
R01  21796410.596 7                 116514373.214 7
R02  19411095.932 8  19411099.565 7 103581433.744 8  80563268.711 7
R03  21308065.252 8  21308070.220 6 114064060.791 8  88716220.932 6
R17  19345054.037 8  19345058.184 7 103519506.013 8  80515024.692 7
R18  20083389.836 8  20083393.381 7 107206534.859 8  83382822.034 7
> 2025 06 15 11 48 30.0000000  0 22
C12  23947359.150 5  23947353.864 4 124700183.41515  96426072.34614
C19  22256474.025 7                 115895361.502 7
C20  25207616.671 5                 131262866.287 5
C22  22803812.518 7                 118745412.989 7
E04  26425784.483 7  26425786.288 8 138868414.706 7 105053079.483 8
E05  24909879.214 7  24909884.388 8 130902326.663 7  99026769.150 8
E06  25095185.264 7  25095187.750 8 131876053.389 7  99763419.206 8
E09  24838435.780 6  24838434.645 8 130526808.005 6  98742722.641 8
E34  24375524.069 8  24375526.798 8 128094218.423 8  96902472.510 8
E36  23688799.137 8  23688801.901 9 124485485.913 8  94172470.280 9
G01  21148949.420 7                  21148953.947 8 111138582.127 7                  86601448.466 8
G02  20674640.349 8  20674641.270 6                 108646088.175 8  84659203.779 6
G03  22575019.212 6                  22575027.836 6 118632705.253 6                  92440984.121 6
G08  21689762.599 7                  21689768.874 7 113980535.644 7                  88815981.462 7
G10  23283331.298 6                  23283338.676 6 122354868.553 6                  95341413.032 6
G27  24268254.395 5                  24268264.509 6 127530641.847 5                  99374478.048 6
G32  21894350.477 8                  21894358.013 7 115055511.379 8                  89653746.057 7
R01  21798720.642 7                 116526713.632 7
R02  19410080.558 8  19410084.265 7 103576016.640 8  80559055.393 7
R03  21303403.649 8  21303409.174 6 114039105.655 8  88696811.392 6
R17  19344903.298 8  19344907.129 7 103518699.130 8  80514397.098 7
R18  20079994.594 8  20079998.206 7 107188410.745 8  83368725.517 7
> 2025 06 15 11 48 35.0000000  0 22
