     3.04           OBSERVATION DATA    Mixed(MIXED)        RINEX VERSION / TYPE
cnvtToRINEX 3.14.0  convertToRINEX OPR  20250615 162930 UTC PGM / RUN BY / DATE 
----------------------------------------------------------- COMMENT             
35.1                                                        MARKER NAME         
35.1                                                        MARKER NUMBER       
GEODETIC                                                    MARKER TYPE         
GNSS Observer       Trimble                                 OBSERVER / AGENCY   
5849S10870          Unknown             5.51                REC # / TYPE / VERS 
49S10870            UNKNOWN EXT     NONE                    ANT # / TYPE        
  3913456.5798  1190448.7530  4878204.8202                  APPROX POSITION XYZ 
        1.2930        0.0000        0.0000                  ANTENNA: DELTA H/E/N
G    6 C1C C2W C2X L1C L2W L2X                              SYS / # / OBS TYPES 
R    4 C1C C2C L1C L2C                                      SYS / # / OBS TYPES 
E    4 C1X C8X L1X L8X                                      SYS / # / OBS TYPES 
C    4 C2I C7I L2I L7I                                      SYS / # / OBS TYPES 
     5.000                                                  INTERVAL            
  2025     6    15    12    35   35.0000000     GPS         TIME OF FIRST OBS   
  2025     6    15    13    15   35.0000000     GPS         TIME OF LAST OBS    
     0                                                      RCV CLOCK OFFS APPL 
  7 R02 -4 R03  5 R04  6 R11  0 R17  4 R18 -3 R19  3        GLONASS SLOT / FRQ #
G L2X -0.25000                                              SYS / PHASE SHIFT   
R L2C -0.25000                                              SYS / PHASE SHIFT   
    18                                                      LEAP SECONDS        
    25                                                      # OF SATELLITES     
   C12   481   481   481   481                              PRN / # OF OBS      
   C19   481     0   481     0                              PRN / # OF OBS      
   C21   478     0   478     0                              PRN / # OF OBS      
   C22   481     0   481     0                              PRN / # OF OBS      
   E05   481   481   481   481                              PRN / # OF OBS      
   E06   275   264   272   264                              PRN / # OF OBS      
   E09   481   481   481   481                              PRN / # OF OBS      
   E15    59    58    59    58                              PRN / # OF OBS      
   E34   481   481   481   481                              PRN / # OF OBS      
   E36   481   481   481   481                              PRN / # OF OBS      
   G01   481     0   481   481     0   481                  PRN / # OF OBS      
   G02   481   481     0   481   481     0                  PRN / # OF OBS      
   G03   481     0   481   481     0   481                  PRN / # OF OBS      
   G04   208     0   208   208     0   208                  PRN / # OF OBS      
   G08   191     0   181   188     0   181                  PRN / # OF OBS      
   G17   478     0   473   476     0   473                  PRN / # OF OBS      
   G19     3     0     0     3     0     0                  PRN / # OF OBS      
   G32   312     0   274   297     0   274                  PRN / # OF OBS      
   R02   481   481   481   481                              PRN / # OF OBS      
   R03   481   481   481   481                              PRN / # OF OBS      
   R04   412   401   411   396                              PRN / # OF OBS      
   R11    70    51    69    46                              PRN / # OF OBS      
   R17   481   481   481   481                              PRN / # OF OBS      
   R18   481   481   481   481                              PRN / # OF OBS      
   R19   481   481   481   481                              PRN / # OF OBS      
DBHZ                                                        SIGNAL STRENGTH UNIT
                                                            END OF HEADER       
>                              2  1
              *** Start of Kinematic Data ***               COMMENT             
> 2025 06 15 12 35 35.0000000  0 20
C12  22659362.164 7  22659358.883 7 117993239.10917  91240098.25217
C19  22938364.844 7                 119446082.79417
C22  21707306.891 7                 113035643.74917
E05  23356837.672 7  23356841.184 8 122741012.12417  92852790.01818
E06  25601456.836 6  25601460.930 7 134536546.23016 101776049.09417
E09  24625420.297 8  24625422.316 8 129407451.05818  97895906.01518
E34  23589274.922 8  23589277.172 8 123962474.74518  93776817.46818
E36  24252588.234 8  24252591.414 8 127448208.86118  96413754.66618
G01  20250783.211 7                  20250787.320 8 106418581.94317                  82923589.74418
G02  20815475.484 8  20815476.574 6                 109386058.86018  85235896.32816
G03  21019983.469 7                  21019989.738 7 110460751.86117                  86073345.74317
G08  23362316.563 6                  23362325.582 7 122769816.55316                  95664633.90817
G17  23195354.594 5                  23195358.516 6 121892398.74115                  94981115.37816
G32  22520837.820 6                  22520844.176 7 118347795.14016                  92219038.43717
R02  20012837.305 8  20012842.535 7 106792333.09618  83060656.44517
R03  19655939.570 8  19655944.969 7 105219784.25718  81837640.90817
R04  23168006.844 6  23168011.492 5 124063618.80216  96493934.52415
R17  20305235.992 8  20305240.648 7 108657414.98218  84511241.70917
R18  19128194.391 8  19128197.945 7 102107597.23218  79417204.67417
R19  22125796.148 6  22125798.492 6 118358077.78516  92056725.69116
> 2025 06 15 12 35 40.0000000  0 20
C12  22656254.844 7  22656251.902 7 117977059.831 7  91227587.397 7
C19  22938841.688 7                 119448569.568 7
C22  21704685.422 7                 113021996.970 7
E05  23353164.664 7  23353168.473 8 122721712.255 7  92838189.804 8
E06  25601641.898 6  25601645.469 7 134537516.785 6 101776783.320 7
E09  24624417.148 8  24624419.355 9 129402180.321 8  97891918.743 9
E34  23586893.117 8  23586895.406 9 123949958.516 8  93767349.019 9
E36  24252636.547 8  24252639.559 8 127448461.979 8  96413946.141 8
G01  20248453.766 7                  20248458.078 8 106406341.306 7                  82914051.590 8
G02  20814995.938 8  20814996.715 6                 109383537.060 8  85233931.273 6
G03  21016412.539 7                  21016419.980 7 110441991.651 7                  86058727.418 7
G08  23364333.539 7                  23364342.664 7 122780417.402 7                  95672894.290 7
G17  23191791.016 5                  23191795.680 6 121873674.407 5                  94966524.980 6
G32  22521398.578 6                  22521405.563 7 118350741.729 6                  92221334.458 7
R02  20013581.883 8  20013586.145 7 106796304.860 8  83063745.568 7
R03  19652590.867 8  19652596.426 8 105201856.276 8  81823696.899 8
R04  23162588.156 5  23162597.105 5 124034628.216 5  96471386.348 5
R17  20306456.375 8  20306461.836 7 108663950.176 8  84516324.640 7
R18  19126044.031 8  19126047.391 7 102096118.655 8  79408276.886 7
R19  22120829.844 7  22120831.555 6 118331509.874 7  92036061.819 6
>                              3  5
              *** Start of Occupation ***                   COMMENT             
35.1                                                        MARKER NAME         
35.1                                                        MARKER NUMBER       
  3913456.5798  1190448.7530  4878204.8202                  APPROX POSITION XYZ 
        1.2930        0.0000        0.0000                  ANTENNA: DELTA H/E/N
> 2025 06 15 12 35 45.0000000  0 20
C12  22653150.273 7  22653147.551 7 117960896.276 7  91215088.704 7
C19  22939322.117 7                 119451070.922 7
C22  21702068.281 7                 113008367.585 7
E05  23349495.680 7  23349498.461 8 122702426.233 7  92823600.072 8
E06  25601829.375 6  25601833.074 7 134538502.846 6 101777529.282 7
E09  24623417.328 8  24623419.746 8 129396927.411 8  97887944.949 8
E34  23584513.953 8  23584515.957 9 123937454.296 8  93757889.655 9
E36  24252686.781 8  24252690.086 8 127448727.162 8  96414146.753 8
G01  20246127.883 7                  20246132.137 8 106394117.774 7                  82904526.756 8
G02  20814519.125 8  20814520.199 6                 109381031.546 8  85231978.922 6
G03  21012845.859 7                  21012852.980 7 110423246.761 7                  86044121.007 7
G08  23366353.117 7                  23366361.695 7 122791028.185 7                  95681162.409 7
G17  23188227.133 5                  23188236.266 6 121854966.683 5                  94951947.548 6
G32  22521961.680 6                  22521969.613 7 118353706.253 6                  92223644.457 7
R02  20014330.344 8  20014334.270 7 106800298.218 8  83066851.544 7
R03  19649245.852 8  19649251.559 8 105183951.669 8  81809771.104 8
R04  23157180.813 6  23157184.820 4 124005648.695 6  96448846.734 4
R17  20307681.172 8  20307687.051 7 108670505.514 8  84521423.232 7
R18  19123897.195 8  19123901.375 7 102084663.472 8  79399367.307 7
R19  22115863.141 6  22115866.813 6 118304952.796 6  92015406.340 6
> 2025 06 15 12 35 50.0000000  0 21
C12  22650049.133 7  22650046.039 7 117944747.430 7  91202601.396 7
C19  22939804.984 7                 119453585.715 7
C21  25534613.266 6                 132965429.32016
C22  21699453.648 7                 112994754.498 7
E05  23345827.547 7  23345830.852 8 122683152.978 7  92809019.996 8
E06  25602019.805 6  25602023.402 6 134539503.267 6 101778286.076 6
E09  24622420.594 8  24622423.313 8 129391691.209 8  97883983.796 8
E34  23582136.500 8  23582138.559 8 123924960.968 8  93748438.536 8
E36  24252739.000 8  24252742.637 8 127449003.324 8  96414355.655 8
G01  20243804.555 7                  20243809.266 8 106381910.174 7                  82895014.336 8
G02  20814044.945 8  20814046.141 6                 109378541.276 8  85230038.454 6
G03  21009281.859 7                  21009288.289 7 110404516.101 7                  86029525.689 7
G08  23368374.055 7                  23368382.527 7 122801647.759 7                  95689437.395 7
G17  23184671.422 5                  23184678.926 6 121836274.607 5                  94937382.316 6
G32  22522529.156 6                  22522537.484 7 118356687.657 6                  92225967.609 7
R02  20015083.023 8  20015086.973 7 106804312.025 8  83069973.389 7
R03  19645906.422 8  19645911.305 7 105166069.807 8  81795863.007 7
R04  23151772.992 6  23151775.258 5 123976678.898 6  96426314.781 5
R17  20308909.531 8  20308915.508 7 108677079.896 8  84526536.645 7
R18  19121755.969 8  19121759.645 7 102073230.646 8  79390475.108 7
R19  22110902.227 6  22110904.809 6 118278405.446 6  91994758.377 6
> 2025 06 15 12 35 55.0000000  0 21
C12  22646951.484 7  22646947.551 7 117928613.334 7  91190125.470 7
C19  22940291.031 7                 119456114.008 7
C21  25530098.336 6                 132941922.632 6
C22  21696842.594 7                 112981157.727 7
E05  23342162.320 7  23342165.641 8 122663892.554 7  92794449.624 8
E06  25602212.641 6  25602216.434 6 134540518.026 6 101779053.731 6
E09  24621427.625 8  24621430.039 8 129386471.766 8  97880035.319 8
E34  23579761.242 8  23579763.230 8 123912478.574 8  93738995.690 8
E36  24252794.023 8  24252797.297 8 127449290.509 8  96414572.908 8
G01  20241484.703 7                  20241489.063 8 106369718.612 7                  82885514.417 8
G02  20813573.805 7  20813575.090 6                 109376066.295 7  85228109.894 6
G03  21005720.227 7                  21005726.680 7 110385799.716 7                  86014941.511 7
G08  23370395.258 7                  23370405.215 6 122812276.150 7                  95697719.227 6
G17  23181116.578 5                  23181124.090 6 121817598.091 5                  94922829.213 6
G32  22523100.063 7                  22523108.031 7 118359685.863 7                  92228303.890 7
R02  20015838.633 8  20015842.727 7 106808346.227 8  83073111.089 7
R03  19642569.383 8  19642575.063 8 105148210.543 8  81781972.471 8
R04  23146363.195 6  23146366.199 4 123947719.251 6  96403790.755 4
R17  20310141.555 8  20310147.516 7 108683673.255 8  84531664.779 7
R18  19119618.273 8  19119622.418 7 102061820.165 8  79381600.300 7
R19  22105940.023 6  22105943.270 6 118251867.854 6  91974118.069 6
> 2025 06 15 12 36  0.0000000  0 21
C12  22643854.984 7  22643851.535 7 117912493.557 7  91177660.637 7
C19  22940779.086 7                 119458655.386 7
C21  25525584.305 6                 132918424.186 6
C22  21694234.422 7                 112967576.875 7
E05  23338499.531 7  23338502.852 8 122644644.533 7  92779888.629 8
E06  25602409.117 6  25602412.148 6 134541546.789 6 101779831.968 6
E09  24620437.672 8  24620439.867 8 129381268.644 8  97876099.188 8
E34  23577388.023 8  23577389.898 8 123900006.721 8  93729560.814 8
E36  24252851.102 8  24252853.965 8 127449588.285 8  96414798.164 8
G01  20239167.961 7                  20239172.160 8 106357542.646 7                  82876026.643 8
G02  20813106.039 7  20813107.207 6                 109373606.177 7  85226192.917 6
G03  21002160.977 8                  21002167.754 7 110367097.167 8                  86000368.113 7
G08  23372419.883 7                  23372429.070 6 122822912.962 7                  95706007.627 6
G17  23177567.313 5                  23177574.789 6 121798936.926 5                  94908288.100 6
G32  22523673.695 7                  22523681.535 7 118362700.545 7                  92230653.024 7
R02  20016598.688 8  20016602.289 7 106812400.477 8  83076264.412 7
R03  19639237.148 8  19639242.586 7 105130373.651 8  81768099.308 7
R04  23140952.133 4  23140961.582 5 123918768.976 4  96381273.854 5
R17  20311377.695 8  20311382.840 7 108690285.226 8  84536807.419 7
R18  19117485.266 8  19117489.039 7 102050431.680 8  79372742.593 7
R19  22100980.047 6  22100984.941 6 118225339.679 6  91953484.991 6
> 2025 06 15 12 36  5.0000000  0 20
C12  22640762.453 7  22640758.785 7 117896388.273 7  91165207.006 7
C19  22941270.445 7                 119461209.978 7
C21  25521072.914 6                 132894934.108 6
C22  21691630.281 7                 112954012.151 7
E05  23334839.188 8  23334842.395 8 122625409.092 8  92765337.146 8
E06  25602607.492 5  25602610.500 6 134542589.625 5 101780620.849 6
E09  24619450.695 7  24619452.867 8 129376082.025 7  97872175.549 8
E34  23575016.273 8  23575018.621 8 123887545.530 8  93720134.010 8
E36  24252909.531 8  24252912.672 8 127449896.827 8  96415031.570 8
G01  20236853.758 7                  20236858.309 8 106345382.459 7                  82866551.184 8
G02  20812640.680 7  20812641.949 6                 109371161.051 7  85224287.624 6
G03  20998604.492 8                  20998611.309 7 110348408.663 8                  85985805.623 7
G08  23374444.922 7                  23374454.984 6 122833558.339 7                  95714302.698 6
G17  23174020.367 6                  23174026.785 6 121780291.056 6                  94893758.835 6
G32  22524251.063 7                  22524257.934 7 118365731.884 7                  92233015.083 7
R02  20017362.336 8  20017365.754 7 106816474.886 8  83079433.375 7
R03  19635909.352 8  19635914.832 7 105112559.247 8  81754243.684 7
R17  20312616.406 8  20312621.867 7 108696915.964 8  84541964.633 7
R18  19115355.250 8  19115359.383 7 102039065.303 8  79363902.077 7
R19  22096024.047 6  22096027.211 6 118198821.057 6  91932859.467 6
> 2025 06 15 12 36 10.0000000  0 21
C12  22637670.516 7  22637668.441 7 117880296.989 7  91152764.200 7
C19  22941762.852 7                 119463777.352 7
C21  25516563.438 6                 132871451.918 6
C22  21689028.391 7                 112940463.013 7
E05  23331180.852 7  23331184.355 8 122606185.755 7  92750794.835 8
E06  25602808.984 5  25602811.531 6 134543646.040 5 101781420.025 6
E09  24618466.977 8  24618468.910 8 129370911.414 8  97868264.013 8
E34  23572647.305 8  23572649.363 9 123875094.581 8  93710714.945 9
E36  24252970.242 8  24252973.336 8 127450215.640 8  96415272.752 8
G01  20234542.969 7                  20234547.195 8 106333237.576 7                  82857087.646 8
G02  20812177.914 8  20812179.453 6                 109368730.482 8  85222393.678 6
G03  20995051.359 8                  20995057.695 7 110329733.683 8                  85971253.706 7
G08  23376473.117 6                  23376481.922 6 122844211.757 6                  95722604.032 6
G17  23170476.117 6                  23170481.133 6 121761660.103 6                  94879241.199 6
G32  22524830.281 7                  22524837.699 7 118368779.340 7                  92235389.685 7
R02  20018129.531 8  20018133.039 7 106820568.826 8  83082617.559 7
R03  19632585.359 8  19632591.133 8 105094766.776 8  81740405.121 8
R04  23130158.359 5  23130156.012 5 123860897.20415  96336262.48215
R17  20313859.289 8  20313864.656 7 108703564.948 8  84547136.068 7
R18  19113230.203 8  19113233.992 7 102027720.563 8  79355078.387 7
R19  22091068.094 6  22091071.168 6 118172311.539 6  91912240.956 6
> 2025 06 15 12 36 15.0000000  0 21
C12  22634583.539 6  22634580.918 7 117864219.956 6  91140332.422 7
C19  22942257.875 7                 119466357.642 7
C21  25512055.977 6                 132847977.900 6
C22  21686430.055 7                 112926929.718 7
E05  23327524.945 7  23327528.652 8 122586974.697 7  92736261.808 8
E06  25603013.414 5  25603015.285 6 134544716.325 5 101782229.697 6
E09  24617485.930 8  24617488.020 8 129365756.992 8  97864364.729 8
E34  23570279.992 8  23570282.012 9 123862654.047 8  93701303.763 9
E36  24253033.008 8  24253035.949 8 127450544.936 8  96415521.860 8
G01  20232235.023 7                  20232238.672 8 106321108.199 7                  82847636.179 8
G02  20811718.148 8  20811719.512 6                 109366314.599 8  85220511.177 6
G03  20991499.711 7                  20991506.406 7 110311072.499 7                  85956712.524 7
G08  23378501.977 7                  23378511.281 6 122854873.441 7                  95730911.811 6
G17  23166933.648 6                  23166937.930 6 121743044.272 6                  94864735.367 6
G32  22525414.047 7                  22525420.391 6 118371843.108 7                  92237777.003 6
R02  20018900.195 8  20018903.824 7 106824682.703 8  83085817.233 7
R03  19629266.648 8  19629271.008 7 105076996.247 8  81726583.590 7
R04  23124753.797 5  23124754.438 6 123831975.306 5  96313767.769 6
R17  20315104.703 8  20315110.246 7 108710232.365 8  84552321.825 7
R18  19111108.969 8  19111113.348 7 102016397.675 8  79346271.686 7
R19  22086113.172 6  22086117.738 6 118145811.283 6  91891629.698 6
> 2025 06 15 12 36 20.0000000  0 21
C12  22631498.547 6  22631496.074 7 117848155.644 6  91127910.496 7
C19  22942755.563 7                 119468949.362 7
C21  25507550.156 6                 132824510.479 6
C22  21683833.195 7                 112913410.720 7
E05  23323871.508 7  23323874.977 8 122567774.447 7  92721736.956 8
E06  25603220.102 5  25603221.422 7 134545798.893 5 101783048.643 7
E09  24616507.531 8  24616509.961 8 129360617.265 8  97860476.554 8
E34  23567914.367 8  23567916.359 9 123850222.388 8  93691899.305 9
E36  24253097.273 8  24253100.305 8 127450883.194 8  96415777.749 8
G01  20229929.516 7                  20229933.449 8 106308992.797 7                  82838195.610 8
G02  20811261.047 8  20811262.496 6                 109363911.985 8  85218639.009 6
G03  20987950.656 7                  20987957.379 7 110292423.514 7                  85942180.865 7
G08  23380531.523 7                  23380541.363 6 122865541.805 7                  95739224.819 6
G17  23163394.961 6                  23163398.164 6 121724442.098 6                  94850240.169 6
G32  22525999.578 7                  22526006.555 6 118374921.602 7                  92240175.825 6
R02  20019674.367 8  20019678.730 7 106828814.951 8  83089031.180 7
R03  19625950.133 8  19625955.313 7 105059246.601 8  81712778.323 7
R04  23119354.234 5  23119356.543 6 123803061.152 5  96291279.103 6
R17  20316354.117 8  20316359.539 7 108716916.799 8  84557520.799 7
R18  19108992.063 8  19108996.117 7 102005095.125 8  79337480.827 7
R19  22081160.719 6  22081165.254 6 118119318.843 6  91871024.484 6
> 2025 06 15 12 36 25.0000000  0 21
C12  22628416.055 6  22628413.965 8 117832103.722 6  91115498.139 8
C19  22943255.023 7                 119471552.151 7
C21  25503045.461 6                 132801049.289 6
C22  21681240.234 7                 112899905.690 7
E05  23320220.133 7  23320223.313 8 122548584.658 7  92707220.017 8
E06  25603426.641 5  25603429.824 7 134546893.35915 101783876.63117
E09  24615532.406 7  24615534.641 8 129355491.876 7  97856599.234 8
E34  23565550.086 8  23565552.309 9 123837799.292 8  93682501.314 9
E36  24253162.945 8  24253166.328 8 127451230.044 8  96416040.139 8
G01  20227626.438 7                  20227630.527 8 106296891.022 7                  82828765.675 8
G02  20810805.961 8  20810807.910 6                 109361522.209 8  85216776.847 6
G03  20984404.320 7                  20984410.613 7 110273786.403 7                  85927658.453 7
G08  23382563.000 7                  23382572.602 6 122876216.561 7                  95747542.765 6
G17  23159857.148 6                  23159861.160 6 121705853.110 6                  94835755.274 6
G32  22526588.711 7                  22526595.219 7 118378014.517 7                  92242585.891 7
R02  20020452.359 8  20020456.566 7 106832964.999 8  83092259.009 7
R03  19622638.547 8  19622643.484 8 105041517.080 8  81698988.696 8
R04  23113949.375 5  23113958.715 6 123774154.631 5  96268796.359 6
R17  20317606.547 8  20317611.898 7 108723617.677 8  84562732.617 7
R18  19106877.938 8  19106882.801 7 101993812.529 8  79328705.481 7
R19  22076210.969 6  22076214.711 6 118092833.767 6  91850424.997 6
> 2025 06 15 12 36 30.0000000  0 21
C12  22625336.141 7  22625334.027 8 117816065.530 7  91103096.399 8
C19  22943757.703 7                 119474167.318 7
C21  25498542.367 6                 132777595.721 6
C22  21678649.672 7                 112886415.952 7
E05  23316570.438 8  23316573.906 8 122529406.650 8  92692711.983 8
E06  25603637.695 5  25603640.668 7 134548001.120 5 101784714.634 7
E09  24614559.813 7  24614562.262 9 129350382.128 7  97852733.750 9
E34  23563187.984 8  23563190.176 9 123825386.094 8  93673110.817 9
E36  24253230.992 8  24253234.234 8 127451586.851 8  96416310.061 8
G01  20225326.000 7                  20225330.086 8 106284804.263 7                  82819347.400 8
G02  20810354.609 8  20810355.926 6                 109359146.670 8  85214925.771 6
G03  20980860.047 7                  20980867.031 7 110255162.533 7                  85913146.352 7
G08  23384595.844 6                  23384604.887 6 122886898.980 6                  95755866.718 6
G17  23156322.320 6                  23156326.309 6 121687278.800 6                  94821281.767 6
G32  22527179.734 6                  22527187.047 7 118381123.241 6                  92245008.252 7
R02  20021232.867 8  20021237.613 7 106837134.369 8  83095501.867 7
R03  19619329.914 8  19619335.727 8 105023809.132 8  81685215.856 8
R04  23108552.070 5  23108561.906 6 123745257.015 5  96246320.487 6
R17  20318861.930 8  20318867.391 7 108730336.347 8  84567958.228 7
R18  19104768.672 8  19104772.980 7 101982551.292 8  79319946.732 7
R19  22071260.242 6  22071265.719 6 118066357.470 6  91829832.299 6
> 2025 06 15 12 36 35.0000000  0 21
C12  22622260.188 7  22622256.500 8 117800041.141 7  91090705.325 8
C19  22944262.891 7                 119476794.961 7
C21  25494039.117 6                 132754149.857 6
C22  21676061.992 8                 112872941.619 8
E05  23312923.211 8  23312926.762 8 122510240.545 8  92678212.955 8
E06  25603848.539 5  25603853.996 7 134549122.237 5 101785562.797 7
E09  24613590.508 8  24613592.879 8 129345288.165 8  97848880.201 8
E34  23560827.602 8  23560829.918 9 123812982.898 8  93663727.881 9
E36  24253300.891 8  24253304.020 8 127451953.711 8  96416587.585 8
G01  20223029.414 7                  20223033.059 8 106272732.588 7                  82809940.889 8
G02  20809904.859 8  20809906.566 6                 109356785.423 8  85213085.827 6
G03  20977319.023 7                  20977325.629 7 110236551.999 7                  85898644.629 7
G08  23386630.531 6                  23386639.762 6 122897589.165 6                  95764196.739 6
G17  23152790.148 6                  23152794.484 6 121668719.254 6                  94806819.770 6
G32  22527775.016 7                  22527782.094 7 118384247.735 7                  92247442.920 7
R02  20022018.578 8  20022022.930 7 106841323.227 8  83098759.847 7
R03  19616025.625 8  19616031.426 7 105006122.866 8  81671459.883 7
R04  23103157.797 5  23103167.930 6 123716368.493 5  96223851.628 6
R17  20320121.891 8  20320127.051 7 108737073.121 8  84573197.926 7
R18  19102662.719 8  19102667.234 7 101971311.510 8  79311204.701 7
R19  22066313.273 6  22066317.777 6 118039890.054 6  91809246.542 6
> 2025 06 15 12 36 40.0000000  0 21
C12  22619184.664 7  22619181.523 7 117784029.722 7  91078324.271 7
C19  22944769.445 7                 119479434.144 7
C21  25489537.281 6                 132730710.819 6
C22  21673476.945 7                 112859481.745 7
E05  23309278.234 8  23309281.652 8 122491085.428 8  92663722.242 8
E06  25604065.617 5  25604069.699 7 134550255.783 5 101786420.302 7
E09  24612624.242 7  24612626.391 8 129340209.040 7  97845037.866 8
E34  23558469.180 8  23558471.422 9 123800588.774 8  93654351.812 9
E36  24253372.109 8  24253375.547 8 127452329.712 8  96416872.014 8
G01  20220734.727 7                  20220738.535 8 106260675.079 7                  82800545.435 8
G02  20809457.984 7  20809459.566 6                 109354437.570 7  85211256.329 6
G03  20973778.961 7                  20973786.340 7 110217953.886 7                  85884152.592 7
G08  23388665.461 6                  23388675.289 6 122908286.210 6                  95772532.067 6
G17  23149260.422 6                  23149265.430 6 121650173.446 6                  94792368.479 6
G32  22528372.227 6                  22528379.945 7 118387387.188 6                  92249889.227 7
R02  20022806.141 8  20022811.223 7 106845530.213 8  83102031.955 7
R03  19612725.242 8  19612731.504 7 104988457.610 8  81657720.257 7
R04  23097762.664 5  23097773.980 6 123687488.115 5  96201389.200 6
R17  20321383.578 8  20321388.535 7 108743826.847 8  84578450.805 7
R18  19100561.141 8  19100565.586 7 101960092.277 8  79302478.629 7
R19  22061366.992 6  22061370.816 6 118013430.745 6  91788667.086 6
> 2025 06 15 12 36 45.0000000  0 21
C12  22616112.828 7  22616109.398 7 117768031.374 7  91065953.341 7
C19  22945278.547 7                 119482085.065 7
C21  25485038.117 6                 132707278.747 6
C22  21670895.266 7                 112846036.526 7
E05  23305635.281 8  23305638.648 8 122471941.478 8  92649239.973 8
E06  25604286.484 5  25604287.660 7 134551401.96815 101787287.32517
E09  24611660.773 8  24611662.754 8 129335144.912 8  97841206.886 8
E34  23556112.203 8  23556114.680 9 123788203.909 8  93644982.745 9
E36  24253445.750 8  24253448.832 8 127452714.995 8  96417163.472 8
G01  20218443.016 7                  20218446.660 8 106248631.926 7                  82791161.163 8
G02  20809013.555 7  20809015.094 6                 109352103.241 7  85209437.373 6
G03  20970243.438 7                  20970249.813 7 110199368.334 7                  85869670.360 7
G08  23390702.266 6                  23390712.051 6 122918990.218 6                  95780872.834 6
G17  23145732.305 6                  23145739.137 6 121631641.733 6                  94777928.150 6
G32  22528973.203 6                  22528980.277 7 118390541.699 6                  92252347.271 7
R02  20023598.609 8  20023602.891 7 106849756.020 8  83105318.681 7
R03  19609429.516 8  19609435.492 7 104970813.323 8  81643996.925 7
R04  23092373.805 5  23092383.199 6 123658616.093 5  96178933.175 6
R17  20322649.211 8  20322653.734 7 108750597.789 8  84583717.087 7
R18  19098463.398 8  19098467.906 7 101948893.710 8  79293768.633 7
R19  22056421.688 6  22056426.719 6 117986979.532 6  91768093.911 6
> 2025 06 15 12 36 50.0000000  0 21
C12  22613043.328 7  22613039.273 7 117752046.455 7  91053592.793 7
C19  22945790.484 7                 119484747.973 7
C21  25480539.766 6                 132683854.002 6
C22  21668316.008 8                 112832606.263 8
E05  23301994.391 7  23301997.816 8 122452809.011 7  92634766.389 8
E06  25604507.500 5  25604508.184 7 134552561.063 5 101788164.154 7
E09  24610700.023 8  24610702.059 8 129330096.100 8  97837387.491 8
E34  23553757.555 8  23553759.766 9 123775828.616 8  93635620.916 9
E36  24253520.898 8  24253523.977 8 127453109.882 8  96417462.193 8
G01  20216153.273 7                  20216158.133 8 106236603.436 7                  82781788.313 8
G02  20808572.109 8  20808573.594 6                 109349782.771 8  85207629.213 6
G03  20966708.734 8                  20966716.004 7 110180795.694 8                  85855198.180 7
G08  23392740.109 6                  23392750.203 6 122929701.560 6                  95789219.296 6
G17  23142208.617 5                  23142214.785 6 121613124.252 5                  94763498.955 6
G32  22529575.664 6                  22529582.703 7 118393711.586 6                  92254817.291 7
R02  20024394.578 8  20024398.391 7 106854000.593 8  83108620.024 7
R03  19606138.266 8  19606143.547 8 104953190.205 8  81630290.046 8
R04  23086984.336 6  23086991.625 6 123629752.506 6  96156483.788 6
R17  20323917.016 8  20323923.020 7 108757386.150 8  84588996.944 7
R18  19096369.039 8  19096373.617 7 101937716.244 8  79285075.045 7
R19  22051479.008 6  22051481.980 6 117960536.892 6  91747527.384 6
> 2025 06 15 12 36 55.0000000  0 21
C12  22609975.844 7  22609972.012 7 117736074.068 7  91041241.932 7
C19  22946303.430 7                 119487421.958 7
C21  25476041.586 6                 132660435.591 6
C22  21665739.867 8                 112819190.029 8
E05  23298355.273 8  23298358.930 8 122433687.049 8  92620300.751 8
E06  25604729.828 5  25604730.996 7 134553732.07815 101789050.01217
E09  24609741.609 8  24609744.098 8 129325061.638 8  97833578.948 8
E34  23551404.141 8  23551406.477 9 123763461.944 8  93626265.614 9
E36  24253597.789 8  24253600.781 8 127453513.419 8  96417767.457 8
G01  20213867.141 7                  20213871.832 8 106224588.676 7                  82772426.163 8
G02  20808133.250 8  20808134.543 6                 109347475.241 8  85205831.134 6
G03  20963176.711 8                  20963183.344 7 110162235.021 8                  85840735.334 7
G08  23394780.039 6                  23394790.152 6 122940419.166 6                  95797570.658 6
G17  23138687.531 6                  23138694.070 6 121594620.090 6                  94749080.194 6
G32  22530182.063 6                  22530188.852 7 118396895.857 6                  92257298.527 7
R02  20025193.008 8  20025197.477 7 106858262.951 8  83111935.189 7
R03  19602849.578 8  19602855.012 8 104935587.633 8  81616599.165 8
R04  23081594.227 6  23081602.012 6 123600896.740 6  96134040.476 6
R17  20325189.750 8  20325194.188 7 108764191.149 8  84594289.697 7
R18  19094279.859 8  19094283.324 7 101926558.877 8  79276397.084 7
R19  22046536.844 6  22046540.805 6 117934101.705 6  91726966.659 6
> 2025 06 15 12 37  0.0000000  0 21
C12  22606910.906 7  22606907.016 7 117720112.692 7  91028899.581 7
C19  22946818.734 7                 119490105.557 7
C21  25471543.914 6                 132637022.084 6
C22  21663165.344 8                 112805786.363 8
E05  23294717.859 8  23294721.820 8 122414574.180 8  92605842.009 8
E06  25604956.133 4  25604955.813 7 134554913.49214 101789943.72717
E09  24608786.219 8  24608788.574 8 129320040.095 8  97829780.173 8
E34  23549052.258 8  23549054.563 9 123751102.446 8  93616915.740 9
E36  24253675.773 8  24253678.941 8 127453924.153 8  96418078.183 8
G01  20211583.211 7                  20211587.922 8 106212586.181 7                  82763073.586 8
G02  20807696.484 8  20807697.582 6                 109345179.156 8  85204041.974 6
G03  20959647.086 7                  20959653.695 7 110143684.853 7                  85826280.655 7
G08  23396820.531 6                  23396830.832 6 122951141.681 6                  95805925.837 6
G17  23135169.555 6                  23135175.410 6 121576127.947 6                  94734670.735 6
G32  22530790.734 6                  22530797.098 7 118400092.995 6                  92259789.826 7
R02  20025994.398 8  20025998.742 7 106862541.573 8  83115263.003 7
R03  19599565.695 8  19599569.938 8 104918003.852 8  81602922.869 8
R04  23076205.125 6  23076213.648 6 123572047.171 6  96111601.956 6
R17  20326463.898 8  20326469.008 7 108771011.198 8  84599594.148 7
R18  19092192.930 8  19092196.914 7 101915420.041 8  79267733.552 7
R19  22041597.367 6  22041599.832 6 117907672.717 6  91706410.772 6
> 2025 06 15 12 37  5.0000000  0 20
C12  22603848.219 7  22603844.504 7 117704163.959 7  91016566.999 7
C19  22947336.320 7                 119492800.313 7
C21  25467049.719 6                 132613615.092 6
C22  21660594.242 8                 112792396.832 8
E05  23291082.773 8  23291086.762 8 122395471.968 8  92591391.322 8
E09  24607834.086 8  24607835.809 8 129315033.002 8  97825992.327 8
E34  23546701.852 8  23546704.266 9 123738751.667 8  93607572.460 9
E36  24253756.086 8  24253758.766 8 127454343.635 8  96418395.516 8
G01  20209301.992 7                  20209306.363 8 106200597.515 7                  82753731.754 8
G02  20807261.695 8  20807263.133 6                 109342896.072 8  85202262.945 6
G03  20956119.063 7                  20956126.336 7 110125146.753 7                  85811835.386 7
G08  23398862.398 7                  23398872.102 6 122961870.567 7                  95814285.993 6
G17  23131652.953 6                  23131659.816 6 121557649.259 6                  94720271.750 6
G32  22531400.000 6                  22531408.023 7 118403304.618 6                  92262292.425 7
R02  20026799.727 8  20026804.621 7 106866838.370 8  83118604.960 7
R03  19596283.867 8  19596288.934 8 104900440.459 8  81589262.487 8
R04  23070821.172 6  23070827.934 5 123543205.399 6  96089169.595 5
R17  20327740.734 8  20327746.035 7 108777847.818 8  84604911.513 7
R18  19090109.906 8  19090113.902 7 101904301.392 8  79259085.711 7
R19  22036657.625 6  22036660.488 6 117881251.194 6  91685860.810 6
> 2025 06 15 12 37 10.0000000  0 20
C12  22600787.539 7  22600784.227 7 117688228.660 7  91004244.812 7
C19  22947856.266 7                 119495507.050 7
C21  25462555.492 6                 132590215.375 6
C22  21658025.773 8                 112779022.245 8
E05  23287450.141 7  23287453.949 8 122376381.249 7  92576949.333 8
E09  24606884.195 8  24606885.898 9 129310041.193 8  97822216.060 9
E34  23544353.547 8  23544355.832 9 123726410.503 8  93598236.449 9
E36  24253837.680 8  24253840.457 8 127454772.724 8  96418720.118 8
G01  20207023.469 7                  20207027.926 8 106188623.550 7                  82744401.404 8
G02  20806829.953 8  20806831.262 6                 109340626.883 8  85200494.742 6
G03  20952594.344 7                  20952600.781 7 110106621.581 7                  85797400.189 7
G08  23400905.133 7                  23400915.379 6 122972606.747 7                  95822651.790 6
G17  23128138.742 6                  23128145.465 6 121539184.972 6                  94705884.004 6
G32  22532014.688 6                  22532022.469 7 118406531.604 6                  92264806.970 7
R02  20027608.398 8  20027612.914 7 106871153.889 8  83121961.463 7
R03  19593006.984 8  19593012.090 8 104882898.536 8  81575618.766 8
R04  23065436.266 6  23065444.090 6 123514372.215 6  96066743.874 6
R17  20329021.727 8  20329027.551 7 108784702.000 8  84610242.541 7
R18  19088030.992 8  19088034.930 7 101893203.853 8  79250454.313 7
R19  22031720.281 6  22031723.520 5 117854838.532 6  91665317.670 5
> 2025 06 15 12 37 15.0000000  0 20
C12  22597730.711 7  22597726.648 7 117672307.998 7  90991933.945 7
C19  22948378.094 7                 119498226.947 7
C21  25458064.680 6                 132566824.147 6
C22  21655460.531 7                 112765663.789 7
E05  23283819.984 7  23283823.523 8 122357303.214 7  92562516.936 8
E09  24605937.180 8  24605939.055 8 129305065.840 8  97818452.250 8
E34  23542006.984 8  23542009.398 9 123714080.082 8  93588908.564 9
E36  24253921.297 8  24253924.172 8 127455212.597 8  96419052.878 8
G01  20204748.148 7                  20204752.211 8 106176665.451 7                  82735083.406 8
G02  20806401.219 7  20806402.094 6                 109338372.707 7  85198738.237 6
G03  20949071.219 7                  20949077.875 7 110088110.468 7                  85782975.952 7
G08  23402949.531 6                  23402960.430 7 122983351.314 6                  95831024.180 7
G17  23124628.305 6                  23124634.172 6 121520736.235 6                  94691508.363 6
G32  22532632.313 6                  22532639.305 7 118409775.093 6                  92267334.345 7
R02  20028420.930 8  20028425.508 7 106875489.494 8  83125333.585 7
R03  19589734.602 8  19589739.414 8 104865379.145 8  81561992.560 8
R04  23060050.164 5  23060061.023 5 123485549.062 5  96044325.819 5
R17  20330306.945 8  20330311.762 7 108791574.837 8  84615588.067 7
R18  19085955.266 8  19085959.836 7 101882128.569 8  79241840.200 7
R19  22026783.844 6  22026788.133 6 117828435.409 6  91644781.936 6
> 2025 06 15 12 37 20.0000000  0 20
C12  22594675.148 7  22594671.656 7 117656400.025 7  90979632.892 7
C19  22948902.641 7                 119500958.023 7
C21  25453573.266 6                 132543439.469 6
C22  21652897.680 8                 112752319.528 8
E05  23280192.289 7  23280195.160 8 122338235.945 7  92548092.672 8
E09  24604993.375 8  24604994.969 8 129300105.022 8  97814699.427 8
E34  23539662.203 8  23539664.617 9 123701758.482 8  93579587.349 9
E36  24254006.648 8  24254009.594 8 127455661.277 8  96419392.303 8
G01  20202475.063 7                  20202479.258 8 106164721.258 7                  82725776.241 8
G02  20805974.477 8  20805975.223 6                 109336131.615 8  85196991.925 6
G03  20945551.469 7                  20945557.629 7 110069611.500 7                  85768561.164 7
G08  23404995.836 6                  23405006.070 7 122994102.290 6                  95839401.534 7
G17  23121121.438 6                  23121126.332 6 121502301.050 6                  94677143.321 6
G32  22533250.992 6                  22533259.574 7 118413033.075 6                  92269873.029 7
R02  20029236.992 8  20029241.840 7 106879842.845 8  83128719.493 7
R03  19586465.773 8  19586470.816 8 104847880.195 8  81548382.274 8
R04  23054669.648 5  23054680.734 5 123456733.813 5  96021914.039 5
R17  20331593.570 8  20331598.906 7 108798464.168 8  84620946.423 7
R18  19083885.000 8  19083888.961 7 101871073.597 8  79233241.872 7
R19  22021849.406 6  22021853.891 6 117802040.112 6  91624252.258 6
> 2025 06 15 12 37 25.0000000  0 21
C12  22591622.359 7  22591618.992 7 117640503.118 7  90967340.393 7
C19  22949428.477 7                 119503698.652 7
C21  25449083.695 6                 132520059.722 6
C22  21650337.867 7                 112738987.820 7
E05  23276565.336 7  23276568.551 8 122319177.738 7  92533675.270 8
E06  25606123.227 5                 134561053.91015
E09  24604051.523 8  24604053.348 9 129295157.039 8  97810956.311 9
E34  23537318.742 8  23537321.207 9 123689444.025 8  93570271.551 9
E36  24254093.305 8  24254096.359 8 127456117.147 8  96419737.151 8
G01  20200204.438 7                  20200208.758 8 106152789.350 7                  82716478.649 8
G02  20805550.258 8  20805550.941 6                 109333901.944 8  85195254.523 6
G03  20942032.836 7                  20942039.668 7 110051123.000 7                  85754154.549 7
G08  23407042.203 6                  23407052.766 7 123004858.038 6                  95847782.628 7
G17  23117615.352 6                  23117620.563 6 121483877.999 6                  94662787.681 6
G32  22533872.906 6                  22533881.699 7 118416303.928 6                  92272421.763 7
R02  20030055.766 8  20030060.836 7 106884212.537 8  83132118.148 7
R03  19583199.844 8  19583205.125 8 104830400.264 8  81534786.795 8
R04  23049292.742 5  23049301.168 5 123427924.770 5  95999507.022 5
R17  20332883.242 8  20332889.688 7 108805368.641 8  84626316.574 7
R18  19081817.625 8  19081821.582 7 101860037.217 8  79224658.025 7
R19  22016916.313 6  22016920.684 6 117775651.012 6  91603727.428 6
> 2025 06 15 12 37 30.0000000  0 21
C12  22588572.055 7  22588568.391 8 117624616.539 7  90955055.896 8
C19  22949956.336 7                 119506448.075 7
C21  25444595.375 6                 132496684.124 6
C22  21647780.133 7                 112725667.944 7
E05  23272939.797 8  23272943.484 8 122300127.889 8  92519264.190 8
E06  25606359.539 5  25606354.844 7 134562306.507 5 101795507.56917
E09  24603112.188 8  24603114.055 9 129290221.189 8  97807222.374 9
E34  23534976.633 8  23534979.074 9 123677135.989 8  93560960.601 9
E36  24254180.945 8  24254184.367 8 127456579.439 8  96420086.861 8
G01  20197936.422 7                  20197940.484 8 106140868.960 7                  82707190.044 8
G02  20805127.984 8  20805128.527 6                 109331682.980 8  85193525.466 6
G03  20938516.406 7                  20938523.520 7 110032644.282 7                  85739755.563 7
G08  23409089.891 7                  23409099.813 7 123015617.818 7                  95856166.833 7
G17  23114111.430 6                  23114116.641 6 121465466.045 6                  94648440.701 6
G32  22534498.875 6                  22534506.617 7 118419586.889 6                  92274979.933 7
R02  20030877.852 8  20030882.020 7 106888597.799 8  83135528.925 7
R03  19579937.484 8  19579943.109 8 104812938.485 8  81521205.411 8
R04  23043917.055 5  23043921.496 5 123399121.140 5  95977104.207 5
R17  20334176.758 8  20334182.156 7 108812287.327 8  84631697.773 7
R18  19079753.797 8  19079757.109 7 101849018.765 8  79216088.113 7
R19  22011983.125 6  22011988.559 6 117749267.223 6  91583206.754 6
> 2025 06 15 12 37 35.0000000  0 21
C12  22585523.266 7  22585519.547 8 117608741.590 7  90942780.382 8
C19  22950486.820 7                 119509207.563 7
C21  25440107.516 6                 132473314.056 6
C22  21645224.164 7                 112712361.170 7
E05  23269316.641 8  23269320.289 8 122281087.690 8  92504860.411 8
E06  25606592.695 5  25606595.270 7 134563570.058 5 101796463.417 7
E09  24602175.438 8  24602177.297 8 129285298.725 8  97803498.571 8
E34  23532636.188 8  23532638.422 9 123664835.689 8  93551655.501 9
E36  24254270.711 8  24254273.797 8 127457049.446 8  96420442.416 8
G01  20195670.484 7                  20195674.645 8 106128961.413 7                  82697911.437 8
G02  20804708.273 8  20804708.680 6                 109329476.004 8  85191805.745 6
G03  20935002.633 7                  20935009.355 7 110014176.601 7                  85725365.160 7
G08  23411139.031 7                  23411148.352 6 123026382.859 7                  95864555.166 6
G17  23110610.117 6                  23110614.820 5 121447066.644 6                  94634103.518 5
G32  22535123.891 6                  22535133.949 6 118422883.316 6                  92277548.604 6
R02  20031702.977 8  20031706.473 7 106892999.771 8  83138952.665 7
R03  19576679.859 8  19576684.930 8 104795496.219 8  81507639.225 8
R04  23038538.328 5  23038544.230 5 123370324.377 5  95954706.819 5
R17  20335473.297 8  20335478.582 7 108819221.556 8  84637091.027 7
R18  19077692.492 8  19077696.672 7 101838019.469 8  79207533.131 7
R19  22007052.930 6  22007057.910 7 117722890.150 6  91562691.256 7
> 2025 06 15 12 37 40.0000000  0 21
C12  22582476.469 7  22582473.238 8 117592878.041 7  90930513.699 8
C19  22951019.359 7                 119511976.902 7
C21  25435621.156 6                 132449949.277 6
C22  21642671.258 7                 112699067.282 7
E05  23265695.117 8  23265698.859 8 122262056.932 8  92490463.774 8
E06  25606833.164 5  25606837.691 7 134564844.291 5 101797427.361 7
E09  24601241.016 8  24601243.051 8 129280389.470 8  97799784.747 8
E34  23530296.570 8  23530299.168 9 123652542.892 8  93542356.079 9
E36  24254361.406 8  24254364.656 8 127457526.961 8  96420803.642 8
G01  20193406.648 8                  20193411.020 8 106117066.497 8                  82688642.657 8
G02  20804290.156 8  20804291.176 6                 109327280.822 8  85190095.203 6
G03  20931490.242 8                  20931497.305 7 109995719.788 8                  85710983.228 7
G08  23413188.094 7                  23413198.207 6 123037153.031 7                  95872947.490 6
G17  23107111.641 6                  23107115.887 5 121428679.582 6                  94619775.977 5
G32  22535755.055 6                  22535763.871 6 118426192.858 6                  92280127.409 6
R02  20032530.438 8  20032534.684 7 106897418.264 8  83142389.260 7
R03  19573424.680 8  19573430.383 8 104778073.162 8  81494087.955 8
R04  23033157.805 5  23033166.578 5 123341534.099 5  95932314.462 5
R17  20336771.609 8  20336776.969 7 108826170.933 8  84642496.092 7
R18  19075635.453 8  19075639.852 7 101827039.189 8  79198992.905 7
R19  22002122.945 6  22002128.578 7 117696519.602 6  91542180.793 7
> 2025 06 15 12 37 45.0000000  0 21
C12  22579432.930 7  22579429.457 7 117577026.339 7  90918256.161 7
C19  22951552.977 7                 119514756.489 7
C21  25431135.023 6                 132426590.136 6
C22  21640121.000 8                 112685786.694 8
E05  23262075.594 7  23262079.305 8 122243036.040 7  92476074.612 8
E06  25607075.289 5  25607082.137 7 134566129.59915 101798399.74917
E09  24600309.813 8  24600311.445 8 129275493.805 8  97796081.209 8
E34  23527958.984 8  23527961.453 9 123640258.021 8  93533062.658 9
E36  24254453.883 8  24254457.020 8 127458012.383 8  96421170.860 8
G01  20191145.703 7                  20191149.957 8 106105184.604 7                  82679384.046 8
G02  20803875.133 7  20803875.848 6                 109325097.814 7  85188394.152 6
G03  20927980.148 8                  20927987.176 7 109977274.211 8                  85696610.051 7
G08  23415238.258 6                  23415248.750 6 123047928.629 6                  95881344.045 6
G17  23103614.766 6                  23103619.047 6 121410305.268 6                  94605458.323 6
G32  22536388.492 6                  22536396.035 6 118429516.009 6                  92282716.869 6
R02  20033362.047 8  20033366.301 7 106901853.871 8  83145839.182 7
R03  19570173.383 8  19570178.863 8 104760669.625 8  81480551.879 8
R04  23027784.695 5  23027791.988 6 123312751.066 5  95909927.670 6
R17  20338073.531 8  20338078.523 7 108833136.060 8  84647913.418 7
R18  19073582.758 8  19073586.484 7 101816078.362 8  79190467.804 7
R19  21997196.719 6  21997199.590 6 117670155.970 6  91521675.769 6
> 2025 06 15 12 37 50.0000000  0 20
C12  22576391.148 7  22576387.891 8 117561185.877 7  90906007.320 8
C19  22952088.445 7                 119517545.715 7
C21  25426650.141 6                 132403236.085 6
C22  21637573.195 8                 112672518.758 8
E05  23258458.086 8  23258461.469 8 122224024.372 8  92461692.425 8
E09  24599380.219 8  24599382.320 8 129270611.088 8  97792387.473 8
E34  23525622.586 8  23525625.141 9 123627980.450 8  93523774.763 9
E36  24254547.539 8  24254550.758 8 127458505.096 8  96421543.585 8
G01  20188887.359 7                  20188891.043 8 106093315.132 7                  82670135.107 8
G02  20803461.492 8  20803462.773 6                 109322926.318 8  85186702.088 6
G03  20924472.227 8                  20924479.191 7 109958839.273 8                  85682245.174 7
G08  23417290.461 7                  23417300.156 6 123058709.105 7                  95889744.386 6
G17  23100121.781 6                  23100124.566 5 121391943.015 6                  94591150.096 5
G32  22537023.102 6                  22537030.379 6 118432852.065 6                  92285316.378 6
R02  20034195.859 8  20034200.496 7 106906305.622 8  83149301.658 7
R03  19566925.383 8  19566931.785 8 104743285.350 8  81467030.808 8
R04  23022409.125 5  23022419.402 6 123283974.427 5  95887545.901 6
R17  20339377.109 8  20339383.070 7 108840116.303 8  84653342.488 7
R18  19071533.313 8  19071536.992 7 101805136.355 8  79181957.342 7
R19  21992268.852 7  21992272.723 6 117643798.605 7  91501175.635 6
> 2025 06 15 12 37 55.0000000  0 20
C12  22573350.789 7  22573348.082 8 117545358.474 7  90893768.556 8
C19  22952626.000 7                 119520346.410 7
C21  25422165.164 6                 132379888.970 6
C22  21635028.055 8                 112659265.377 8
E05  23254842.250 8  23254845.727 8 122205023.838 8  92447318.646 8
E09  24598453.734 8  24598455.996 8 129265743.209 8  97788704.940 8
E34  23523287.945 8  23523290.512 9 123615712.048 8  93514493.793 9
E36  24254643.164 8  24254646.188 8 127459006.962 8  96421923.243 8
G01  20186630.891 7                  20186635.680 8 106081459.943 7                  82660897.315 8
G02  20803050.977 8  20803052.047 6                 109320768.225 8  85185020.461 6
G03  20920966.500 8                  20920973.477 7 109940416.837 8                  85667890.042 7
G08  23419343.766 7                  23419353.574 7 123069496.228 7                  95898149.901 7
G17  23096629.211 6                  23096632.746 5 121373594.850 6                  94576852.861 5
G32  22537661.344 6                  22537667.563 6 118436202.902 6                  92287927.391 6
R02  20035033.563 8  20035038.422 7 106910775.673 8  83152778.329 7
R03  19563682.148 8  19563687.965 8 104725921.952 8  81453525.935 8
R04  23017036.063 5  23017045.523 6 123255205.938 5  95865170.490 6
R17  20340685.039 8  20340690.602 7 108847113.445 8  84658784.701 7
R18  19069485.992 8  19069490.461 7 101794214.961 8  79173462.938 7
R19  21987340.219 6  21987347.078 6 117617449.499 6  91480681.912 6
> 2025 06 15 12 38  0.0000000  0 21
C12  22570313.813 7  22570311.281 8 117529543.721 7  90881539.605 8
C19  22953165.898 7                 119523158.117 7
C21  25417683.844 6                 132356548.322 6
C22  21632485.680 8                 112646026.071 8
E05  23251228.359 8  23251232.000 8 122186033.974 8  92432952.940 8
E06  25607825.148 4                 134570049.95414
E09  24597530.148 8  24597532.414 8 129260889.703 8  97785033.310 8
E34  23520955.125 8  23520957.547 9 123603452.360 8  93505219.426 9
E36  24254740.484 8  24254743.363 8 127459517.549 8  96422309.483 8
G01  20184378.156 7                  20184382.129 8 106069618.597 7                  82651670.296 8
G02  20802643.094 8  20802644.035 6                 109318623.118 8  85183348.952 6
G03  20917463.117 8                  20917470.305 7 109922006.456 8                  85653544.297 7
G08  23421396.750 6                  23421407.172 7 123080289.577 6                  95906560.292 7
G17  23093140.148 6                  23093143.621 6 121355260.142 6                  94562566.139 6
G32  22538301.523 6                  22538307.824 6 118439568.046 6                  92290549.589 6
R02  20035875.016 8  20035879.262 7 106915263.447 8  83156268.819 7
R03  19560442.539 8  19560447.863 8 104708578.990 8  81440036.962 8
R04  23011668.055 5  23011675.301 5 123226445.448 5  95842801.229 5
R17  20341995.672 8  20342001.855 7 108854127.061 8  84664239.728 7
R18  19067444.344 8  19067448.453 7 101783313.843 8  79164984.305 7
R19  21982416.492 6  21982422.539 6 117591108.209 6  91460194.237 6
> 2025 06 15 12 38  5.0000000  0 21
C12  22567279.563 7  22567276.344 8 117513740.985 7  90869319.932 8
C19  22953708.195 7                 119525980.172 7
C21  25413201.055 6                 132333213.527 6
C22  21629945.938 8                 112632800.224 8
E05  23247617.141 8  23247620.191 8 122167054.130 8  92418594.820 8
E06  25608078.992 5  25608082.383 7 134571381.464 5 101802374.76417
E09  24596609.281 8  24596611.500 8 129256049.914 8  97781372.027 8
E34  23518623.664 8  23518626.156 9 123591200.758 8  93495951.170 9
E36  24254839.016 8  24254842.012 8 127460036.149 8  96422701.800 8
G01  20182126.648 7                  20182131.203 8 106057790.461 7                  82642453.560 8
G02  20802237.172 8  20802238.320 6                 109316490.313 8  85181687.018 6
G03  20913961.242 7                  20913969.148 7 109903607.482 7                  85639207.441 7
G08  23423451.609 6                  23423462.227 7 123091088.497 6                  95914975.046 7
G17  23089653.648 6                  23089658.234 6 121336938.396 6                  94548289.475 6
G32  22538944.359 6                  22538951.000 6 118442946.805 6                  92293182.416 6
R02  20036719.094 8  20036722.852 7 106919768.241 8  83159772.559 7
R03  19557206.164 8  19557211.957 7 104691255.837 8  81426563.410 7
R04  23006299.477 5  23006304.820 5 123197692.130 5  95820437.577 5
R17  20343309.102 8  20343314.684 7 108861156.396 8  84669706.981 7
R18  19065405.914 8  19065409.918 7 101772432.285 8  79156520.863 7
R19  21977495.555 6  21977500.301 6 117564774.123 6  91439712.132 6
> 2025 06 15 12 38 10.0000000  0 21
C12  22564246.461 7  22564243.668 8 117497951.051 7  90857110.146 8
C19  22954251.688 7                 119528813.393 7
C21  25408721.531 6                 132309885.384 6
C22  21627408.320 8                 112619588.604 8
E05  23244007.016 8  23244010.523 8 122148085.111 8  92404244.896 8
E06  25608335.016 5  25608337.715 7 134572724.932 5 101803391.047 7
E09  24595690.969 8  24595693.320 8 129251224.618 8  97777721.731 8
E34  23516293.852 8  23516296.434 8 123578958.021 8  93486689.627 8
E36  24254939.359 8  24254942.355 8 127460563.619 8  96423100.825 8
G01  20179878.891 7                  20179883.145 8 106045976.323 7                  82633247.722 8
G02  20801833.328 8  20801834.816 6                 109314370.605 8  85180035.290 6
G03  20910463.219 8                  20910469.695 7 109885220.691 8                  85624880.071 7
G08  23425507.633 6                  23425518.027 7 123101893.733 6                  95923394.687 7
G17  23086168.602 6                  23086174.766 5 121318630.323 6                  94534023.450 5
G32  22539589.875 6                  22539597.211 6 118446340.072 6                  92295826.514 6
R02  20037566.438 8  20037569.875 7 106924290.780 8  83163290.102 7
R03  19553974.398 8  19553979.875 8 104673953.281 8  81413105.854 8
R04  23000933.250 5  23000937.254 5 123168946.915 5  95798080.310 5
R17  20344625.930 8  20344631.773 7 108868202.466 8  84675187.252 7
R18  19063370.945 8  19063375.340 7 101761571.124 8  79148073.308 7
R19  21972573.156 7  21972578.434 6 117538447.870 7  91419236.208 6
> 2025 06 15 12 38 15.0000000  0 21
C12  22561216.266 7  22561213.316 8 117482172.195 7  90844908.942 8
C19  22954797.758 7                 119531656.049 7
C21  25404243.180 6                 132286562.187 6
C22  21624874.133 7                 112606389.496 7
E05  23240399.305 8  23240402.574 8 122129125.211 8  92389901.868 8
E06  25608592.906 6  25608595.355 7 134574078.700 6 101804415.169 7
E09  24594775.164 8  24594777.520 8 129246412.124 8  97774081.125 8
E34  23513965.609 8  23513968.098 9 123566722.465 8  93477433.513 9
E36  24255041.414 8  24255044.125 8 127461098.212 8  96423505.245 8
G01  20177633.266 8                  20177637.551 8 106034174.487 8                  82624051.489 8
G02  20801432.625 8  20801433.602 6                 109312262.274 8  85178392.443 6
G03  20906965.797 7                  20906972.926 7 109866844.427 7                  85610560.918 7
G08  23427564.898 7                  23427574.887 7 123112703.673 7                  95931817.990 7
G17  23082686.125 5                  23082693.988 6 121300334.357 5                  94519766.920 6
G32  22540237.438 6                  22540245.141 6 118449746.077 6                  92298480.548 6
R02  20038417.336 8  20038421.129 7 106928829.600 8  83166820.290 7
R03  19550745.023 8  19550750.566 7 104656669.781 8  81399663.141 7
R04  22995566.422 6  22995568.430 5 123140208.041 6  95775727.835 5
R17  20345945.172 8  20345950.930 7 108875263.303 8  84680679.025 7
R18  19061340.055 8  19061344.105 7 101750728.680 8  79139640.297 7
R19  21967653.242 6  21967657.625 6 117512127.965 6  91398765.175 6
> 2025 06 15 12 38 20.0000000  0 21
C12  22558188.344 7  22558185.434 8 117466405.867 7  90832717.424 8
C19  22955346.023 7                 119534509.478 7
C21  25399766.805 6                 132263245.262 6
C22  21622342.539 7                 112593204.318 7
E05  23236793.750 8  23236796.645 8 122110175.822 8  92375566.786 8
E06  25608852.352 6  25608855.391 7 134575444.196 6 101805448.172 7
E09  24593862.031 8  24593864.469 9 129241613.822 8  97770451.238 9
E34  23511638.773 8  23511641.352 9 123554495.459 8  93468183.860 9
E36  24255144.438 8  24255147.477 8 127461641.332 8  96423916.117 8
G01  20175390.164 7                  20175394.121 8 106022386.317 7                  82614865.903 8
G02  20801033.852 8  20801034.820 6                 109310166.715 8  85176759.529 6
G03  20903471.164 7                  20903478.254 7 109848480.039 7                  85596251.011 7
G08  23429623.156 7                  23429633.285 7 123123519.572 7                  95940245.931 7
G17  23079208.461 5                  23079215.613 6 121282051.844 5                  94505520.801 6
G32  22540887.125 5                  22540896.242 7 118453166.224 5                  92301145.592 7
R02  20039271.219 8  20039275.008 7 106933385.757 8  83170363.972 7
R03  19547520.383 8  19547525.988 8 104639406.556 8  81386236.194 8
R04  22990197.945 5  22990204.137 5 123111477.073 5  95753381.570 5
R17  20347267.109 8  20347273.332 7 108882340.412 8  84686183.428 7
R18  19059312.820 8  19059317.145 7 101739906.365 8  79131222.917 7
R19  21962735.914 7  21962739.477 7 117485815.628 7  91378300.018 7
> 2025 06 15 12 38 25.0000000  0 21
C12  22555163.055 7  22555159.750 8 117450651.399 7  90820535.070 8
C19  22955895.758 7                 119537373.112 7
C21  25395290.234 6                 132239934.140 6
C22  21619812.898 7                 112580032.421 7
E05  23233189.391 8  23233192.672 8 122091236.326 8  92361239.194 8
E06  25609115.016 6  25609117.492 7 134576820.726 6 101806489.525 7
E09  24592952.172 8  24592953.949 8 129236829.074 8  97766831.605 8
E34  23509313.500 8  23509316.164 8 123542276.388 8  93458940.217 8
E36  24255249.406 8  24255252.359 8 127462192.364 8  96424332.964 8
G01  20173148.641 7                  20173153.355 8 106010611.219 7                  82605690.516 8
G02  20800637.031 7  20800638.316 6                 109308083.352 7  85175136.129 6
G03  20899978.539 8                  20899985.859 7 109830126.909 8                  85581949.874 7
G08  23431682.398 7                  23431692.559 7 123134340.813 7                  95948678.051 7
