     3.04           OBSERVATION DATA    Mixed(MIXED)        RINEX VERSION / TYPE
cnvtToRINEX 3.14.0  convertToRINEX OPR  20250615 162934 UTC PGM / RUN BY / DATE 
----------------------------------------------------------- COMMENT             
33                                                          MARKER NAME         
33                                                          MARKER NUMBER       
GEODETIC                                                    MARKER TYPE         
GNSS Observer       Trimble                                 OBSERVER / AGENCY   
5849S10870          Geo Explorer 3      5.51                REC # / TYPE / VERS 
49S10870            UNKNOWN EXT     NONE                    ANT # / TYPE        
  3914288.4931  1190560.2971  4877465.3313                  APPROX POSITION XYZ 
        1.3290        0.0000        0.0000                  ANTENNA: DELTA H/E/N
G    6 C1C C2W C2X L1C L2W L2X                              SYS / # / OBS TYPES 
C    4 C2I C7I L2I L7I                                      SYS / # / OBS TYPES 
R    4 C1C C2C L1C L2C                                      SYS / # / OBS TYPES 
E    4 C1X C8X L1X L8X                                      SYS / # / OBS TYPES 
     5.000                                                  INTERVAL            
  2025     6    15    14    39   35.0000000     GPS         TIME OF FIRST OBS   
  2025     6    15    15    19   40.0000000     GPS         TIME OF LAST OBS    
     0                                                      RCV CLOCK OFFS APPL 
  6 R03  5 R04  6 R05  1 R18 -3 R19  3 R20  2               GLONASS SLOT / FRQ #
G L2X -0.25000                                              SYS / PHASE SHIFT   
R L2C -0.25000                                              SYS / PHASE SHIFT   
    18                                                      LEAP SECONDS        
    26                                                      # OF SATELLITES     
   C06   482   482   482   482                              PRN / # OF OBS      
   C11   449   446   449   446                              PRN / # OF OBS      
   C12   482   482   482   482                              PRN / # OF OBS      
   C16   482   482   482   482                              PRN / # OF OBS      
   C21   482     0   482     0                              PRN / # OF OBS      
   C22   482     0   482     0                              PRN / # OF OBS      
   E03   482   482   482   482                              PRN / # OF OBS      
   E05   482   482   482   482                              PRN / # OF OBS      
   E13   349   349   349   349                              PRN / # OF OBS      
   E15   482   482   482   482                              PRN / # OF OBS      
   E34   482   482   482   482                              PRN / # OF OBS      
   G01   482     0   482   482     0   482                  PRN / # OF OBS      
   G02   195   195     0   195   195     0                  PRN / # OF OBS      
   G03   482     0   482   482     0   482                  PRN / # OF OBS      
   G04   482     0   482   482     0   482                  PRN / # OF OBS      
   G06   482     0   482   482     0   482                  PRN / # OF OBS      
   G09   482     0   482   482     0   482                  PRN / # OF OBS      
   G17   300     5   234   287     5   234                  PRN / # OF OBS      
   G19   469   440     0   460   440     0                  PRN / # OF OBS      
   G31   482     0   482   482     0   482                  PRN / # OF OBS      
   R03   482   482   482   482                              PRN / # OF OBS      
   R04   482   482   482   482                              PRN / # OF OBS      
   R05   450   444   448   440                              PRN / # OF OBS      
   R18   409   409   409   409                              PRN / # OF OBS      
   R19   482   482   482   482                              PRN / # OF OBS      
   R20   482   482   482   482                              PRN / # OF OBS      
DBHZ                                                        SIGNAL STRENGTH UNIT
                                                            END OF HEADER       
>                              2  1
              *** Start of Kinematic Data ***               COMMENT             
> 2025 06 15 14 39 35.0000000  0 23
C06  38258491.391 6  38258488.234 7 199222011.13616 154051091.77517
C11  23351663.102 5  23351660.582 7 121598229.48915  94027458.42417
C12  22807085.555 6  22807082.258 7 118762482.58216  91834618.42817
C16  38842109.805 6  38842111.387 6 202261060.17416 156401074.89616
C21  22229833.922 8                 115756578.02318
C22  22215713.617 7                 115683052.05717
E03  24484681.375 8  24484683.969 8 128667867.17618  97336416.34018
E05  22092185.922 8  22092187.027 8 116095217.51318  87825283.35818
E15  24066962.938 8  24066965.363 8 126472741.13518  95675818.65718
E34  23792653.734 8  23792655.473 8 125031237.18218  94585326.61718
G01  21548847.141 7                  21548851.332 7 113239950.05417                  88238942.77417
G03  20034143.258 8                  20034149.266 7 105280133.68018                  82036492.63917
G04  20569035.781 7                  20569040.488 8 108091009.31317                  84227149.63818
G06  23473855.992 6                  23473864.859 7 123355934.16616                  96121909.57717
G09  22768389.977 6                  22768396.207 6 119648681.76616                  93233160.09616
G17  22890327.227 5                  22890331.285 5 120289477.69015                  93732105.17115
G19  22159506.617 5  22159506.285 2                 116448982.65715  90739463.53812
G31  22195178.977 7                  22195183.516 7 116636451.92517                  90885562.45317
R03  20360950.219 8  20360956.227 7 108993768.32718  84772867.88517
R04  19302579.508 8  19302582.469 7 103364434.71418  80394744.12617
R18  21818319.438 8  21818323.996 7 116467656.92318  90585731.71717
R19  19393109.016 8  19393110.246 7 103740053.98118  80686774.78917
R20  21503430.102 5  21503435.773 7 114988536.51015  89435537.18817
> 2025 06 15 14 39 40.0000000  0 23
C06  38256795.844 6  38256792.281 6 199213180.468 6 154044263.354 6
C11  23349100.117 6  23349097.898 7 121584886.787 6  94017140.985 7
C12  22807643.758 7  22807640.473 7 118765389.503 7  91836866.228 7
C16  38840564.383 6  38840565.621 6 202253010.922 6 156394850.708 6
C21  22227272.023 8                 115743237.115 8
C22  22215920.570 7                 115684127.868 7
E03  24481279.805 8  24481282.500 8 128649992.314 8  97322894.133 8
E05  22091390.031 8  22091391.000 8 116091034.974 8  87822119.299 8
E15  24064211.063 8  24064214.039 8 126458282.937 8  95664881.134 8
E34  23792631.438 8  23792633.098 8 125031119.915 8  94585237.904 8
G01  21550043.938 7                  21550048.742 7 113246241.925 7                  88243845.512 7
G03  20033595.000 8                  20033600.191 8 105277249.334 8                  82034245.108 8
G04  20565989.367 7                  20565994.789 8 108075003.193 7                  84214677.344 8
G06  23469392.148 6                  23469400.965 7 123332475.971 6                  96103630.483 7
G09  22763768.625 6                  22763775.445 6 119624402.135 6                  93214240.952 6
G17  22890689.836 5                  22890693.633 5 120291382.448 5                  93733589.388 5
G19  22158349.984 5  22158350.461 2                 116442908.711 5  90734730.546 2
G31  22193785.914 6                  22193790.574 7 116629132.536 6                  90879859.033 7
R03  20361934.781 8  20361940.703 7 108999036.984 8  84776965.705 7
R04  19300427.391 8  19300430.574 7 103352910.046 8  80385780.509 7
R18  21820819.977 8  21820825.031 7 116481005.957 8  90596114.274 7
R19  19392464.156 8  19392465.863 7 103736606.340 8  80684093.293 7
R20  21498843.953 5  21498850.477 7 114964017.022 5  89416466.478 7
>                              3  5
              *** Start of Occupation ***                   COMMENT             
33                                                          MARKER NAME         
33                                                          MARKER NUMBER       
  3914288.4931  1190560.2971  4877465.3313                  APPROX POSITION XYZ 
        1.3290        0.0000        0.0000                  ANTENNA: DELTA H/E/N
> 2025 06 15 14 39 45.0000000  0 23
C06  38255101.648 6  38255097.398 7 199204355.806 6 154037439.559 7
C11  23346542.438 6  23346538.301 7 121571558.893 6  94006835.004 7
C12  22808203.984 7  22808201.266 7 118768309.573 7  91839124.206 7
C16  38839019.328 6  38839021.168 6 202244967.548 6 156388631.063 6
C21  22224712.227 8                 115729906.197 8
C22  22216128.727 7                 115685211.863 7
E03  24477879.984 8  24477882.832 8 128632126.721 8  97309378.944 8
E05  22090596.531 8  22090597.258 8 116086863.551 8  87818963.644 8
E15  24061461.789 8  24061464.613 8 126443834.570 8  95653951.043 8
E34  23792610.945 8  23792612.867 8 125031013.520 8  94585157.414 8
G01  21551244.180 7                  21551248.387 7 113252545.616 7                  88248757.459 7
G03  20033048.430 8                  20033053.879 7 105274377.139 8                  82032007.024 7
G04  20562946.305 7                  20562951.699 8 108059011.476 7                  84202216.271 8
G06  23464929.703 6                  23464938.910 7 123309025.615 6                  96085357.500 7
G09  22759150.242 6                  22759156.816 6 119600130.314 6                  93195327.907 6
G17  22891054.352 5                  22891059.359 6 120293300.393 5                  93735083.862 6
G19  22157194.742 5                                                                
G31  22192396.766 6                  22192401.055 7 116621832.865 6                  90874170.984 7
R03  20362921.469 8  20362926.695 7 109004315.857 8  84781071.499 7
R04  19298278.453 8  19298281.840 7 103341401.730 8  80376829.579 7
R18  21823322.984 8  21823327.941 7 116494365.585 8  90606505.078 7
R19  19391823.617 8  19391825.809 7 103733182.591 8  80681430.386 7
R20  21494260.508 5  21494267.973 7 114939512.134 5  89397407.131 7
> 2025 06 15 14 39 50.0000000  0 24
C06  38253407.164 6  38253403.520 7 199195535.771 6 154030619.354 7
C11  23343984.945 6  23343980.938 7 121558244.504 6  93996539.467 7
C12  22808767.656 7  22808764.340 7 118771241.384 7  91841391.263 7
C16  38837474.781 6  38837477.344 6 202236928.674 6 156382414.885 6
C21  22222153.672 8                 115716583.887 8
C22  22216338.977 7                 115686302.681 7
E03  24474481.820 8  24474484.621 8 128614268.954 8  97295869.665 8
E05  22089804.117 8  22089805.324 8 116082701.799 8  87815815.306 8
E15  24058713.969 8  24058716.742 8 126429394.633 8  95643027.329 8
E34  23792592.898 8  23792594.445 8 125030916.566 8  94585084.064 8
G01  21552445.461 7                  21552449.500 7 113258859.745 7                  88253677.527 7
G03  20032504.102 8                  20032509.219 7 105271515.582 8                  82029777.233 7
G04  20559905.844 7                  20559910.852 7 108043032.743 7                  84189765.316 7
G06  23460468.344 6                  23460477.207 7 123285581.592 6                  96067089.433 7
G09  22754532.648 6                  22754539.719 6 119575864.845 6                  93176419.788 6
G17  22891423.898 6                  22891427.496 6 120295230.190 6                  93736587.585 6
G19  22156045.609 5  22156049.238 3                 116430817.47115  90725308.82313
G31  22191011.758 6                  22191015.723 7 116614551.590 6                  90868497.250 7
R03  20363909.914 8  20363914.391 7 109009603.685 8  84785184.250 7
R04  19296131.648 8  19296135.039 7 103329908.267 8  80367890.225 7
R05  22288206.070 5  22288208.637 4 119143270.01115  92666983.94714
R18  21825827.750 8  21825832.344 7 116507734.290 8  90616902.947 7
R19  19391188.414 8  19391190.258 7 103729781.403 8  80678785.025 7
R20  21489679.070 5  21489687.887 7 114915020.351 5  89378357.991 7
> 2025 06 15 14 39 55.0000000  0 24
C06  38251714.695 6  38251710.297 7 199186718.924 6 154023801.616 7
C11  23341430.727 6  23341426.309 7 121544942.028 6  93986253.138 7
C12  22809332.078 7  22809329.582 7 118774183.480 7  91843666.274 7
C16  38835932.141 6  38835933.625 6 202228892.751 6 156376201.015 6
C21  22219596.406 8                 115703268.702 8
C22  22216549.141 7                 115687398.813 7
E03  24471085.055 8  24471087.598 8 128596417.554 8  97282365.197 8
E05  22089013.430 8  22089014.938 8 116078548.252 8  87812673.175 8
E15  24055967.641 8  24055970.250 8 126414961.658 8  95632108.879 8
E34  23792575.984 8  23792577.543 8 125030827.574 8  94585016.743 8
G01  21553648.563 7                  21553652.344 7 113265182.777 7                  88258604.546 7
G03  20031960.953 8                  20031966.363 7 105268663.250 8                  82027554.632 7
G04  20556867.727 7                  20556872.449 8 108027065.538 7                  84177323.324 8
G06  23456008.953 6                  23456016.398 7 123262142.437 6                  96048825.155 7
G09  22749915.727 6                  22749923.105 6 119551604.361 6                  93157515.562 6
G17  22891793.578 5                  22891796.664 6 120297170.209 5                  93738099.287 6
G19  22154900.281 5  22154903.832 3                 116424797.267 5  90720617.785 3
G31  22189628.813 6                  22189633.445 7 116607287.180 6                  90862836.679 7
R03  20364899.344 8  20364904.328 7 109014898.993 8  84789302.813 7
R04  19293986.930 8  19293991.258 7 103318428.206 8  80358961.298 7
R05  22283581.531 5  22283580.828 5 119118527.047 5  92647739.507 5
R18  21828333.406 8  21828338.184 7 116521110.571 8  90627306.695 7
R19  19390555.500 8  19390557.840 7 103726401.191 8  80676155.949 7
R20  21485104.688 5  21485109.809 7 114890540.231 5  89359317.907 7
> 2025 06 15 14 40  0.0000000  0 24
C06  38250021.953 6  38250017.637 7 199177907.039 6 154016987.707 7
C11  23338877.633 6  23338874.672 7 121531653.419 6  93975977.521 7
C12  22809900.133 7  22809897.086 7 118777137.646 7  91845950.614 7
C16  38834389.430 6  38834391.695 6 202220861.687 6 156369990.871 6
C21  22217041.414 8                 115689962.466 8
C22  22216760.719 7                 115688502.089 7
E03  24467689.484 8  24467692.109 8 128578574.347 8  97268866.931 8
E05  22088225.172 8  22088226.484 8 116074404.731 8  87809538.635 8
E15  24053222.477 8  24053225.449 8 126400537.471 8  95621197.082 8
E34  23792560.516 8  23792562.520 8 125030748.364 8  94584956.825 8
G01  21554853.555 7                  21554858.160 7 113271516.577 7                  88263539.950 7
G03  20031420.555 8                  20031425.891 7 105265821.935 8                  82025340.619 7
G04  20553831.922 7                  20553836.402 7 108011111.684 7                  84164891.756 7
G06  23451549.789 6                  23451557.672 7 123238710.085 6                  96030566.182 7
G09  22745300.234 6                  22745307.375 6 119527350.606 6                  93138616.567 6
G17  22892164.500 6                  22892168.172 6 120299122.345 6                  93739620.463 6
G19  22153759.461 5  22153761.699 3                 116418795.382 5  90715940.953 3
G31  22188249.773 6                  22188254.598 7 116600041.488 6                  90857190.668 7
R03  20365888.875 8  20365895.016 7 109020203.502 8  84793428.552 7
R04  19291846.805 8  19291850.637 7 103306963.245 8  80350044.114 7
R05  22278957.305 5  22278952.910 4 119093791.774 5  92628500.964 4
R18  21830840.859 8  21830845.789 7 116534496.301 8  90637717.791 7
R19  19389927.805 8  19389930.813 7 103723043.879 8  80673544.709 7
R20  21480527.797 5  21480534.543 7 114866073.584 5  89340288.314 7
> 2025 06 15 14 40  5.0000000  0 24
C06  38248330.922 6  38248326.910 6 199169101.324 6 154010178.582 6
C11  23336329.695 6  23336325.848 7 121518379.770 6  93965713.503 7
C12  22810470.336 7  22810467.773 7 118780105.124 7  91848245.270 7
C16  38832848.266 6  38832850.438 6 202212836.647 6 156363785.420 6
C21  22214487.906 8                 115676666.420 8
C22  22216974.516 7                 115689613.741 7
E03  24464295.789 8  24464298.395 8 128560740.578 8  97255375.814 8
E05  22087438.805 8  22087440.160 8 116070272.490 8  87806412.619 8
E15  24050479.883 8  24050482.520 8 126386123.374 8  95610292.916 8
E34  23792547.805 8  23792549.566 8 125030680.221 8  94584905.271 8
G01  21556061.063 7                  21556065.922 7 113277862.353 7                  88268484.723 7
G03  20030882.063 8                  20030887.770 7 105262992.910 8                  82023136.177 7
G04  20550798.570 7                  20550803.203 7 107995172.440 7                  84152471.572 7
G06  23447092.086 6                  23447100.168 7 123215285.734 6                  96012313.438 7
G09  22740687.680 7                  22740693.926 6 119503104.942 7                  93119723.862 6
G17  22892537.711 6                  22892542.063 6 120301087.748 6                  93741151.934 6
G19  22152621.164 5  22152623.582 3                 116412813.054 5  90711279.405 3
G31  22186875.688 6                  22186879.852 7 116592815.718 6                  90851560.181 7
R03  20366881.867 7  20366887.902 7 109025518.601 7  84797562.522 7
R04  19289709.148 8  19289712.391 7 103295514.881 8  80341139.813 7
R05  22274329.094 5  22274327.438 4 119069065.245 5  92609269.188 4
R18  21833350.758 8  21833355.426 7 116547892.732 8  90648137.217 7
R19  19389305.406 8  19389307.496 7 103719710.780 8  80670952.284 7
R20  21475956.000 5  21475961.805 7 114841621.721 5  89321270.216 7
> 2025 06 15 14 40 10.0000000  0 25
C06  38246641.852 6  38246637.070 7 199160302.279 6 154003374.600 7
C11  23333783.289 6  23333780.148 7 121505121.571 6  93955461.418 7
C12  22811043.563 7  22811040.355 7 118783086.321 7  91850550.513 7
C16  38831308.648 6  38831310.230 6 202204818.069 6 156357584.939 6
C21  22211936.563 7                 115663380.963 7
C22  22217189.164 7                 115690734.188 7
E03  24460904.398 8  24460906.617 8 128542916.682 8  97241892.160 8
E05  22086654.828 8  22086656.066 8 116066151.938 8  87803295.451 8
E15  24047739.094 8  24047741.563 9 126371719.726 8  95599396.650 9
E34  23792537.164 8  23792538.746 8 125030623.505 8  94584862.367 8
G01  21557271.266 7                  21557275.445 7 113284220.560 7                  88273439.174 7
G02  24182363.641 6  24182369.258 4                 127079182.75816  99022749.04714
G03  20030345.789 8                  20030351.445 7 105260176.572 8                  82020941.627 7
G04  20547768.188 7                  20547773.000 7 107979248.225 7                  84140063.093 7
G06  23442636.125 6                  23442644.625 7 123191869.793 6                  95994067.250 7
G09  22736075.711 7                  22736082.289 7 119478867.700 7                  93100837.698 7
G17  22892915.688 6                  22892918.711 5 120303066.868 6                  93742694.070 5
G19  22151487.477 5  22151489.316 3                 116406850.653 5  90706633.346 3
G31  22185503.469 6                  22185508.867 7 116585610.336 6                  90845945.607 7
R03  20367876.805 8  20367883.066 7 109030844.680 8  84801705.032 7
R04  19287573.938 8  19287577.469 7 103284083.389 8  80332248.639 7
R05  22269706.297 5  22269700.457 3 119044348.395 5  92590044.981 3
R18  21835862.078 8  21835866.941 7 116561300.217 8  90658565.231 7
R19  19388686.719 8  19388689.227 7 103716402.193 8  80668378.931 7
R20  21471386.859 5  21471392.539 7 114817184.929 5  89302263.823 7
> 2025 06 15 14 40 15.0000000  0 25
C06  38244951.867 6  38244948.801 7 199151510.107 6 153996575.956 7
C11  23331239.398 6  23331236.867 7 121491879.089 6  93945221.473 7
C12  22811618.391 7  22811615.488 8 118786081.481 7  91852866.537 8
C16  38829770.188 6  38829771.707 6 202196806.293 6 156351389.726 6
C21  22209387.805 8                 115650106.369 8
C22  22217406.063 7                 115691863.667 7
E03  24457514.391 8  24457516.813 8 128525102.926 8  97228416.173 8
E05  22085873.047 8  22085874.219 8 116062043.338 8  87800187.323 8
E15  24045000.281 8  24045002.664 8 126357326.835 8  95588508.524 8
E34  23792528.031 8  23792530.219 8 125030578.540 8  94584828.351 8
G01  21558483.344 7                  21558487.754 7 113290591.422 7                  88278403.461 7
G02  24184188.000 6  24184193.441 4                 127088768.998 6  99030218.770 4
G03  20029812.273 8                  20029818.133 7 105257373.177 8                  82018757.167 7
G04  20544741.219 7                  20544745.773 7 107963339.299 7                  84127666.535 7
G06  23438181.242 6                  23438190.281 7 123168462.523 6                  95975827.857 7
G09  22731463.758 7                  22731471.160 7 119454639.195 7                  93081958.363 7
G17  22893293.219 6                  22893298.305 5 120305059.968 6                  93744247.130 5
G19  22150356.398 5  22150358.867 3                 116400908.496 5  90702003.102 3
G31  22184137.398 6                  22184141.625 7 116578425.578 6                  90840347.077 7
R03  20368873.828 8  20368880.379 7 109036182.077 8  84805856.342 7
R04  19285442.695 8  19285446.363 7 103272669.151 8  80323370.904 7
R05  22265091.836 5  22265079.391 4 119019640.836 5  92570828.205 4
R18  21838375.602 7  21838381.000 7 116574719.067 7  90669002.115 7
R19  19388072.758 8  19388075.629 7 103713118.476 8  80665824.925 7
R20  21466819.664 5  21466825.172 7 114792763.653 5  89283269.493 7
> 2025 06 15 14 40 20.0000000  0 25
C06  38243266.297 6  38243262.137 6 199142725.449 6 153989783.097 6
C11  23328700.914 6  23328696.293 7 121478652.972 6  93934994.216 7
C12  22812195.164 7  22812192.941 7 118789091.217 7  91855193.839 7
C16  38828233.234 6  38828234.688 6 202188801.797 6 156345200.160 6
C21  22206840.523 8                 115636843.265 8
C22  22217624.859 7                 115693002.799 7
E03  24454126.680 8  24454129.051 8 128507299.933 8  97214948.329 8
E05  22085093.555 8  22085094.766 8 116057947.291 8  87797088.694 8
E15  24042263.617 8  24042265.973 8 126342945.337 8  95577629.012 8
E34  23792521.984 8  23792524.023 8 125030545.901 8  94584803.653 8
G01  21559697.805 7                  21559702.949 7 113296975.592 7                  88283378.117 7
G02  24186013.422 6  24186019.039 4                 127098361.922 6  99037693.724 4
G03  20029281.430 8                  20029287.109 7 105254583.362 8                  82016583.285 7
G04  20541716.008 7                  20541721.289 8 107947446.309 7                  84115282.404 8
G06  23433728.328 6                  23433737.820 7 123145064.689 6                  95957595.799 7
G09  22726855.141 6                  22726862.414 6 119430420.051 6                  93063086.306 6
G17  22893674.609 6                  22893679.473 5 120307067.630 6                  93745811.564 5
G19  22149229.984 5  22149232.270 3                 116394987.168 5  90697389.070 3
G31  22182773.664 6                  22182778.680 7 116571262.093 6                  90834765.140 7
R03  20369873.594 7  20369879.523 7 109041531.187 7  84810016.748 7
R04  19283314.523 8  19283317.438 7 103261272.590 8  80314506.914 7
R05  22260471.070 5                 118994943.496 5
R18  21840890.461 7  21840896.656 7 116588149.831 7  90679448.270 7
R19  19387463.883 8  19387466.531 7 103709860.298 8  80663290.798 7
R20  21462255.031 5  21462261.676 7 114768358.621 5  89264287.837 7
> 2025 06 15 14 40 25.0000000  0 25
C06  38241580.391 6  38241576.117 6 199133945.744 6 153982994.096 6
C11  23326162.641 6  23326159.754 7 121465440.615 6  93924777.604 7
C12  22812776.508 6  22812773.914 8 118792112.983 6  91857530.479 8
C16  38826697.367 6  38826698.332 6 202180802.099 6 156339014.274 6
C21  22204294.805 8                 115623589.080 8
C22  22217844.945 7                 115694148.994 7
E03  24450740.445 8  24450742.777 8 128489505.108 8  97201486.673 8
E05  22084315.711 8  22084317.195 8 116053861.198 8  87793997.599 8
E15  24039528.547 8  24039530.965 9 126328572.628 8  95566756.148 9
E34  23792517.695 8  23792519.680 8 125030523.016 8  94584786.337 8
G01  21560915.180 7                  21560920.059 7 113303370.423 7                  88288361.104 7
G02  24187839.734 6  24187845.379 4                 127107958.826 6  99045171.832 4
G03  20028752.859 8                  20028758.656 7 105251804.531 8                  82014417.957 7
G04  20538694.188 7                  20538699.570 7 107931566.647 7                  84102908.652 7
G06  23429277.211 6                  23429287.195 7 123121673.578 6                  95939368.958 7
G09  22722248.422 7                  22722254.535 6 119406207.654 7                  93044219.504 6
G17  22894059.438 6                  22894064.160 5 120309087.317 6                  93747385.364 5
G19  22148106.984 6  22148108.934 3                 116389084.120 6  90692789.280 3
G31  22181413.336 7                  22181419.219 7 116564117.292 7                  90829197.768 7
R03  20370875.141 8  20370880.500 7 109046889.431 8  84814184.262 7
R04  19281188.836 8  19281192.680 7 103249891.259 8  80305654.765 7
R05  22255849.945 5  22255837.090 4 118970253.891 5  92532377.17014
R18  21843409.156 7  21843414.629 7 116601590.018 7  90689901.698 7
R19  19386859.250 8  19386862.254 7 103706624.986 8  80660774.433 7
R20  21457692.797 5  21457700.316 7 114743967.162 5  89245316.723 7
> 2025 06 15 14 40 30.0000000  0 25
C06  38239894.875 6  38239891.484 6 199125172.111 6 153976209.766 6
C11  23323628.266 6  23323625.574 7 121452243.275 6  93914572.564 7
C12  22813358.820 7  22813356.770 8 118795147.907 7  91859877.276 8
C16  38825161.727 6  38825163.145 6 202172808.382 6 156332833.009 6
C21  22201750.555 8                 115610344.981 8
C22  22218066.227 7                 115695303.465 7
E03  24447356.039 8  24447358.305 8 128471719.661 8  97188032.104 8
E05  22083540.570 8  22083541.773 8 116049786.297 8  87790914.952 8
E15  24036795.273 8  24036797.785 9 126314209.890 8  95555890.840 9
E34  23792515.422 8  23792517.375 8 125030511.063 8  94584777.293 8
G01  21562133.914 7                  21562139.402 7 113309777.111 7                  88293353.339 7
G02  24189666.891 6  24189672.945 4                 127117561.039 6  99052654.063 4
G03  20028226.047 8                  20028232.043 7 105249037.895 8                  82012262.113 7
G04  20535675.328 7                  20535680.410 7 107915701.537 7                  84090546.240 7
G06  23424827.625 6                  23424837.145 7 123098290.481 6                  95921148.374 7
G09  22717642.055 6                  22717648.328 6 119382003.222 6                  93025358.928 6
G17  22894446.328 6                  22894451.234 5 120311120.230 6                  93748969.455 5
G19  22146987.031 6  22146989.191 3                 116383200.405 6  90688204.565 3
G31  22180057.844 7                  22180062.930 7 116556992.326 7                  90823645.876 7
R03  20371879.359 8  20371883.547 7 109052258.164 8  84818359.919 7
R04  19279066.430 8  19279070.516 7 103238526.287 8  80296815.362 7
R05  22251240.695 4  22251222.254 5 118945573.147 4  92513181.082 5
R18  21845928.641 7  21845934.688 7 116615040.641 7  90700363.283 7
R19  19386258.961 8  19386261.012 7 103703413.518 8  80658276.626 7
R20  21453134.977 5  21453141.621 7 114719590.479 5  89226357.083 7
> 2025 06 15 14 40 35.0000000  0 24
C06  38238211.336 6  38238207.602 6 199116404.222 6 153969429.877 6
C11  23321097.258 6  23321094.047 7 121439060.495 6  93904378.828 7
C12  22813944.148 6  22813942.121 8 118798195.653 6  91862233.986 8
C16  38823628.133 6  38823629.141 6 202164820.217 6 156326656.071 6
C21  22199209.242 7                 115597110.613 7
C22  22218289.711 7                 115696465.796 7
E03  24443973.313 8  24443975.629 8 128453943.218 8  97174584.342 8
E05  22082766.898 8  22082768.391 8 116045722.153 8  87787840.463 8
E15  24034064.141 8  24034066.473 9 126299856.794 8  95545032.815 9
E34  23792515.359 8  23792517.168 8 125030509.683 8  94584776.241 8
G01  21563355.727 7                  21563360.813 7 113316195.276 7                  88298354.498 7
G02  24191495.133 6  24191501.707 4                 127127168.018 6  99060139.982 4
G03  20027701.945 8                  20027707.672 7 105246283.034 8                  82010115.472 7
G04  20532658.859 7                  20532664.156 8 107899850.576 7                  84078194.833 8
G06  23420379.656 6                  23420388.703 7 123074914.948 6                  95902933.690 7
G09  22713037.938 7                  22713044.457 6 119357806.414 7                  93006504.271 6
G17  22894836.352 6                  22894839.688 5 120313165.880 6                  93750563.468 5
G19  22145871.734 6  22145873.180 3                 116377335.827 6  90683634.776 3
G31  22178705.266 6                  22178710.727 7 116549886.855 6                  90818109.169 7
R03  20372883.555 8  20372888.320 7 109057636.875 8  84822543.377 7
R04  19276947.055 8  19276951.051 7 103227177.245 8  80287988.340 7
R18  21848450.313 7  21848455.848 7 116628501.311 7  90710832.689 7
R19  19385663.328 8  19385665.934 7 103700225.770 8  80655797.269 7
R20  21448579.898 5  21448586.012 7 114695228.372 5  89207408.792 7
> 2025 06 15 14 40 40.0000000  0 24
C06  38236528.188 6  38236524.590 6 199107641.279 6 153962653.817 6
C11  23318569.063 6  23318565.125 7 121425891.521 6  93894195.758 7
C12  22814531.234 6  22814529.695 8 118801255.397 6  91864599.944 8
C16  38822094.492 6  38822095.480 6 202156836.844 6 156320482.809 6
C21  22196669.602 7                 115583885.097 7
C22  22218514.289 7                 115697635.181 7
E03  24440592.078 8  24440594.410 8 128436174.944 8  97161142.770 8
E05  22081995.508 8  22081996.938 8 116041667.968 8  87784773.487 8
E15  24031334.164 8  24031336.844 9 126285512.474 8  95534181.438 9
E34  23792516.961 8  23792518.805 8 125030518.031 8  94584782.556 8
G01  21564579.508 7                  21564584.477 7 113322624.108 7                  88303363.953 7
G02  24193324.195 6  24193331.020 4                 127136779.062 6  99067629.068 4
G03  20027179.531 8                  20027185.680 7 105243539.112 8                  82007977.365 7
G04  20529645.297 7                  20529650.648 8 107884012.943 7                  84065853.834 8
G06  23415931.563 6                  23415941.840 7 123051546.171 6                  95884724.260 7
G09  22708434.977 7                  22708441.281 6 119333616.340 7                  92987654.872 6
G17  22895227.539 6                  22895231.211 5 120315223.502 6                  93752166.777 5
G19  22144759.766 6  22144760.781 3                 116371489.483 6  90679079.188 3
G31  22177357.352 6                  22177362.480 7 116542800.079 6                  90812587.019 7
R03  20373888.555 8  20373894.965 7 109063024.802 8  84826734.002 7
R04  19274830.664 8  19274834.680 7 103215843.416 8  80279173.155 7
R18  21850972.930 7  21850979.414 7 116641971.272 7  90721309.327 7
R19  19385071.797 8  19385073.230 7 103697060.831 8  80653335.646 7
R20  21444025.219 5  21444033.070 7 114670879.906 5  89188471.120 7
> 2025 06 15 14 40 45.0000000  0 24
C06  38234846.320 6  38234842.824 7 199098883.674 6 153955881.879 7
C11  23316043.227 6  23316038.742 7 121412736.762 6  93884023.673 7
C12  22815121.625 7  22815119.758 8 118804327.489 7  91866975.461 8
C16  38820562.234 6  38820563.234 6 202148858.617 6 156314313.530 6
C21  22194132.297 7                 115570668.924 7
C22  22218740.266 7                 115698812.011 7
E03  24437212.430 8  24437214.824 8 128418415.258 8  97147707.693 8
E05  22081226.172 8  22081227.449 8 116037624.150 8  87781714.367 8
E15  24028606.141 8  24028608.922 8 126271177.382 8  95523337.041 8
E34  23792520.703 8  23792522.348 8 125030536.549 8  94584796.547 8
G01  21565804.219 7                  21565809.844 7 113329064.003 7                  88308382.032 7
G02  24195154.633 6  24195160.668 4                 127146394.453 6  99075121.583 4
G03  20026659.469 8                  20026665.625 7 105240806.608 8                  82005848.136 7
G04  20526634.320 7                  20526639.180 8 107868189.072 7                  84053523.542 8
G06  23411485.734 6                  23411496.219 7 123028184.641 6                  95866520.507 7
G09  22703832.117 7                  22703839.883 7 119309433.479 7                  92968811.109 7
G17  22895621.242 6                  22895625.879 5 120317293.498 6                  93753779.770 5
G19  22143651.711 6  22143652.098 3                 116365661.762 6  90674538.106 3
G31  22176012.758 7                  22176017.801 7 116535732.396 7                  90807079.717 7
R03  20374896.523 8  20374903.000 7 109068421.996 8  84830931.824 7
R04  19272716.969 8  19272720.504 7 103204525.122 8  80270370.023 7
R18  21853497.891 7  21853504.387 7 116655450.912 7  90731793.480 7
R19  19384484.070 8  19384486.152 7 103693919.152 8  80650892.104 7
R20  21439475.531 6  21439482.488 7 114646545.421 6  89169544.296 7
> 2025 06 15 14 40 50.0000000  0 25
C06  38233165.969 6  38233161.930 7 199090131.359 6 153949114.038 7
C11  23313519.523 6  23313515.430 7 121399596.185 6  93873862.556 7
C12  22815714.445 7  22815712.203 8 118807411.970 7  91869360.574 8
C16  38819031.242 6  38819032.395 6 202140885.585 6 156308148.275 6
C21  22191595.680 7                 115557462.065 7
C22  22218968.438 7                 115699996.295 7
E03  24433834.828 8  24433836.934 8 128400664.149 8  97134279.099 8
E05  22080458.516 8  22080459.906 8 116033590.645 8  87778663.043 8
E15  24025880.195 8  24025882.809 8 126256851.495 8  95512499.598 8
E34  23792526.055 8  23792527.809 8 125030565.184 8  94584818.207 8
G01  21567031.945 7                  21567037.313 7 113335514.879 7                  88313408.688 7
G02  24196984.109 6  24196991.316 4                 127156014.266 6  99082617.510 4
G03  20026141.813 8                  20026147.992 7 105238085.459 8                  82003727.757 7
G04  20523625.758 7                  20523630.820 8 107852378.934 7                  84041203.955 8
G06  23407042.367 6                  23407052.293 7 123004830.334 6                  95848322.350 7
G09  22699232.016 7                  22699239.367 7 119285257.834 7                  92949972.964 7
G17  22896017.508 6                  22896020.133 5 120319375.827 6                  93755402.397 5
G19  22142544.539 6  22142546.574 3                 116359852.660 6  90670011.518 3
G31  22174671.148 7                  22174676.324 7 116528683.739 7                  90801587.238 7
R03  20375907.031 8  20375913.031 7 109073829.026 8  84835137.276 7
R04  19270606.227 8  19270610.070 7 103193222.449 8  80261579.051 7
R05  22232777.125 6  22232774.141 4 118846931.12116
R18  21856024.883 7  21856031.082 7 116668940.135 7  90742285.119 7
R19  19383901.211 8  19383903.273 7 103690800.688 8  80648466.629 7
R20  21434928.305 6  21434933.891 7 114622224.938 6  89150628.377 7
> 2025 06 15 14 40 55.0000000  0 25
C06  38231486.313 6  38231482.055 7 199081383.532 6 153942349.667 7
C11  23310999.219 6  23310994.379 7 121386468.896 6  93863711.723 7
C12  22816308.883 7  22816306.590 8 118810507.879 7  91871754.532 8
C16  38817501.359 6  38817501.969 6 202132916.784 6 156301986.300 6
C21  22189060.445 7                 115544263.583 7
C22  22219197.148 7                 115701187.091 7
E03  24430457.930 8  24430460.438 8 128382920.705 8  97120856.317 8
E05  22079692.930 8  22079694.180 8 116029566.588 8  87775618.866 8
E15  24023155.633 8  24023158.289 9 126242533.934 8  95501668.461 9
E34  23792533.148 8  23792535.012 8 125030603.033 8  94584846.832 8
G01  21568261.172 7                  21568267.297 7 113341975.903 7                  88318443.257 7
G02  24198816.109 6  24198822.355 4                 127165637.564 6  99090116.172 4
G03  20025626.117 8                  20025632.266 7 105235374.755 8                  82001615.527 7
G04  20520619.359 7                  20520624.504 8 107836581.661 7                  84028894.391 8
G06  23402599.836 6                  23402609.516 7 122981482.318 6                  95830129.104 7
G09  22694633.375 7                  22694640.090 7 119261088.491 7                  92931139.719 7
G17  22896415.125 6                  22896418.121 5 120321469.565 6                  93757033.891 5
G19  22141441.414 6  22141444.602 3                 116354061.192 6  90665498.724 3
G31  22173334.094 7                  22173338.449 7 116521653.232 7                  90796108.918 7
R03  20376919.570 8  20376924.609 7 109079244.631 8  84839349.411 7
R04  19268498.289 8  19268502.305 7 103181934.280 8  80252799.377 7
R05  22228165.438 6  22228163.809 4 118822289.631 6  92417326.82414
R18  21858553.883 8  21858559.707 7 116682438.107 8  90752783.504 7
R19  19383322.680 8  19383324.711 7 103687704.511 8  80646058.473 7
R20  21430382.508 5  21430388.270 7 114597917.585 5  89131722.666 7
> 2025 06 15 14 41  0.0000000  0 25
C06  38229807.922 6  38229802.969 7 199072641.685 6 153935589.918 7
C11  23308480.945 6  23308476.219 7 121373356.636 6  93853572.507 7
C12  22816905.422 7  22816903.379 8 118813616.879 7  91874158.598 8
C16  38815972.000 6  38815972.590 6 202124953.943 6 156295828.928 6
C21  22186527.742 7                 115531075.186 7
C22  22219426.664 7                 115702386.126 7
E03  24427083.328 8  24427085.754 8 128365186.642 8  97107440.614 8
E05  22078929.188 8  22078930.520 8 116025553.615 8  87772583.074 8
E15  24020432.984 8  24020435.688 9 126228226.360 8  95490844.872 9
E34  23792542.531 8  23792544.250 8 125030651.818 8  94584883.730 8
G01  21569493.102 7                  21569498.691 7 113348448.722 7                  88323487.004 7
G02  24200648.289 6  24200653.969 4                 127175266.020 6  99097618.842 4
G03  20025112.352 8                  20025118.680 7 105232676.218 8                  81999512.777 7
G04  20517615.945 7                  20517621.262 8 107820798.896 7                  84016596.143 8
G06  23398157.594 6                  23398168.145 7 122958142.299 6                  95811942.113 7
G09  22690034.867 6                  22690041.957 7 119236927.114 6                  92912312.686 7
G17  22896816.297 6                  22896819.883 5 120323576.389 6                  93758675.599 5
G19  22140344.914 6  22140346.074 3                 116348289.182 6  90661001.038 3
G31  22171999.414 7                  22172004.477 7 116514642.610 7                  90790646.093 7
R03  20377934.016 8  20377938.121 7 109084670.489 8  84843569.511 7
R04  19266394.273 8  19266397.309 7 103170662.538 8  80244032.478 7
R05  22223560.320 5  22223554.242 4 118797656.905 5  92398167.959 4
R18  21861083.938 7  21861090.992 7 116695946.411 7  90763289.904 7
R19  19382749.031 8  19382750.250 7 103684632.413 8  80643669.045 7
R20  21425839.352 5  21425845.672 7 114573625.035 5  89112828.480 7
> 2025 06 15 14 41  5.0000000  0 25
C06  38228130.484 6  38228125.336 7 199063905.193 6 153928834.326 7
C11  23305964.047 6  23305960.441 7 121360258.532 6  93843444.229 7
C12  22817505.313 7  22817502.625 8 118816738.170 7  91876572.185 8
C16  38814443.344 6  38814444.457 6 202116996.222 6 156289675.513 6
C21  22183996.164 7                 115517896.058 7
C22  22219659.219 7                 115703592.520 7
E03  24423710.289 8  24423712.715 8 128347461.131 8  97094031.382 8
E05  22078167.516 8  22078168.852 8 116021550.947 8  87769555.086 8
E15  24017712.141 8  24017714.879 9 126213927.985 8  95480028.253 9
E34  23792553.516 8  23792555.430 8 125030710.646 8  94584928.234 8
G01  21570727.297 7                  21570732.391 7 113354932.514 7                  88328539.320 7
G02  24202481.461 6  24202486.262 4                 127184898.886 6  99105124.937 4
G03  20024601.125 8                  20024607.715 7 105229988.976 8                  81997418.825 7
G04  20514615.492 7                  20514620.723 8 107805029.860 7                  84004308.564 8
G06  23393717.563 6                  23393727.688 7 122934809.535 6                  95793760.768 7
G09  22685438.164 6                  22685445.297 7 119212772.924 6                  92893491.285 7
G17  22897219.008 6                  22897223.086 5 120325695.520 6                  93760326.857 5
G19  22139248.313 6  22139250.691 3                 116342535.692 6  90656517.845 3
G31  22170668.922 7                  22170673.750 7 116507651.025 7                  90785198.102 7
R03  20378948.922 8  20378953.648 7 109090105.540 8  84847796.756 7
R04  19264291.391 8  19264295.008 7 103159406.290 8  80235277.620 7
R05  22218946.555 4  22218946.555 4 118773032.213 4  92379015.452 4
R18  21863615.711 7  21863623.828 7 116709464.239 7  90773803.778 7
R19  19382178.141 8  19382180.590 7 103681583.405 8  80641297.601 7
R20  21421297.992 5  21421305.496 7 114549346.602 5  89093945.253 7
> 2025 06 15 14 41 10.0000000  0 24
C06  38226453.953 6  38226448.594 7 199055173.598 6 153922082.503 7
C11  23303451.453 6  23303447.797 7 121347174.279 6  93833326.696 7
C12  22818106.719 7  22818103.980 7 118819871.429 7  91878995.008 7
C16  38812916.125 6  38812917.363 6 202109043.261 6 156283525.755 6
C21  22181467.906 7                 115504725.834 7
C22  22219892.234 7                 115704805.954 7
E03  24420338.570 8  24420341.141 8 128329743.822 8  97080628.355 8
E05  22077407.875 8  22077409.066 8 116017558.213 8  87766534.606 8
E15  24014992.555 8  24014995.723 9 126199638.461 8  95469218.324 9
E34  23792566.414 8  23792568.516 8 125030779.249 8  94584980.132 8
G01  21571963.766 8                  21571968.402 7 113361426.938 8                  88333599.904 7
G02  24204315.141 6  24204319.668 3                 127194535.583 6  99112634.047 3
G03  20024091.305 8                  20024097.949 7 105227312.716 8                  81995333.434 7
G04  20511617.086 7                  20511622.590 8 107789274.178 7                  83992031.425 8
G06  23389279.820 6                  23389289.629 7 122911483.597 6                  95775584.757 7
G09  22680842.586 6                  22680851.031 7 119188625.568 6                  92874675.179 7
G17  22897624.648 6                  22897629.258 5 120327826.473 6                  93761987.402 5
G19  22138157.109 6  22138159.238 4                 116336800.475 6  90652048.860 4
G31  22169341.156 7                  22169346.777 7 116500678.058 7                  90779764.624 7
R03  20379965.281 8  20379970.254 7 109095549.786 8  84852031.153 7
R04  19262192.031 8  19262195.906 7 103148165.123 8  80226534.501 7
R18  21866151.031 8  21866157.707 7 116722991.275 8  90784324.761 7
R19  19381613.172 8  19381615.113 7 103678557.257 8  80638943.931 7
R20  21416760.500 5  21416768.160 7 114525081.854 5  89075072.693 7
> 2025 06 15 14 41 15.0000000  0 25
C06  38224778.063 6  38224773.031 7 199046447.163 6 153915334.674 7
C11  23300941.438 6  23300937.621 7 121334104.075 6  93823219.979 7
C12  22818711.023 7  22818708.711 8 118823016.830 7  91881427.236 8
C16  38811389.492 6  38811391.043 6 202101095.270 6 156277379.887 6
C21  22178941.289 7                 115491564.703 7
C22  22220127.414 7                 115706026.629 7
E03  24416968.883 8  24416971.254 8 128312034.915 8  97067231.692 8
E05  22076649.484 8  22076651.195 9 116013575.602 8  87763521.787 9
E15  24012275.313 8  24012278.258 8 126185358.003 8  95458415.247 8
E34  23792581.656 8  23792583.559 8 125030857.776 8  94585039.537 8
G01  21573200.969 8                  21573206.520 7 113367932.146 8                  88338668.875 7
G02  24206148.602 6  24206153.852 3                 127204176.482 6  99120146.403 3
G03  20023584.461 8                  20023591.063 8 105224647.608 8                  81993256.729 8
G04  20508621.320 7                  20508627.094 8 107773532.076 7                  83979764.864 8
G06  23384841.680 6                  23384851.707 7 122888164.816 6                  95757414.285 7
G09  22676250.375 7                  22676256.711 7 119164485.311 7                  92855864.601 7
G17  22898032.844 6                  22898037.625 4 120329969.552 6                  93763657.374 4
G19  22137069.383 6  22137071.500 4                 116331083.624 6  90647594.157 4
G31  22168018.375 7                  22168023.441 7 116493724.083 7                  90774345.946 7
R03  20380983.875 8  20380989.031 7 109101003.419 8  84856272.853 7
R04  19260095.703 8  19260099.449 7 103136939.457 8  80217803.428 7
R05  22209742.172 5  22209737.191 4 118723806.09815  92340728.42314
R18  21868687.680 8  21868693.207 7 116736527.671 8  90794853.059 7
R19  19381051.039 8  19381053.371 7 103675554.073 8  80636608.130 7
R20  21412225.516 5  21412233.059 7 114500831.074 5  89056210.986 7
> 2025 06 15 14 41 20.0000000  0 25
C06  38223104.094 6  38223098.426 7 199037725.841 6 153908590.802 7
C11  23298434.852 6  23298430.758 7 121321047.956 6  93813124.181 7
C12  22819317.133 6  22819314.867 8 118826174.333 6  91883868.818 8
C16  38809864.555 6  38809865.469 6 202093152.284 6 156271237.871 6
C21  22176415.328 7                 115478412.752 7
C22  22220363.008 7                 115707254.533 7
E03  24413600.961 8  24413602.988 8 128294334.441 8  97053841.414 8
E05  22075893.813 8  22075895.234 8 116009603.123 8  87760516.635 8
E15  24009559.297 8  24009562.516 8 126171086.596 8  95447619.021 8
E34  23792598.398 8  23792600.359 8 125030946.254 8  94585106.472 8
G01  21574440.859 8                  21574446.938 8 113374448.183 8                  88343746.313 8
G02  24207985.266 6  24207989.055 3                 127213821.646 6  99127662.097 3
G03  20023079.828 8                  20023086.223 7 105221993.694 8                  81991188.751 7
G04  20505628.805 7                  20505634.129 8 107757803.581 7                  83967508.899 8
G06  23380405.969 6                  23380415.219 7 122864853.064 6                  95739249.310 7
G09  22671657.734 7                  22671664.430 7 119140352.079 7                  92837059.499 7
G17  22898443.461 6                  22898446.266 4 120332124.785 6                  93765336.587 4
G19  22135984.109 6  22135987.035 4                 116325385.265 6  90643153.843 4
G31  22166699.406 7                  22166703.598 7 116486788.990 7                  90768941.973 7
R03  20382004.141 7  20382009.020 7 109106466.201 7  84860521.674 7
R04  19258002.328 8  19258005.891 7 103125729.054 8  80209084.212 7
R05  22205143.758 6  22205134.125 5 118699204.836 6  92321594.103 5
R18  21871225.461 8  21871230.512 7 116750073.420 8  90805388.642 7
R19  19380494.164 8  19380496.441 7 103672573.916 8  80634290.241 7
R20  21407693.531 6  21407700.563 7 114476594.379 6  89037360.251 7
> 2025 06 15 14 41 25.0000000  0 25
C06  38221429.781 6  38221424.473 7 199029009.704 6 153901850.938 7
C11  23295929.094 6  23295925.949 7 121308005.893 6  93803039.242 7
C12  22819925.711 7  22819923.438 7 118829344.006 7  91886319.779 7
C16  38808340.102 6  38808341.109 6 202085214.255 6 156265099.707 6
C21  22173890.852 7                 115465269.946 7
C22  22220600.609 7                 115708489.712 7
E03  24410234.172 8  24410236.332 8 128276642.437 8  97040457.528 8
E05  22075139.578 8  22075141.207 8 116005640.809 8  87757519.171 8
E15  24006845.320 8  24006848.492 8 126156824.329 8  95436829.708 8
E34  23792617.211 8  23792619.113 8 125031044.719 8  94585180.952 8
G01  21575683.211 8                  21575688.574 7 113380975.033 8                  88348832.148 7
G02  24209821.484 6  24209825.258 3                 127223470.942 6  99135180.983 3
G03  20022576.539 8                  20022583.199 7 105219350.969 8                  81989129.473 7
G04  20502638.422 7                  20502643.727 8 107742088.690 7                  83955263.536 8
G06  23375971.656 6                  23375980.289 7 122841548.501 6                  95721089.902 7
G09  22667067.109 7                  22667074.102 7 119116225.947 7                  92818259.954 7
G17  22898855.008 6                  22898856.945 4 120334292.121 6                  93767025.437 4
G19  22134904.445 6  22134906.492 4                 116319705.305 6  90638727.911 4
G31  22165382.547 6                  22165387.563 7 116479872.747 6                  90763552.694 7
R03  20383026.672 8  20383031.195 7 109111938.424 8  84864777.842 7
R04  19255912.016 8  19255915.469 7 103114534.077 8  80200376.991 7
R05  22200545.547 6  22200534.590 5 118674611.612 6  92302466.104 5
R18  21873765.188 8  21873770.023 7 116763628.501 8  90815931.462 7
R19  19379941.313 8  19379943.480 7 103669616.748 8  80631990.209 7
R20  21403164.359 6  21403170.820 7 114452371.747 6  89018520.411 7
> 2025 06 15 14 41 30.0000000  0 25
C06  38219756.961 6  38219751.594 7 199020299.536 6 153895115.680 7
C11  23293427.555 6  23293423.914 7 121294978.699 6  93792965.792 7
C12  22820537.289 7  22820533.949 8 118832526.652 7  91888780.787 8
C16  38806816.695 6  38806818.109 6 202077282.096 6 156258966.027 6
C21  22171368.773 7                 115452137.074 7
C22  22220838.680 7                 115709732.929 7
E03  24406869.305 8  24406871.484 8 128258959.665 8  97027080.624 8
E05  22074387.875 8  22074389.270 8 116001689.445 8  87754529.990 8
E15  24004133.445 8  24004136.262 8 126142571.924 8  95426047.868 8
E34  23792638.258 8  23792639.922 8 125031153.932 8  94585263.563 8
G01  21576927.609 8                  21576932.313 7 113387513.512 8                  88353927.059 7
G02  24211659.656 6  24211662.164 3                 127233125.191 6  99142703.762 3
G03  20022075.805 8                  20022082.852 7 105216720.239 8                  81987079.554 7
G04  20499650.938 7                  20499655.758 8 107726388.237 7                  83943029.438 8
G06  23371537.859 6                  23371546.816 7 122818251.861 6                  95702936.697 7
G09  22662477.602 7                  22662483.980 6 119092107.704 7                  92799466.550 6
G17  22899269.992 6                  22899271.563 4 120336472.376 6                  93768724.264 4
G19  22133827.211 6  22133829.898 4                 116314044.593 6  90634316.946 4
G31  22164070.094 6                  22164075.316 7 116472976.197 6                  90758178.743 7
R03  20384051.023 8  20384055.898 7 109117420.683 8  84869041.811 7
R04  19253824.859 8  19253827.883 7 103103355.242 8  80191682.339 7
R05  22195943.570 6  22195934.070 5 118650027.053 6  92283344.804 5
R18  21876306.281 8  21876311.367 7 116777193.729 8  90826482.172 7
R19  19379392.883 8  19379395.051 7 103666683.445 8  80629708.746 7
R20  21398637.516 5  21398643.965 7 114428163.881 5  88999692.089 7
> 2025 06 15 14 41 35.0000000  0 25
C06  38218085.445 6  38218079.898 7 199011594.091 6 153888384.087 7
C11  23290929.992 6  23290924.277 6 121281965.211 6  93782902.947 6
C12  22821151.078 7  22821147.688 7 118835720.979 7  91891250.817 7
C16  38805294.625 6  38805295.480 7 202069354.489 6 156252835.888 7
C21  22168847.891 7                 115439012.933 7
C22  22221078.625 7                 115710982.988 7
E03  24403505.617 8  24403508.016 8 128241284.927 8  97013709.808 8
E05  22073637.688 8  22073639.203 8 115997747.835 8  87751548.187 8
E15  24001422.570 8  24001425.816 8 126128328.247 8  95415272.615 8
E34  23792660.719 8  23792662.570 8 125031272.714 8  94585353.410 8
G01  21578173.672 8                  21578178.910 7 113394062.356 8                  88359030.061 7
G02  24213496.070 6  24213500.281 3                 127242783.180 6  99150229.432 3
G03  20021577.172 8                  20021584.102 8 105214100.291 8                  81985038.040 8
G04  20496664.805 7                  20496670.551 8 107710700.996 7                  83930805.606 8
G06  23367106.016 6                  23367115.223 6 122794961.999 6                  95684788.754 6
G09  22657888.438 6                  22657895.953 6 119067996.166 6                  92780678.363 6
G17  22899687.359 6                  22899690.031 5 120338664.326 6                  93770432.154 5
G19  22132753.578 6  22132756.305 4                 116308401.968 6  90629920.080 4
G31  22162761.820 7                  22162766.297 7 116466098.130 7                  90752819.200 7
R03  20385077.414 8  20385081.039 7 109122911.821 8  84873312.679 7
R04  19251740.172 8  19251742.777 7 103092191.331 8  80182999.311 7
R05  22191344.516 5  22191338.078 4 118625450.052 5  92264229.283 4
R18  21878849.023 8  21878853.555 7 116790767.879 8  90837039.830 7
R19  19378849.258 8  19378850.754 7 103663772.792 8  80627444.903 7
R20  21394113.273 5  21394119.766 7 114403969.566 5  88980874.294 7
> 2025 06 15 14 41 40.0000000  0 25
C06  38216414.375 6  38216409.176 7 199002894.405 6 153881656.949 7
C11  23288432.406 6  23288427.863 6 121268966.483 6  93772851.484 6
C12  22821767.125 7  22821763.320 7 118838928.098 7  91893730.771 7
C16  38803772.922 6  38803773.945 6 202061432.530 6 156246710.144 6
C21  22166330.211 7                 115425898.556 7
C22  22221319.898 7                 115712240.897 7
E03  24400143.891 8  24400146.477 8 128223619.273 8  97000345.859 8
E05  22072889.641 8  22072891.199 8 115993816.970 8  87748574.505 8
E15  23998714.031 8  23998717.148 9 126114094.301 8  95404504.730 9
E34  23792685.031 8  23792687.172 8 125031402.080 8  94585451.280 8
G01  21579422.242 8                  21579427.453 8 113400622.658 8                  88364141.973 8
G02  24215335.047 6  24215339.320 3                 127252445.894 6  99157758.782 3
G03  20021080.703 8                  20021087.813 7 105211492.175 8                  81983005.742 7
G04  20493682.492 7                  20493688.055 8 107695028.000 7                  83918592.878 8
G06  23362675.531 6                  23362684.844 6 122771679.949 6                  95666646.894 6
G09  22653300.516 6                  22653308.332 6 119043892.374 6                  92761896.223 6
G17  22900106.727 6                  22900110.199 5 120340868.949 6                  93772150.033 5
G19  22131682.656 6  22131685.910 4                 116302778.333 6  90625538.040 4
G31  22161455.859 7                  22161461.328 7 116459239.604 7                  90747474.892 7
R03  20386104.641 8  20386109.348 7 109128412.886 8  84877591.273 7
R04  19249658.703 8  19249660.910 7 103081043.511 8  80174328.784 7
R05  22186750.383 5  22186741.926 4 118600881.613 5  92245120.490 4
R18  21881393.492 8  21881399.098 7 116804351.965 8  90847605.232 7
R19  19378308.828 8  19378311.402 7 103660885.748 8  80625199.404 7
R20  21389591.063 5  21389597.672 7 114379789.908 5  88962067.921 7
> 2025 06 15 14 41 45.0000000  0 25
C06  38214744.016 6  38214739.336 7 198994199.696 6 153874933.646 7
C11  23285937.453 6  23285934.645 6 121255981.570 6  93762810.741 6
C12  22822384.789 7  22822381.285 7 118842147.086 7  91896219.894 7
C16  38802253.398 6  38802253.891 6 202053515.251 6 156240588.028 6
C21  22163813.297 7                 115412793.082 7
C22  22221562.852 7                 115713505.762 7
E03  24396783.938 8  24396786.367 8 128205961.839 8  96986988.137 8
E05  22072143.664 8  22072145.063 8 115989896.006 8  87745608.319 8
E15  23996007.109 8  23996010.172 9 126099869.234 8  95393743.559 9
E34  23792711.359 8  23792713.688 8 125031541.142 8  94585556.482 8
G01  21580672.391 8                  21580678.277 8 113407193.490 8                  88369262.112 8
G02  24217175.172 6  24217178.711 3                 127262112.540 6  99165291.229 3
G03  20020586.859 8                  20020593.434 8 105208894.973 8                  81980981.944 8
G04  20490702.813 7                  20490708.129 8 107679368.377 7                  83906390.579 8
G06  23358246.344 6                  23358255.773 7 122748404.825 6                  95648510.444 7
G09  22648715.117 6                  22648722.770 6 119019795.456 6                  92743119.408 6
G17  22900528.750 6                  22900532.773 5 120343085.478 6                  93773877.158 5
G19  22130616.117 6  22130619.527 4                 116297172.875 6  90621170.158 4
G31  22160154.719 7                  22160159.977 7 116452399.739 7                  90742145.128 7
R03  20387133.547 8  20387138.762 7 109133922.896 8  84881876.870 7
R04  19247579.469 8  19247581.836 7 103069910.783 8  80165670.002 7
R05  22182156.906 5  22182145.641 3 118576320.660 5  92226017.773 3
R18  21883940.438 7  21883945.801 7 116817945.135 7  90858177.642 7
R19  19377773.688 8  19377775.691 7 103658021.459 8  80622971.626 7
R20  21385071.617 5  21385078.250 7 114355624.247 5  88943272.424 7
> 2025 06 15 14 41 50.0000000  0 24
C06  38213074.836 6  38213070.465 7 198985508.645 6 153868213.191 7
C11  23283446.164 6  23283443.512 6 121243009.370 6  93752779.789 6
C12  22823004.555 7  22823001.402 7 118845376.723 7  91898717.247 7
C16  38800732.633 6  38800734.043 6 202045601.606 6 156234468.677 6
C21  22161298.070 7                 115399695.322 7
C22  22221807.078 7                 115714776.430 7
E03  24393425.531 8  24393427.613 8 128188311.400 8  96973635.704 8
E05  22071399.258 8  22071400.563 8 115985983.693 8  87742648.684 8
E15  23993301.656 8  23993304.695 8 126085651.843 8  95382988.206 8
E34  23792739.633 8  23792741.793 8 125031688.726 8  94585668.123 8
G01  21581924.727 8                  21581930.766 8 113413773.665 8                  88374389.501 8
G02  24219014.445 6  24219019.156 3                 127271781.856 6  99172825.724 3
G03  20020094.563 8                  20020101.191 8 105206307.521 8                  81978965.746 8
G04  20487724.719 7                  20487730.664 8 107663720.929 7                  83894197.765 8
G06  23353818.445 6                  23353828.137 7 122725135.414 6                  95630378.467 7
G09  22644131.094 6                  22644138.273 6 118995704.209 6                  92724347.015 6
G17  22900952.039 6                  22900957.199 5 120345312.520 6                  93775612.501 5
G19  22129553.195 6  22129555.934 4                 116291584.359 6  90616815.499 4
G31  22158856.047 7                  22158861.551 7 116445577.305 7                  90736828.947 7
R03  20388165.156 8  20388169.781 7 109139440.649 8  84886168.450 7
R04  19245503.266 8  19245505.434 7 103058791.983 8  80157022.036 7
R18  21886487.773 7  21886493.836 7 116831546.095 7  90868756.125 7
R19  19377242.734 8  19377244.426 7 103655178.693 8  80620760.584 7
R20  21380553.992 6  21380561.902 7 114331471.210 6  88924486.757 7
> 2025 06 15 14 41 55.0000000  0 24
C06  38211406.086 6  38211402.238 7 198976822.735 6 153861496.679 7
C11  23280957.656 6  23280954.949 7 121230051.285 6  93742759.790 7
C12  22823626.977 7  22823623.855 7 118848618.432 7  91901223.934 7
C16  38799213.898 6  38799215.512 6 202037692.916 6 156228353.185 6
C21  22158783.594 7                 115386606.701 7
C22  22222051.992 7                 115716054.338 7
E03  24390068.133 8  24390070.449 8 128170669.407 8  96960289.664 8
E05  22070656.375 8  22070657.965 8 115982081.525 8  87739696.719 8
E15  23990597.664 8  23990600.906 8 126071443.576 8  95372239.741 8
E34  23792769.883 8  23792771.777 8 125031846.248 8  94585787.286 8
