     3.04           OBSERVATION DATA    Mixed(MIXED)        RINEX VERSION / TYPE
cnvtToRINEX 3.14.0  convertToRINEX OPR  20250615 162932 UTC PGM / RUN BY / DATE 
----------------------------------------------------------- COMMENT             
34                                                          MARKER NAME         
34                                                          MARKER NUMBER       
GEODETIC                                                    MARKER TYPE         
GNSS Observer       Trimble                                 OBSERVER / AGENCY   
5849S10870          Geo Explorer 3      5.51                REC # / TYPE / VERS 
49S10870            UNKNOWN EXT     NONE                    ANT # / TYPE        
  3913945.5536  1190294.0955  4877824.0999                  APPROX POSITION XYZ 
        1.2440        0.0000        0.0000                  ANTENNA: DELTA H/E/N
G    6 C1C C2W C2X L1C L2W L2X                              SYS / # / OBS TYPES 
C    4 C2I C7I L2I L7I                                      SYS / # / OBS TYPES 
R    4 C1C C2C L1C L2C                                      SYS / # / OBS TYPES 
E    4 C1X C8X L1X L8X                                      SYS / # / OBS TYPES 
     5.000                                                  INTERVAL            
  2025     6    15    13    39   10.0000000     GPS         TIME OF FIRST OBS   
  2025     6    15    14    19   10.0000000     GPS         TIME OF LAST OBS    
     0                                                      RCV CLOCK OFFS APPL 
  9 R02 -4 R03  5 R04  6 R05  1 R11  0 R17  4 R18 -3 R19  3 GLONASS SLOT / FRQ #
    R20  2                                                  GLONASS SLOT / FRQ #
G L2X -0.25000                                              SYS / PHASE SHIFT   
R L2C -0.25000                                              SYS / PHASE SHIFT   
    18                                                      LEAP SECONDS        
    32                                                      # OF SATELLITES     
   C06   481   481   481   481                              PRN / # OF OBS      
   C11   470   470   470   470                              PRN / # OF OBS      
   C12   481   481   481   481                              PRN / # OF OBS      
   C16   481   481   481   481                              PRN / # OF OBS      
   C19    87     0    87     0                              PRN / # OF OBS      
   C21   481     0   481     0                              PRN / # OF OBS      
   C22   481     0   481     0                              PRN / # OF OBS      
   E03   481   481   481   481                              PRN / # OF OBS      
   E05   481   481   481   481                              PRN / # OF OBS      
   E09   422   414   420   414                              PRN / # OF OBS      
   E15   481   481   481   481                              PRN / # OF OBS      
   E34   481   481   481   481                              PRN / # OF OBS      
   E36   263   258   260   258                              PRN / # OF OBS      
   G01   481     0   481   481     0   481                  PRN / # OF OBS      
   G02   481   480     0   480   480     0                  PRN / # OF OBS      
   G03   481     0   481   481     0   481                  PRN / # OF OBS      
   G04   481     0   481   481     0   481                  PRN / # OF OBS      
   G06   137     0   130   130     0   130                  PRN / # OF OBS      
   G09    59     0    53    55     0    53                  PRN / # OF OBS      
   G17   476     0   468   471     0   468                  PRN / # OF OBS      
   G19   479   479     0   479   479     0                  PRN / # OF OBS      
   G28   454     0   451   453     0   451                  PRN / # OF OBS      
   G31   447     1   429   440     1   428                  PRN / # OF OBS      
   R02    29    14    26    13                              PRN / # OF OBS      
   R03   481   481   481   481                              PRN / # OF OBS      
   R04   481   481   481   481                              PRN / # OF OBS      
   R05    88    85    88    83                              PRN / # OF OBS      
   R11     5     2     4     2                              PRN / # OF OBS      
   R17    22    18    22    16                              PRN / # OF OBS      
   R18   481   481   481   481                              PRN / # OF OBS      
   R19   481   481   481   481                              PRN / # OF OBS      
   R20    47    46    47    46                              PRN / # OF OBS      
DBHZ                                                        SIGNAL STRENGTH UNIT
                                                            END OF HEADER       
>                              2  1
              *** Start of Kinematic Data ***               COMMENT             
> 2025 06 15 13 39 10.0000000  0 22
C06  38610083.000 6  38610079.352 6 201052838.83516 155466808.08716
C12  21948892.242 7  21948888.871 8 114293645.10617  88379186.84418
C16  39080415.914 6  39080418.188 5 203501982.06616 157360643.24715
C19  24686606.977 6                 128549637.60916
C21  23395868.563 7                 121828426.47817
C22  21356997.461 7                 111211490.94417
E03  26179936.609 7  26179940.355 8 137576492.97517 104075739.63318
E05  22078188.172 8  22078190.121 8 116021660.32018  87769640.51518
E09  25469025.578 6  25469027.805 7 133840599.03116 101249576.77917
E15  25293028.305 7  25293032.426 8 132915754.70117 100549925.23118
E34  23169764.844 8  23169766.641 8 121757935.26718  92109092.54618
E36  25630358.977 7  25630363.668 8 134688446.94317 101890951.10818
G01  20161464.625 8                  20161468.617 8 105949207.48418                  82557841.33018
G02  22019393.695 7  22019396.023 6                 115712694.98917  90165742.73316
G03  19867495.836 8                  19867502.629 8 104404393.63018                  81354099.97718
G04  22246411.391 7                  22246417.914 7 116905677.48517                  91095359.85717
G17  22196271.742 7                  22196276.465 7 116642200.88617                  90890191.56117
G28  23091267.531 6                  23091272.398 5 121345445.85516                  94554897.60015
R03  19107223.016 8  19107227.512 7 102282451.98018  79553095.75817
R04  20476070.734 8  20476073.910 7 109648424.68618  85282434.65217
R18  19521972.914 8  19521977.480 7 104209628.90918  81051886.55017
R19  19816310.617 8  19816312.891 7 106003895.25118  82447753.31017
> 2025 06 15 13 39 15.0000000  0 23
C06  38607758.102 6  38607754.840 6 201040732.928 6 155457447.040 6
C12  21947596.859 7  21947593.313 8 114286898.010 7  88373969.561 8
C16  39078248.852 6  39078250.109 5 203490696.914 6 157351916.840 5
C19  24687925.977 6                 128556507.964 6
C21  23392188.813 7                 121809269.805 7
C22  21356024.625 7                 111206425.688 7
E03  26175691.180 7  26175694.656 8 137554181.729 7 104058861.335 8
E05  22075940.406 8  22075941.848 8 116009845.576 8  87760702.731 8
E09  25469495.180 6  25469497.023 7 133843065.684 6 101251442.788 7
E15  25289447.977 7  25289451.965 8 132896939.189 7 100535691.412 8
E34  23168468.781 8  23168470.684 9 121751124.852 8  92103940.512 9
E36  25631256.461 7  25631261.336 8 134693164.060 7 101894519.574 8
G01  20160973.008 8                  20160977.125 8 105946625.317 8                  82555829.253 8
G02  22020343.102 7  22020345.176 5                 115717682.790 7  90169629.319 5
G03  19865442.000 8                  19865448.625 8 104393600.396 8                  81345689.663 8
G04  22241898.180 7                  22241904.629 7 116881961.531 7                  91076879.908 7
G17  22194688.250 7                  22194691.789 7 116633875.123 7                  90883703.962 7
G28  23089352.828 6                  23089357.871 5 121335384.874 6                  94547057.845 5
R03  19106465.789 8  19106470.313 7 102278399.012 8  79549943.459 7
R04  20471976.891 8  20471980.977 7 109626504.423 8  85265385.558 7
R17  22879467.109 4                 122432590.61614
R18  19522540.500 8  19522544.863 7 104212658.146 8  81054242.609 7
R19  19812870.492 8  19812872.078 7 105985488.260 8  82433436.767 7
>                              3  5
              *** Start of Occupation ***                   COMMENT             
34                                                          MARKER NAME         
34                                                          MARKER NUMBER       
  3913945.5536  1190294.0955  4877824.0999                  APPROX POSITION XYZ 
        1.2440        0.0000        0.0000                  ANTENNA: DELTA H/E/N
> 2025 06 15 13 39 20.0000000  0 23
C06  38605434.539 6  38605431.957 6 201028634.436 6 155448091.723 6
C12  21946304.773 7  21946300.859 7 114280167.913 7  88368765.421 7
C16  39076082.555 6  39076084.141 5 203479419.241 6 157343196.223 5
C19  24689246.750 6                 128563384.338 6
C21  23388512.109 7                 121790123.392 7
C22  21355054.477 7                 111201373.650 7
E03  26171446.672 7  26171450.293 8 137531877.728 7 104041988.522 8
E05  22073694.984 8  22073696.238 8 115998044.770 8  87751775.511 8
E09  25469966.523 6  25469968.461 7 133845543.154 6 101253316.966 7
E15  25285868.906 7  25285872.813 8 132878130.552 7 100521462.810 8
E34  23167174.977 8  23167176.945 8 121744326.166 8  92098797.341 8
E36  25632155.789 7  25632160.520 8 134697889.407 7 101898094.273 8
G01  20160484.703 8                  20160488.785 8 105944059.552 8                  82553829.954 8
G02  22021294.070 7  22021296.355 5                 115722682.185 7  90173524.937 5
G03  19863390.313 8                  19863397.434 8 104382821.231 8                  81337290.323 8
G04  22237387.016 7                  22237393.496 7 116858256.382 7                  91058408.382 7
G17  22193107.758 7                  22193111.160 7 116625567.713 7                  90877230.657 7
G19  22759702.734 7  22759705.887 5                 119603044.24917  93197489.70715
G28  23087440.625 6                  23087446.785 6 121325343.027 6                  94539232.990 6
R03  19105712.688 8  19105716.922 7 102274365.899 8  79546806.604 7
R04  20467886.523 8  20467890.117 7 109604600.174 8  85248348.936 7
R18  19523111.422 8  19523116.227 7 104215708.950 8  81056615.474 7
R19  19809432.852 8  19809434.770 7 105967101.244 8  82419135.767 7
> 2025 06 15 13 39 25.0000000  0 23
C06  38603112.523 6  38603110.508 6 201016544.331 6 155438742.910 6
C12  21945015.719 7  21945011.797 7 114273455.728 7  88363575.139 7
C16  39073919.000 6  39073919.355 5 203468149.958 6 157334482.108 5
C19  24690568.125 6                 128570267.637 6
C21  23384837.320 7                 121770988.256 7
C22  21354087.016 7                 111196335.790 7
E03  26167204.016 7  26167207.461 8 137509582.002 7 104025121.961 8
E05  22071452.203 8  22071453.500 8 115986258.881 8  87742859.564 8
E09  25470439.836 6  25470442.078 7 133848032.396 6 101255200.061 7
E15  25282291.156 7  25282295.023 8 132859329.766 7 100507240.159 8
E34  23165883.727 8  23165885.613 8 121737540.214 8  92093663.818 8
E36  25633056.883 7  25633061.484 8 134702623.975 7 101901675.938 8
G01  20159999.961 8                  20160004.203 8 105941511.151 8                  82551844.185 8
G02  22022248.188 7  22022249.848 5                 115727694.194 7  90177430.396 5
G03  19861342.719 8                  19861348.863 7 104372057.107 8                  81328902.675 7
G04  22232878.195 7                  22232884.969 7 116834563.033 7                  91039946.042 7
G17  22191529.695 7                  22191533.992 7 116617279.602 7                  90870772.392 7
G19  22756220.695 7  22756224.602 5                 119584748.439 7  93183233.239 5
G28  23085534.461 6                  23085539.527 6 121315321.331 6                  94531423.859 6
R03  19104962.813 8  19104967.141 7 102270353.381 8  79543685.765 7
R04  20463798.820 8  20463802.906 7 109582712.813 8  85231325.448 7
R18  19523687.031 8  19523691.926 7 104218782.261 8  81059005.815 7
R19  19805999.531 8  19806001.438 7 105948735.136 8  82404851.008 7
> 2025 06 15 13 39 30.0000000  0 23
C06  38600792.281 6  38600790.676 6 201004462.640 6 155429400.579 6
C12  21943730.914 7  21943726.266 7 114266761.504 7  88358398.743 7
C16  39071757.219 6  39071756.559 5 203456889.168 6 157325774.580 5
C19  24691891.406 6                 128577157.912 6
C21  23381164.945 7                 121751864.382 7
C22  21353122.648 7                 111191312.130 7
E03  26162962.664 7  26162966.250 8 137487294.534 7 104008261.657 8
E05  22069211.945 8  22069213.551 8 115974487.938 8  87733954.935 8
E09  25470915.820 6  25470917.910 7 133850533.475 6 101257092.095 7
E15  25278714.672 7  25278718.785 8 132840536.909 7 100493023.481 8
E34  23164594.852 8  23164596.707 9 121730767.022 8  92088539.942 9
E36  25633959.563 7  25633964.191 8 134707367.826 7 101905264.630 8
G01  20159518.203 8                  20159522.500 8 105938980.171 8                  82549871.983 8
G02  22023204.000 7  22023205.816 5                 115732718.797 7  90181345.666 5
G03  19859297.656 8                  19859303.375 8 104361308.028 8                  81320526.776 8
G04  22228371.711 7                  22228378.426 7 116810881.495 7                  91021492.909 7
G17  22189956.141 7                  22189960.301 7 116609010.931 7                  90864329.256 7
G19  22752742.875 7  22752746.633 5                 119566471.067 7  93168991.139 5
G28  23083631.258 6                  23083636.910 6 121305319.896 6                  94523630.473 6
R03  19104216.430 8  19104221.270 7 102266361.563 8  79540581.008 7
R04  20459714.781 8  20459718.734 7 109560842.531 8  85214315.224 7
R18  19524267.305 8  19524271.813 7 104221878.000 8  81061413.608 7
R19  19802569.617 8  19802571.789 7 105930389.948 8  82390582.538 7
> 2025 06 15 13 39 35.0000000  0 23
C06  38598473.750 6  38598472.051 6 200992389.472 6 155420064.843 6
C12  21942447.898 7  21942444.316 8 114260085.300 7  88353236.269 8
C16  39069596.156 6  39069596.324 5 203445636.918 6 157317073.639 5
C19  24693216.258 6                 128584055.210 6
C21  23377494.875 7                 121732751.865 7
C22  21352160.477 7                 111186302.740 7
E03  26158723.000 7  26158726.691 8 137465015.418 7 103991407.651 8
E05  22066974.555 8  22066976.516 8 115962732.002 8  87725061.655 8
E09  25471395.234 5  25471396.055 7 133853046.417 5 101258993.073 7
E15  25275140.633 7  25275144.148 8 132821752.002 7 100478812.814 8
E34  23163308.469 8  23163310.258 8 121724006.646 8  92083425.756 8
E36  25634864.172 7  25634868.688 8 134712120.986 7 101908860.365 8
G01  20159039.797 8                  20159044.191 8 105936466.633 8                  82547913.380 8
G02  22024162.578 7  22024164.063 5                 115737756.066 7  90185270.812 5
G03  19857254.648 8                  19857260.484 7 104350574.087 8                  81312162.671 7
G04  22223868.242 7                  22223874.160 7 116787211.841 7                  91003049.023 7
G17  22188385.984 7                  22188390.543 7 116600761.602 7                  90857901.210 7
G19  22749268.500 7  22749272.063 5                 119548212.188 7  93154763.439 5
G28  23081732.492 6                  23081737.648 6 121295338.540 6                  94515852.800 6
R03  19103474.727 8  19103480.086 7 102262390.564 8  79537492.436 7
R04  20455634.117 8  20455637.652 7 109538989.243 8  85197318.224 7
R18  19524852.180 8  19524856.152 7 104224996.308 8  81063838.949 7
R19  19799144.281 8  19799146.449 7 105912065.803 8  82376330.414 7
> 2025 06 15 13 39 40.0000000  0 24
C06  38596156.172 6  38596154.895 6 200980323.493 6 155410734.634 6
C12  21941169.430 7  21941165.543 7 114253425.884 7  88348086.783 7
C16  39067436.094 6  39067436.820 5 203434391.923 6 157308378.315 5
C19  24694542.063 6                 128590958.256 6
C21  23373826.828 7                 121713649.441 7
C22  21351200.953 7                 111181306.335 7
E03  26154484.766 7  26154488.484 8 137442743.377 7 103974559.021 8
E05  22064739.914 8  22064742.059 8 115950989.845 8  87716178.794 8
E09  25471876.477 5  25471876.199 7 133855569.987 5 101260902.115 7
E15  25271567.313 7  25271570.691 8 132802973.775 7 100464607.218 8
E34  23162024.055 8  23162025.969 8 121717257.825 8  92078320.315 8
E36  25635770.063 7  25635774.703 8 134716882.170 7 101912462.162 8
G01  20158564.539 8                  20158568.980 8 105933969.308 8                  82545967.405 8
G02  22025123.508 7  22025124.316 5                 115742804.738 7  90189204.821 5
G03  19855214.391 8                  19855220.453 7 104339853.969 8                  81303809.348 7
G04  22219366.031 7                  22219371.723 7 116763552.819 7                  90984613.428 7
G17  22186819.734 7                  22186824.398 7 116592530.407 7                  90851487.309 7
G19  22745797.352 7  22745801.180 5                 119529970.555 7  93140549.204 5
G28  23079836.539 6                  23079841.879 6 121285376.229 6                  94508089.969 6
R03  19102736.633 8  19102741.434 7 102258439.030 8  79534419.017 7
R04  20451556.250 8  20451559.926 7 109517151.817 8  85180333.584 7
R17  22892839.039 6  22892849.805 4 122504137.25916  95281093.99414
R18  19525439.758 8  19525444.191 7 104228135.896 8  81066280.839 7
R19  19795722.031 8  19795724.246 7 105893761.311 8  82362093.577 7
> 2025 06 15 13 39 45.0000000  0 24
C06  38593839.992 6  38593839.535 6 200968265.620 6 155401410.736 6
C12  21939893.258 7  21939890.262 7 114246784.082 7  88342950.926 7
C16  39065279.047 6  39065278.941 6 203423155.096 6 157299689.281 6
C19  24695869.336 6                 128597867.890 6
C21  23370160.844 7                 121694557.979 7
C22  21350244.258 7                 111176323.781 7
E03  26150248.078 7  26150251.785 8 137420479.278 7 103957716.390 8
E05  22062507.938 8  22062510.375 8 115939262.253 8  87707306.950 8
E09  25472357.930 5  25472358.469 7 133858104.896 5 101262819.773 7
E15  25267995.430 7  25267998.773 8 132784203.106 7 100450407.339 8
E34  23160742.289 8  23160744.090 8 121710521.406 8  92073224.259 8
E36  25636677.781 7  25636682.473 8 134721652.269 7 101916070.709 8
G01  20158092.664 8                  20158097.051 8 105931489.013 8                  82544034.713 8
G02  22026086.211 7  22026087.516 5                 115747865.608 7  90193148.362 5
G03  19853177.438 8                  19853183.172 7 104329148.612 8                  81295467.511 7
G04  22214865.680 7                  22214871.863 7 116739905.270 7                  90966186.778 7
G17  22185256.734 7                  22185261.594 7 116584318.222 7                  90845088.208 7
G19  22742329.313 7  22742333.332 5                 119511747.056 7  93126349.082 5
G28  23077944.266 6                  23077949.789 6 121275433.729 6                  94500342.591 6
R03  19102002.641 8  19102007.422 7 102254507.892 8  79531361.474 7
R04  20447480.898 8  20447484.570 7 109495331.021 8  85163361.863 7
R17  22895518.703 6  22895528.598 4 122518474.566 6  95292245.252 4
R18  19526031.586 8  19526036.133 7 104231297.684 8  81068739.988 7
R19  19792304.195 8  19792306.660 7 105875477.363 8  82347872.729 7
> 2025 06 15 13 39 50.0000000  0 25
C06  38591525.875 6  38591525.480 6 200956215.184 6 155392092.567 6
C12  21938620.625 7  21938618.309 7 114240159.223 7  88337828.165 7
C16  39063122.391 6  39063122.582 5 203411925.704 6 157291006.027 5
C19  24697196.742 6                 128604783.484 6
C21  23366495.328 7                 121675476.801 7
C22  21349290.063 7                 111171354.431 7
E03  26146012.195 7  26146016.500 8 137398222.487 7 103940879.297 8
E05  22060279.148 8  22060281.352 8 115927548.647 8  87698445.683 8
E09  25472842.047 5  25472842.852 7 133860650.590 5 101264745.572 7
E15  25264424.383 7  25264428.191 8 132765439.380 7 100436212.700 8
E34  23159462.688 8  23159464.422 8 121703796.763 8  92068137.104 8
E36  25637587.055 7  25637591.797 8 134726430.624 7 101919685.486 8
G01  20157623.945 8                  20157628.262 8 105929025.104 8                  82542114.786 8
G02  22027051.258 7  22027053.008 5                 115752938.092 7  90197100.952 5
G03  19851142.672 8                  19851149.039 7 104318457.336 8                  81287136.644 7
G04  22210368.203 7                  22210374.070 7 116716268.573 7                  90947768.591 7
G17  22183698.172 7                  22183702.102 7 116576124.379 7                  90838703.375 7
G19  22738864.828 7  22738868.660 5                 119493541.003 7  93112162.551 5
G28  23076054.758 6                  23076061.672 7 121265510.416 6                  94492610.158 7
G31  22923223.984 5                  22923233.313 5 120462340.10115                  93866802.57515
R03  19101271.953 8  19101276.410 7 102250596.373 8  79528319.183 7
R04  20443409.414 8  20443413.293 7 109473526.274 8  85146402.616 7
R17  22898192.086 6  22898207.035 4 122532820.302 6  95303402.887 4
R18  19526629.063 8  19526632.727 7 104234480.813 8  81071215.728 7
R19  19788889.906 8  19788891.988 7 105857213.442 8  82333667.485 7
> 2025 06 15 13 39 55.0000000  0 25
C06  38589212.758 6  38589212.613 6 200944172.668 6 155382780.538 6
C12  21937351.836 7  21937349.348 7 114233551.829 7  88332718.909 7
C16  39060967.320 6  39060967.563 6 203400704.364 6 157282328.973 6
C19  24698526.391 6                 128611705.563 6
C21  23362832.953 7                 121656406.497 7
C22  21348338.602 7                 111166398.808 7
E03  26141778.422 7  26141782.625 8 137375973.539 7 103924048.128 8
E05  22058052.930 8  22058055.063 8 115915849.521 8  87689595.368 8
E09  25473328.766 5  25473329.434 7 133863207.566 5 101266679.932 7
E15  25260855.188 7  25260858.996 8 132746683.105 7 100422023.704 8
E34  23158185.352 8  23158187.098 9 121697084.433 8  92063059.268 9
E36  25638497.656 7  25638502.801 8 134731217.752 7 101923306.894 8
G01  20157158.320 8                  20157162.777 8 105926578.151 8                  82540208.068 8
G02  22028018.930 7  22028020.980 5                 115758022.697 7  90201062.977 5
G03  19849111.219 8                  19849117.230 7 104307780.631 8                  81278817.123 7
G04  22205872.008 7                  22205878.082 7 116692643.279 7                  90929359.276 7
G17  22182142.484 7                  22182146.492 7 116567949.421 7                  90832333.283 7
G19  22735403.617 7  22735407.207 5                 119475353.026 7  93097990.103 5
G28  23074169.766 6                  23074177.219 7 121255606.853 6                  94484893.092 7
G31  22919641.320 5                  22919651.531 5 120443515.425 5                  93852133.970 5
R03  19100544.547 8  19100549.773 7 102246705.107 8  79525292.655 7
R04  20439339.344 8  20439344.328 7 109451737.985 8  85129456.190 7
R17  22900873.922 6  22900887.844 4 122547175.134 6  95314567.649 4
R18  19527228.695 8  19527233.512 7 104237685.960 8  81073708.624 7
R19  19785479.055 8  19785482.008 7 105838970.008 8  82319478.163 7
> 2025 06 15 13 40  0.0000000  0 25
C06  38586901.953 6  38586901.484 6 200932137.944 6 155373474.521 6
C12  21936086.414 7  21936083.895 7 114226961.802 7  88327623.077 7
C16  39058814.664 6  39058814.469 5 203389490.842 6 157273657.968 5
C19  24699856.164 6                 128618633.940 6
C21  23359172.313 7                 121637346.843 7
C22  21347389.242 7                 111161456.704 7
E03  26137545.930 7  26137550.188 8 137353732.286 7 103907222.781 8
E05  22055829.492 8  22055831.520 8 115904164.714 8  87680755.887 8
E09  25473817.516 5  25473818.121 7 133865775.712 5 101268622.715 7
E15  25257287.188 7  25257291.180 8 132727934.105 7 100407840.212 8
E34  23156910.445 8  23156912.109 8 121690384.205 8  92057990.586 8
E36  25639410.422 7  25639415.438 8 134736013.483 7 101926934.816 8
G01  20156695.617 8                  20156700.441 8 105924147.926 8                  82538314.396 8
G02  22028988.539 7  22028990.887 5                 115763119.226 7  90205034.292 5
G03  19847082.102 8                  19847088.027 7 104297118.350 8                  81270508.846 7
G04  22201378.641 7                  22201384.570 7 116669029.191 7                  90910958.704 7
G17  22180590.008 7                  22180594.285 6 116559793.196 7                  90825977.795 6
G19  22731946.367 7  22731949.633 5                 119457182.861 7  93083831.523 5
G28  23072289.914 6                  23072296.480 7 121245722.871 6                  94477191.280 7
G31  22916061.914 5                  22916073.402 5 120424706.658 5                  93837477.794 5
R03  19099821.383 8  19099826.453 7 102242833.921 8  79522281.723 7
R04  20435273.789 8  20435278.637 7 109429966.080 8  85112522.513 7
R17  22903557.430 6  22903572.734 4 122561538.607 6  95325739.234 4
R18  19527833.383 8  19527837.992 7 104240912.911 8  81076218.476 7
R19  19782072.594 8  19782075.539 7 105820746.965 8  82305304.694 7
> 2025 06 15 13 40  5.0000000  0 26
C06  38584592.195 6  38584591.848 6 200920111.200 6 155364174.682 6
C11  24636728.078 7  24636727.461 6 128289907.03617  99201891.82216
C12  21934824.000 7  21934821.461 7 114220389.265 7  88322540.776 7
C16  39056662.688 6  39056662.176 5 203378285.351 6 157264993.161 5
C19  24701187.859 6                 128625568.762 6
C21  23355514.258 7                 121618298.052 7
C22  21346443.070 7                 111156528.332 7
E03  26133314.852 7  26133319.367 8 137331498.850 7 103890403.346 8
E05  22053608.695 8  22053610.719 8 115892494.377 8  87671927.357 8
E09  25474305.664 5  25474308.988 7 133868355.072 5 101270573.991 7
E15  25253720.852 7  25253724.820 8 132709192.568 7 100393662.356 8
E34  23155637.453 8  23155639.434 8 121683696.292 8  92052931.224 8
E36  25640324.836 7  25640329.746 8 134740817.979 7 101930569.370 8
G01  20156236.797 8                  20156241.117 8 105921734.643 8                  82536433.911 8
G02  22029960.789 7  22029963.105 5                 115768227.892 7  90209015.047 5
G03  19845055.727 8                  19845061.863 7 104286470.680 8                  81262211.960 7
G04  22196887.188 7                  22196893.305 7 116645426.520 7                  90892567.026 7
G17  22179042.117 7                  22179046.039 6 116551655.806 7                  90819636.965 6
G19  22728491.266 7  22728494.973 5                 119439030.741 7  93069687.027 5
G28  23070413.469 6                  23070419.117 7 121235858.681 6                  94469504.872 7
G31  22912487.484 5                  22912497.160 5 120405913.874 5                  93822834.056 5
R03  19099103.039 8  19099107.121 7 102238983.012 8  79519286.560 7
R04  20431210.586 8  20431215.770 7 109408210.782 8  85095601.740 7
R17  22906239.758 5  22906260.352 4 122575911.139 5  95336917.819 4
R18  19528442.336 8  19528446.352 7 104244161.873 8  81078745.435 7
R19  19778670.539 8  19778672.742 7 105802544.404 8  82291147.154 7
> 2025 06 15 13 40 10.0000000  0 26
C06  38582284.555 6  38582284.105 6 200908092.086 6 155354880.750 6
C11  24632739.453 7  24632739.406 7 128269137.582 7  99185831.574 7
C12  21933565.250 7  21933562.617 7 114213833.887 7  88317471.740 7
C16  39054512.391 6  39054511.359 5 203367087.474 6 157256334.256 5
C19  24702520.969 6                 128632509.653 6
C21  23351858.406 7                 121599259.699 7
C22  21345499.281 7                 111151613.285 7
E03  26129085.688 7  26129089.902 8 137309272.916 7 103873589.594 8
E05  22051390.297 8  22051392.617 8 115880838.174 8  87663109.521 8
E09  25474797.406 5  25474801.961 7 133870945.470 5 101272533.611 7
E15  25250155.461 7  25250159.824 8 132690458.102 7 100379489.876 8
E34  23154367.047 8  23154369.063 8 121677020.306 8  92047880.885 8
E36  25641240.789 7  25641245.590 8 134745630.864 7 101934210.267 8
G01  20155780.359 8                  20155784.848 8 105919337.914 8                  82534566.323 8
G02  22030935.602 7  22030937.480 5                 115773348.262 7  90213004.927 5
G03  19843032.641 8                  19843038.707 7 104275837.240 8                  81253926.162 7
G04  22192398.117 7                  22192404.184 7 116621834.906 7                  90874183.969 7
G17  22177496.859 7                  22177501.488 6 116543536.917 7                  90813310.558 6
G19  22725040.367 7  22725043.738 5                 119420896.287 7  93055556.281 5
G28  23068540.586 7                  23068545.516 7 121226013.792 7                  94461833.511 7
G31  22908915.219 5                  22908922.816 5 120387136.712 5                  93808202.535 5
R03  19098387.266 8  19098391.508 7 102235151.793 8  79516306.714 7
R04  20427151.859 8  20427156.129 7 109386471.771 8  85078693.626 7
R17  22908927.188 5  22908947.684 4 122590292.125 5  95348103.045 4
R18  19529055.516 8  19529059.051 7 104247432.418 8  81081289.173 7
R19  19775271.875 8  19775273.637 7 105784362.146 8  82277005.389 7
> 2025 06 15 13 40 15.0000000  0 27
C06  38579978.055 6  38579977.387 6 200896079.915 6 155345592.175 6
C11  24628752.633 6  24628752.883 7 128248377.847 6  99169778.831 7
C12  21932310.016 7  21932307.410 7 114207295.010 7  88312415.471 7
C16  39052363.984 6  39052361.930 6 203355896.653 6 157247680.820 6
C19  24703855.477 6                 128639455.986 6
C21  23348203.711 7                 121580231.214 7
C22  21344557.703 7                 111146710.968 7
E03  26124857.672 7  26124861.824 8 137287053.850 7 103856781.035 8
E05  22049174.898 8  22049177.109 8 115869195.478 8  87654301.892 8
E09  25475292.352 5  25475296.781 7 133873545.96615 101274500.94417
E15  25246591.820 7  25246595.996 8 132671730.152 7 100365322.320 8
E34  23153098.727 8  23153100.852 8 121670355.642 8  92042839.111 8
E36  25642158.750 7  25642162.941 8 134750451.523 7 101937857.047 8
G01  20155326.750 8                  20155331.719 8 105916957.130 8                  82532711.170 8
G02  22031911.523 7  22031914.074 5                 115778479.724 7  90217003.447 5
G03  19841012.000 8                  19841018.051 7 104265217.412 8                  81245650.978 7
G04  22187910.070 7                  22187916.711 7 116598253.727 7                  90855809.056 7
G17  22175955.078 7                  22175960.164 7 116535435.955 7                  90806998.113 7
G19  22721592.773 6  22721595.785 4                 119402778.847 6  93041438.818 4
G28  23066671.086 7                  23066675.879 7 121216187.683 7                  94454176.786 7
G31  22905341.867 4                  22905351.973 5 120368374.582 4                  93793582.694 5
R02  22250202.875 5  22250202.262 4 118731392.47615  92346597.69514
R03  19097675.727 8  19097679.008 7 102231339.796 8  79513341.823 7
R04  20423095.945 8  20423099.582 7 109364748.243 8  85061797.536 7
R17  22911614.758 5  22911634.133 3 122604681.082 5  95359294.570 3
R18  19529672.133 8  19529676.344 7 104250723.914 8  81083849.220 7
R19  19771876.766 8  19771878.137 7 105766199.364 8  82262878.778 7
> 2025 06 15 13 40 20.0000000  0 26
C06  38577673.102 6  38577671.547 6 200884074.719 6 155336308.995 6
C11  24624768.789 7  24624768.461 7 128227627.936 7  99153733.695 7
C12  21931057.234 7  21931054.570 7 114200772.635 7  88307371.950 7
C16  39050216.328 6  39050214.883 6 203344712.798 6 157239032.763 6
C19  24705190.867 6                 128646407.783 6
C21  23344552.156 7                 121561212.557 7
C22  21343618.891 7                 111141821.331 7
E03  26120630.680 7  26120635.031 8 137264841.630 7 103839977.646 8
E05  22046962.023 8  22046964.156 8 115857566.224 8  87645504.438 8
E09  25475791.266 5  25475793.625 7 133876156.706 5 101276475.991 7
E15  25243029.297 7  25243033.426 8 132653008.625 7 100351159.615 8
E34  23151832.836 8  23151834.766 8 121663702.260 8  92037805.868 8
E36  25643077.766 7  25643081.766 8 134755279.888 7 101941509.670 8
G01  20154876.945 8                  20154881.746 8 105914592.215 8                  82530868.377 8
G02  22032890.422 7  22032892.461 5                 115783622.215 7  90221010.575 5
G03  19838993.273 8                  19838999.703 7 104254611.145 8                  81237386.361 7
G04  22183424.063 7                  22183431.254 7 116574682.930 7                  90837442.203 7
G17  22174417.258 7                  22174421.797 7 116527352.808 7                  90800699.557 7
G19  22718148.156 6  22718151.500 4                 119384678.514 6  93027334.655 4
G28  23064803.789 7                  23064809.523 6 121206380.260 7                  94446534.644 6
R02  22252347.625 5  22252346.508 4 118742833.756 5  92355496.498 4
R03  19096966.313 8  19096970.707 7 102227546.945 8  79510391.844 7
R04  20419041.984 8  20419045.746 7 109343040.257 8  85044913.547 7
R17  22914302.227 4  22914322.844 4 122619077.887 4  95370492.161 4
R18  19530292.461 8  19530296.645 7 104254036.311 8  81086425.524 7
R19  19768484.242 8  19768486.809 7 105748056.139 8  82248767.395 7
> 2025 06 15 13 40 25.0000000  0 25
C06  38575369.047 6  38575367.648 6 200872077.309 6 155327031.834 6
C11  24620785.672 6  24620785.949 7 128206888.685 6  99137696.790 7
C12  21929808.258 7  21929805.371 7 114194267.621 7  88302341.857 7
C16  39048069.328 6  39048068.688 6 203333536.842 6 157230390.801 6
C19  24706526.711 6                 128653365.819 6
C21  23340901.953 7                 121542204.621 7
C22  21342682.133 7                 111136945.245 7
E03  26116405.203 7  26116409.691 8 137242637.147 7 103823180.113 8
E05  22044751.664 8  22044753.938 8 115845951.333 8  87636717.856 8
E09  25476291.078 5  25476292.648 7 133878778.629 5 101278459.484 7
E15  25239468.039 7  25239472.246 8 132634294.479 7 100337002.487 8
E34  23150568.961 8  23150571.012 8 121657061.046 8  92032781.838 8
E36  25643998.555 7  25644002.188 8 134760116.910 7 101945168.835 8
G01  20154430.008 7                  20154434.723 8 105912244.124 7                  82529038.684 8
G02  22033871.461 7  22033873.434 5                 115788776.693 7  90225027.035 5
G03  19836977.914 8                  19836984.027 8 104244019.331 8                  81229133.002 8
G04  22178941.141 7                  22178947.691 7 116551123.467 7                  90819084.196 7
G17  22172881.820 7                  22172887.633 7 116519288.416 7                  90794415.637 7
G19  22714708.094 6  22714710.430 5                 119366596.140 6  93013244.479 5
G28  23062940.891 7                  23062946.574 7 121196592.456 7                  94438907.784 7
R02  22254492.430 5  22254492.289 4 118754282.461 5  92364401.032 4
R03  19096261.820 8  19096266.164 7 102223774.207 8  79507457.485 7
R04  20414990.945 8  20414995.180 7 109321348.788 8  85028042.432 7
R18  19530917.414 8  19530920.980 7 104257370.485 8  81089018.766 7
R19  19765096.352 8  19765098.559 7 105729933.277 8  82234671.846 7
> 2025 06 15 13 40 30.0000000  0 25
C06  38573066.922 6  38573064.824 6 200860088.234 6 155317761.111 6
C11  24616804.867 6  24616805.004 7 128186160.507 6  99121668.450 7
C12  21928562.320 7  21928559.504 7 114187780.421 7  88297325.544 7
C16  39045924.531 6  39045924.012 5 203322369.229 6 157221755.298 5
C19  24707864.602 6                 128660330.637 6
C21  23337254.141 7                 121523207.869 7
C22  21341748.570 7                 111132083.175 7
E03  26112181.336 7  26112185.902 8 137220440.866 7 103806388.781 8
E05  22042544.180 8  22042546.539 8 115834351.239 8  87627942.459 8
E09  25476797.609 5  25476793.793 7 133881412.136 5 101280451.740 7
E15  25235908.219 7  25235912.570 8 132615588.141 7 100322851.266 8
E34  23149307.641 8  23149309.648 9 121650432.487 8  92027767.376 9
E36  25644921.297 7  25644924.309 8 134764962.961 7 101948834.830 8
G01  20153987.023 8                  20153991.340 8 105909913.252 8                  82527222.409 8
G02  22034855.086 7  22034856.582 5                 115793943.576 7  90229053.170 5
G03  19834965.320 8                  19834971.723 8 104233442.458 8                  81220891.289 8
G04  22174460.453 7                  22174466.766 7 116527575.795 7                  90800735.358 7
G17  22171350.680 7                  22171356.441 7 116511243.259 7                  90788146.685 7
G19  22711270.359 7  22711273.387 4                 119348532.147 7  92999168.648 4
G28  23061082.313 7                  23061087.930 7 121186824.722 7                  94431296.567 7
R02  22256640.914 4  22256639.203 4 118765739.135 4  92373311.770 4
R03  19095561.148 8  19095565.254 7 102220021.767 8  79504538.925 7
R04  20410943.461 8  20410947.641 7 109299674.106 8  85011184.371 7
R18  19531546.008 8  19531549.918 7 104260726.965 8  81091629.364 7
R19  19761712.906 8  19761714.625 7 105711831.264 8  82220592.500 7
> 2025 06 15 13 40 35.0000000  0 24
C06  38570765.313 6  38570763.445 6 200848105.792 6 155308495.507 6
C11  24612826.453 6  24612825.984 7 128165441.841 6  99105647.466 7
C12  21927319.469 7  21927316.887 7 114181309.377 7  88292321.724 7
C16  39043781.375 6  39043780.742 5 203311208.257 6 157213124.914 5
C19  24709203.828 6                 128667300.529 6
C21  23333607.688 7                 121504220.622 7
C22  21340816.758 7                 111127233.436 7
E03  26107958.766 7  26107963.289 8 137198251.104 7 103789602.386 8
E05  22040339.242 8  22040341.629 8 115822764.291 8  87619177.015 8
E09  25477299.813 5  25477296.824 7 133884055.579 5 101282451.451 7
E15  25232349.773 7  25232354.039 8 132596887.915 7 100308704.671 8
E34  23148048.305 8  23148050.363 8 121643814.884 8  92022761.193 8
E36  25645844.602 7  25645847.871 8 134769816.445 7 101952506.443 8
G01  20153546.523 7                  20153550.508 8 105907597.958 7                  82525418.270 8
G02  22035840.664 7  22035841.703 6                 115799121.153 7  90233087.640 6
G03  19832955.117 8                  19832961.352 8 104222878.819 8                  81212659.877 8
G04  22169981.500 7                  22169987.359 7 116504038.210 7                  90782394.394 7
G17  22169823.563 7                  22169828.676 7 116503215.618 7                  90781891.361 7
G19  22707836.203 7  22707839.254 4                 119330484.935 7  92985105.887 4
G28  23059227.242 7                  23059232.441 6 121177075.435 7                  94423699.693 6
R03  19094863.453 8  19094867.570 7 102216288.218 8  79501635.052 7
R04  20406898.383 8  20406902.852 7 109278014.675 8  84994338.163 7
R18  19532179.844 8  19532182.180 7 104264103.964 8  81094255.921 7
R19  19758332.344 8  19758334.383 7 105693748.572 8  82206528.183 7
> 2025 06 15 13 40 40.0000000  0 24
C06  38568465.914 6  38568463.094 6 200836130.264 6 155299235.251 6
C11  24608848.367 6  24608848.734 7 128144732.941 6  99089634.030 7
C12  21926079.930 7  21926077.043 7 114174854.838 7  88287330.654 7
C16  39041639.055 6  39041638.520 5 203300054.271 6 157204499.932 5
C19  24710542.734 6                 128674275.813 6
C21  23329963.711 7                 121485243.242 7
C22  21339887.445 7                 111122396.369 7
E03  26103737.453 7  26103742.043 8 137176068.233 7 103772821.206 8
E05  22038136.945 8  22038139.309 8 115811190.824 8  87610421.765 8
E09  25477802.406 5  25477801.789 7 133886709.262 5 101284458.910 7
E15  25228792.328 7  25228796.758 8 132578194.179 7 100294562.986 8
E34  23146791.273 8  23146793.246 9 121637208.578 8  92017763.560 9
E36  25646769.641 7  25646772.914 8 134774677.660 7 101956183.912 8
G01  20153109.281 8                  20153113.121 8 105905298.542 8                  82523626.528 8
G02  22036827.531 7  22036829.211 6                 115804309.756 7  90237130.702 6
G03  19830947.586 8                  19830953.836 8 104212328.760 8                  81204439.062 8
G04  22165504.484 7                  22165510.402 7 116480511.095 7                  90764061.573 7
G17  22168299.055 7                  22168304.766 7 116495205.893 7                  90775650.007 7
G19  22704404.797 7  22704407.992 4                 119312454.794 7  92971056.436 4
G28  23057376.242 7                  23057380.566 6 121167344.878 7                  94416117.408 6
R03  19094169.266 8  19094173.531 7 102212573.706 8  79498745.984 7
R04  20402856.672 8  20402860.957 7 109256370.815 8  84977504.040 7
R18  19532815.281 8  19532819.070 7 104267501.841 8  81096898.708 7
R19  19754954.766 8  19754957.703 7 105675685.518 8  82192479.147 7
> 2025 06 15 13 40 45.0000000  0 24
C06  38566167.039 6  38566164.430 6 200824161.880 6 155289980.539 6
C11  24604872.820 6  24604873.723 7 128124034.049 6  99073628.340 7
C12  21924843.445 7  21924840.383 7 114168416.925 7  88282352.446 7
C16  39039498.195 6  39039497.578 5 203288907.446 6 157195880.485 5
C19  24711883.969 6                 128681256.646 6
C21  23326320.813 7                 121466275.852 7
C22  21338961.125 7                 111117572.118 7
E03  26099517.344 7  26099522.137 8 137153892.380 7 103756045.332 8
E05  22035936.750 8  22035939.566 8 115799630.959 8  87601676.805 8
E09  25478310.570 5  25478308.660 7 133889373.270 5 101286474.191 7
E15  25225236.430 7  25225240.703 8 132559507.101 7 100280426.348 8
E34  23145536.336 8  23145538.301 9 121630613.726 8  92012774.591 9
E36  25647696.227 7  25647699.438 8 134779546.725 7 101959867.317 8
G01  20152674.664 8                  20152678.145 8 105903015.167 8                  82521847.281 8
G02  22037817.617 7  22037818.438 6                 115809509.564 7  90241182.483 6
G03  19828942.430 8                  19828949.133 8 104201792.431 8                  81196228.937 8
G04  22161029.266 7                  22161035.438 7 116456994.586 7                  90745737.026 7
G17  22166778.477 7                  22166783.965 7 116487214.152 7                  90769422.696 7
G19  22700977.281 6  22700979.344 4                 119294441.921 6  92957020.398 4
G28  23055527.438 6                  23055532.641 6 121157633.241 6                  94408549.899 6
R03  19093478.898 8  19093483.078 8 102208878.446 8  79495871.873 8
R04  20398817.461 8  20398822.316 7 109234742.767 8  84960682.241 7
R18  19533455.469 8  19533459.574 7 104270920.755 8  81099557.847 7
R19  19751581.484 8  19751584.609 7 105657642.257 8  82178445.502 7
> 2025 06 15 13 40 50.0000000  0 24
C06  38563869.828 6  38563866.605 6 200812198.936 6 155280730.029 6
C11  24600898.586 6  24600900.414 7 128103343.479 6  99057629.082 7
C12  21923609.945 7  21923606.723 7 114161994.079 7  88277385.893 7
C16  39037358.563 6  39037358.238 5 203277766.157 6 157187265.338 5
C19  24713225.477 6                 128688241.388 6
C21  23322680.367 7                 121447316.848 7
C22  21338037.039 7                 111112759.013 7
E03  26095298.289 7  26095303.227 8 137131721.901 7 103739273.528 8
E05  22033739.586 8  22033742.094 8 115788083.087 8  87592940.912 8
E09  25478822.125 5  25478817.203 6 133892045.946 5 101288496.060 6
E15  25221681.383 7  25221685.586 8 132540824.997 7 100266293.459 8
E34  23144283.391 8  23144285.207 8 121624028.679 8  92007793.046 8
E36  25648624.039 7  25648627.141 8 134784422.034 7 101963555.443 8
G01  20152242.625 8                  20152246.574 8 105900746.224 8                  82520079.279 8
G02  22038808.719 8  22038810.227 6                 115814718.887 8  90245241.681 6
G03  19826939.211 8                  19826946.148 8 104191268.188 8                  81188028.224 8
G04  22156555.914 7                  22156562.281 7 116433487.045 7                  90727419.497 7
G17  22165260.492 7                  22165266.492 7 116479238.795 7                  90763208.145 7
G19  22697551.930 6  22697553.742 4                 119276444.632 6  92942996.541 4
G28  23053682.992 6                  23053687.984 6 121147938.855 6                  94400995.814 6
R03  19092791.797 8  19092796.578 7 102205200.639 8  79493011.351 7
R04  20394780.602 8  20394786.270 7 109213128.784 8  84943871.364 7
R18  19534099.352 8  19534104.020 7 104274359.052 8  81102232.073 7
R19  19748211.875 8  19748214.621 7 105639617.124 8  82164425.949 7
> 2025 06 15 13 40 55.0000000  0 24
C06  38561573.922 6  38561570.504 6 200800241.893 6 155271484.087 6
C11  24596926.188 6  24596928.504 7 128082661.682 6  99041636.620 7
C12  21922379.516 7  21922376.344 7 114155586.633 7  88272431.258 7
C16  39035219.680 6  39035219.996 5 203266630.770 6 157178654.757 5
C19  24714567.352 6                 128695230.393 6
C21  23319040.977 7                 121428366.594 7
C22  21337115.234 7                 111107957.509 7
E03  26091080.656 7  26091085.418 8 137109557.230 7 103722506.109 8
E05  22031544.883 8  22031546.898 8 115776547.600 8  87584214.392 8
E09  25479329.602 5  25479327.410 6 133894727.733 5 101290524.794 6
E15  25218127.195 7  25218131.520 8 132522148.303 7 100252164.681 8
E34  23143032.055 8  23143034.043 8 121617453.846 8  92002819.229 8
E36  25649552.633 7  25649556.141 8 134789303.949 7 101967248.571 8
G01  20151813.406 8                  20151817.629 8 105898492.084 8                  82518322.801 8
G02  22039801.836 7  22039803.445 5                 115819938.136 7  90249308.626 5
G03  19824939.438 8                  19824945.809 7 104180756.429 8                  81179837.239 7
G04  22152084.469 7                  22152090.535 7 116409988.891 7                  90709109.267 7
G17  22163746.438 7                  22163751.680 7 116471280.189 7                  90757006.659 7
G19  22694129.875 7  22694132.055 4                 119258463.429 7  92928985.222 4
G28  23051841.430 6                  23051846.035 6 121138262.120 6                  94393455.501 6
R03  19092108.234 8  19092112.250 8 102201540.946 8  79490164.930 8
R04  20390748.148 8  20390752.516 7 109191529.264 8  84927071.730 7
R18  19534747.188 8  19534752.203 7 104277817.081 8  81104921.632 7
R19  19744845.969 8  19744848.719 7 105621610.572 8  82150420.854 7
> 2025 06 15 13 41  0.0000000  0 24
C06  38559279.188 6  38559275.168 6 200788291.174 6 155262243.018 6
C11  24592957.141 6  24592958.031 7 128061989.081 6  99025651.284 7
C12  21921152.250 7  21921149.172 7 114149195.069 7  88267488.896 7
C16  39033082.352 6  39033082.691 5 203255501.789 6 157170049.117 5
C19  24715910.258 6                 128702224.213 6
C21  23315403.367 7                 121409425.611 7
C22  21336195.695 7                 111103168.039 7
E03  26086864.148 7  26086868.777 8 137087398.842 7 103705743.452 8
E05  22029352.086 8  22029354.172 8 115765024.949 8  87575497.588 8
E09  25479842.117 5  25479839.426 6 133897419.133 5 101292560.839 6
E15  25214574.734 7  25214578.605 8 132503477.504 7 100238040.344 8
E34  23141783.000 8  23141784.934 8 121610889.695 8  91997853.490 8
E36  25650483.078 7  25650486.531 8 134794192.980 7 101970947.079 8
G01  20151386.992 7                  20151391.598 8 105896253.225 7                  82516578.229 8
G02  22040796.469 7  22040798.680 5                 115825167.800 7  90253383.675 5
G03  19822941.094 8                  19822947.688 8 104170257.650 8                  81171656.380 8
G04  22147614.742 7                  22147621.316 7 116386500.615 7                  90690806.720 7
G17  22162234.875 7                  22162240.285 7 116463338.842 7                  90750818.603 7
G19  22690711.945 7  22690713.988 4                 119240498.687 7  92914986.696 4
G28  23050001.523 6                  23050008.063 6 121128603.499 6                  94385929.318 6
R03  19091428.039 8  19091432.133 7 102197899.565 8  79487332.732 7
R04  20386717.719 8  20386721.348 7 109169944.755 8  84910283.778 7
R18  19535398.805 8  19535403.355 7 104281295.295 8  81107626.914 7
R19  19741484.594 8  19741486.207 7 105603623.115 8  82136430.610 7
> 2025 06 15 13 41  5.0000000  0 24
C06  38556985.500 6  38556981.445 6 200776347.088 6 155253007.104 6
C11  24588989.414 6  24588989.855 7 128041326.027 6  99009673.306 7
C12  21919927.797 7  21919924.891 7 114142819.675 7  88262559.035 7
C16  39030945.633 6  39030946.551 5 203244379.455 6 157161448.625 5
C19  24717254.133 6                 128709223.082 6
C21  23311768.117 7                 121390494.179 7
C22  21335278.227 7                 111098390.905 7
E03  26082648.109 7  26082653.391 8 137065247.041 7 103688985.773 8
E05  22027161.930 8  22027163.965 8 115753515.462 8  87566790.744 8
E09  25480357.281 5  25480353.352 6 133900120.376 5 101294604.274 6
E15  25211022.977 7  25211026.789 8 132484812.884 7 100223920.680 8
E34  23140536.102 8  23140537.898 8 121604336.549 8  91992896.075 8
E36  25651414.336 7  25651418.387 8 134799089.395 7 101974651.184 8
G01  20150963.914 7                  20150968.504 8 105894029.923 7                  82514845.786 8
G02  22041793.891 7  22041796.059 5                 115830408.148 7  90257467.056 5
G03  19820945.797 8                  19820952.215 8 104159772.111 8                  81163485.826 8
G04  22143146.609 7                  22143153.418 7 116363022.515 7                  90672512.095 7
G17  22160727.297 7                  22160732.227 7 116455414.973 7                  90744644.159 7
G19  22687296.273 7  22687298.898 4                 119222550.775 7  92901001.308 4
G28  23048167.898 6                  23048173.602 6 121118963.338 6                  94378417.507 6
R03  19090751.578 8  19090755.602 7 102194276.906 8  79484515.109 7
R04  20382688.953 8  20382693.793 7 109148375.491 8  84893507.696 7
R18  19536054.422 8  19536058.695 7 104284794.028 8  81110348.153 7
R19  19738125.125 8  19738127.328 8 105585654.898 8  82122455.350 8
> 2025 06 15 13 41 10.0000000  0 24
C06  38854485.633 6  38854481.793 6 202325508.363 6 156450916.856 6
C11  24884817.023 6  24884816.320 7 129581772.965 6 100200844.600 7
C12  22218498.844 7  22218495.809 7 115697558.045 7  89464781.364 7
C16  39328603.125 6  39328605.020 5 204794362.355 6 158359993.717 5
C19  25018390.633 6                 130277321.860 6
C21  23607927.273 7                 122932672.363 7
C22  21634155.969 7                 112654723.340 7
E03  26378227.570 7  26378232.223 8 138618524.518 7 104864030.117 8
E05  22324766.742 8  22324768.793 8 117317439.683 8  88749889.268 8
E09  25780664.758 5  25780661.207 6 135478249.164 5 102488448.449 6
E15  25507265.602 7  25507269.012 8 134041576.467 7 101401602.239 8
E34  23439083.273 8  23439085.340 9 123173213.977 8  93179741.657 9
E36  25952139.719 7  25952143.531 8 136379410.524 7 103170153.840 8
G01  20450336.406 8                  20450340.512 8 107467240.928 8                  83740724.499 8
G02  22342584.695 7  22342587.156 6                 117411076.405 7  91489156.590 6
G03  20118745.477 8                  20118752.078 7 105724720.236 8                  82382925.911 7
G04  22438473.031 7                  22438480.262 7 117914977.569 7                  91881827.751 7
G17  22459014.547 7                  22459019.891 7 118022928.553 7                  91966083.313 7
G19  22983677.477 7  22983680.449 5                 120780041.576 7  94114630.521 5
G28  23346129.336 6                  23346134.934 6 122684761.825 6                  95598520.233 6
R03  19389870.828 8  19389874.199 7 103795484.384 8  80729898.704 7
R04  20678456.805 8  20678461.254 7 110732199.060 8  86125370.501 7
R18  19836505.531 8  19836509.824 7 105888623.363 8  82357770.963 7
R19  20034562.781 8  20034565.090 7 107171395.360 8  83355809.037 7
> 2025 06 15 13 41 15.0000000  0 25
C06  38852193.961 6  38852189.793 6 202313576.204 6 156441690.144 6
C11  24880851.398 6  24880851.645 7 129561127.740 6 100184880.431 7
C12  22217280.852 7  22217277.453 7 115691213.697 7  89459875.526 7
C16  39326469.047 6  39326471.020 5 204783252.076 6 158351402.530 5
C19  25019736.227 6                 130284329.426 6
C21  23604294.609 7                 122913758.680 7
C22  21633242.984 7                 112649969.495 7
E03  26374014.320 7  26374019.098 8 138596384.553 7 104847281.384 8
E05  22322581.320 8  22322583.316 8 117305955.160 8  88741201.310 8
E09  25781181.641 5  25781178.441 6 135480968.664 5 102490505.754 6
E15  25503715.578 7  25503719.344 8 134022922.857 7 101387490.919 8
E34  23437840.508 8  23437842.281 9 123166681.461 8  93174799.847 9
E36  25953074.328 7  25953077.852 8 136384320.372 7 103173868.099 8
G01  20449918.523 8                  20449923.199 8 107465047.439 8                  83739015.271 8
G02  22343585.844 7  22343588.008 5                 117416336.781 7  91493255.572 5
G03  20116755.359 7                  20116761.453 7 105714259.899 7                  82374774.986 7
G04  22434009.313 7                  22434016.348 7 117891518.524 7                  91863547.986 7
G17  22457513.383 7                  22457518.758 7 118015038.488 7                  91959935.200 7
G19  22980269.391 7  22980271.355 5                 120762125.999 7  94100670.337 5
G28  23344302.031 6                  23344307.469 6 122675157.146 6                  95591036.105 6
G31  23162519.391 6                                 121719830.64616                
R03  19389201.109 8  19389204.633 7 103791897.885 8  80727109.212 7
R04  20674433.359 8  20674439.063 7 110710659.036 8  86108617.155 7
R18  19837168.148 8  19837172.723 7 105892161.759 8  82360523.052 7
R19  20031210.930 8  20031212.875 7 107153464.585 8  83341862.875 7
> 2025 06 15 13 41 20.0000000  0 25
C06  38849904.094 6  38849899.910 6 202301650.758 6 156432468.646 6
C11  24876889.375 6  24876889.230 7 129540492.128 6 100168923.678 7
C12  22216065.492 7  22216062.449 7 115684885.593 7  89454982.228 7
C16  39324337.078 6  39324338.586 5 204772148.479 6 158342816.566 5
C19  25021082.914 6                 130291342.085 6
C21  23600664.156 7                 122894854.606 7
C22  21632331.930 8                 112645228.011 8
E03  26369803.094 7  26369807.270 8 138574251.218 7 104830537.658 8
E05  22320398.477 8  22320400.344 8 117294483.818 8  88732523.319 8
E09  25781699.656 5  25781697.668 6 135483698.150 5 102492570.559 6
E15  25500167.297 7  25500170.820 8 134004275.527 7 101373384.338 8
E34  23436599.195 8  23436601.289 8 123160159.976 8  93169866.396 8
E36  25954010.172 7  25954013.723 8 136389237.668 7 103177587.995 8
G01  20449504.250 7                  20449508.883 8 107462869.555 7                  83737318.209 8
G02  22344589.156 7  22344591.227 5                 117421607.911 7  91497362.926 5
G03  20114767.133 8                  20114773.398 7 105703812.854 8                  82366634.434 7
G04  22429547.563 7                  22429554.230 7 117868069.768 7                  91845276.213 7
G17  22456014.953 6                  22456020.293 7 118007165.960 6                  91953800.749 7
G19  22976863.414 7  22976865.855 5                 120744227.338 7  94086723.322 5
G28  23342478.117 6                  23342483.023 6 122665571.046 6                  95583566.462 6
G31  23158988.078 6                  23158993.332 5 121701261.415 6                  94832207.19015
R03  19388534.234 8  19388538.563 7 103788329.936 8  80724334.149 7
R04  20670414.266 7  20670419.223 7 110689134.228 7  86091875.626 7
R18  19837835.477 8  19837839.277 7 105895720.651 8  82363291.077 7
R19  20027862.117 8  20027864.625 7 107135553.188 8  83327931.808 7
> 2025 06 15 13 41 25.0000000  0 25
C06  38847614.805 6  38847610.988 6 202289732.099 6 156423252.355 6
C11  24872929.148 6  24872928.242 7 129519866.195 6 100152974.402 7
C12  22214853.633 7  22214850.262 7 115678573.786 7  89450101.534 7
C16  39322205.305 6  39322207.895 5 204761051.750 6 158334235.846 5
C19  25022430.578 6                 130298359.880 6
C21  23597036.047 7                 122875960.193 7
C22  21631424.016 8                 112640498.969 8
E03  26365592.547 7  26365596.738 8 138552124.607 7 104813799.029 8
E05  22318218.070 8  22318219.930 8 117283025.761 8  88723855.374 8
E09  25782217.430 4  25782218.805 6 135486437.48914 102494642.86516
E15  25496619.898 7  25496623.527 8 133985634.524 7 101359282.540 8
E34  23435360.281 8  23435362.418 8 123153649.630 8  93164941.360 8
E36  25954947.125 7  25954950.941 8 136394162.455 7 103181313.557 8
G01  20449093.023 7                  20449097.465 8 107460707.390 7                  83735633.403 8
G02  22345594.883 7  22345596.148 5                 117426889.808 7  91501478.686 5
G03  20112781.742 8                  20112788.238 7 105693379.170 8                  82358504.297 7
G04  22425088.102 7                  22425093.922 7 117844631.279 7                  91827012.452 7
G17  22454521.156 6                  22454526.027 7 117999311.140 6                  91947680.100 7
G19  22973459.555 7  22973462.887 5                 120726345.675 7  94072789.576 5
G28  23340657.805 7                  23340662.148 6 122656003.516 7                  95576111.272 6
G31  23155457.961 6                  23155463.379 5 121682707.176 6                  94817749.374 5
R03  19387871.203 8  19387875.289 7 103784780.907 8  80721573.813 7
R04  20666397.578 8  20666402.520 7 110667624.849 8  86075146.100 7
R18  19838505.945 8  19838509.977 7 105899300.189 8  82366075.166 7
R19  20024517.492 8  20024520.117 8 107117661.307 8  83314015.903 8
> 2025 06 15 13 41 30.0000000  0 25
C06  38845326.953 6  38845322.551 6 202277819.571 6 156414040.819 6
C11  24868968.930 6  24868968.918 7 129499249.328 6 100137032.130 7
C12  22213645.352 7  22213641.004 7 115672277.671 7  89445232.980 7
C16  39320074.953 5  39320077.598 5 204749961.234 5 158325659.909 5
C19  25023778.602 6                 130305382.189 6
C21  23593409.688 7                 122857074.833 7
C22  21630517.938 8                 112635781.721 8
E03  26361383.406 7  26361387.391 8 138530004.071 7 104797065.010 8
E05  22316040.172 8  22316041.918 8 117271580.341 8  88715196.980 8
E09  25782741.008 5  25782741.801 6 135489186.14015 102496722.22916
E15  25493073.898 7  25493077.336 8 133966999.239 7 101345185.073 8
E34  23434123.195 8  23434125.539 8 123147149.749 8  93160024.251 8
E36  25955885.539 7  25955889.520 8 136399094.128 7 103185044.319 8
G01  20448684.758 8                  20448688.863 8 107458560.282 8                  83733960.317 8
G02  22346601.906 7  22346602.543 5                 117432181.869 7  91505602.357 5
G03  20110798.789 8                  20110804.898 7 105682958.307 8                  82350384.129 7
G04  22420629.766 7                  22420635.508 7 117821202.516 7                  91808756.296 7
G17  22453029.109 6                  22453034.426 7 117991473.386 6                  91941572.733 7
G19  22970059.688 7  22970063.453 5                 120708480.399 7  94058868.597 5
G28  23338840.977 7                  23338844.914 6 122646453.941 7                  95568670.087 6
G31  23151927.625 6                  23151934.918 5 121664167.308 6                  94803302.747 5
R03  19387211.172 8  19387216.086 7 103781250.009 8  80718827.555 7
R04  20662384.859 8  20662388.672 7 110646130.363 8  86058428.182 7
R18  19839180.102 8  19839183.961 7 105902899.711 8  82368874.784 7
R19  20021176.344 8  20021178.766 7 107099788.414 8  83300114.772 7
> 2025 06 15 13 41 35.0000000  0 25
C06  38843040.398 6  38843036.184 6 202265913.458 6 156404834.273 6
C11  24865011.047 6  24865011.582 7 129478641.804 6 100121097.112 7
C12  22212439.547 7  22212435.223 7 115665997.459 7  89440376.729 7
