     3.04           OBSERVATION DATA    Mixed(MIXED)        RINEX VERSION / TYPE
cnvtToRINEX 3.14.0  convertToRINEX OPR  20250615 162944 UTC PGM / RUN BY / DATE 
----------------------------------------------------------- COMMENT             
37                                                          MARKER NAME         
37                                                          MARKER NUMBER       
GEODETIC                                                    MARKER TYPE         
GNSS Observer       Trimble                                 OBSERVER / AGENCY   
5849S10870          Geo Explorer 3      5.51                REC # / TYPE / VERS 
49S10870            UNKNOWN EXT     NONE                    ANT # / TYPE        
  3912819.2191  1190414.4865  4878775.6044                  APPROX POSITION XYZ 
        1.3130        0.0000        0.0000                  ANTENNA: DELTA H/E/N
G    6 C1C C2W C2X L1C L2W L2X                              SYS / # / OBS TYPES 
R    4 C1C C2C L1C L2C                                      SYS / # / OBS TYPES 
E    4 C1X C8X L1X L8X                                      SYS / # / OBS TYPES 
C    2 C2I L2I                                              SYS / # / OBS TYPES 
     5.000                                                  INTERVAL            
  2025     6    15    10    45    0.0000000     GPS         TIME OF FIRST OBS   
  2025     6    15    11    25   45.0000000     GPS         TIME OF LAST OBS    
     0                                                      RCV CLOCK OFFS APPL 
  7 R01  1 R02 -4 R03  5 R16 -1 R17  4 R18 -3 R24  2        GLONASS SLOT / FRQ #
G L2X -0.25000                                              SYS / PHASE SHIFT   
R L2C -0.25000                                              SYS / PHASE SHIFT   
    18                                                      LEAP SECONDS        
    27                                                      # OF SATELLITES     
   C19   490   490                                          PRN / # OF OBS      
   C20   490   490                                          PRN / # OF OBS      
   C22   490   490                                          PRN / # OF OBS      
   C29   178   177                                          PRN / # OF OBS      
   E02   490   490   490   490                              PRN / # OF OBS      
   E04   490   490   490   490                              PRN / # OF OBS      
   E05   122   122   122   122                              PRN / # OF OBS      
   E06   490   489   489   489                              PRN / # OF OBS      
   E09   308   308   308   308                              PRN / # OF OBS      
   E11   352   348   349   348                              PRN / # OF OBS      
   E30   216   197   207   197                              PRN / # OF OBS      
   E34   490   490   490   490                              PRN / # OF OBS      
   E36   490   490   490   490                              PRN / # OF OBS      
   G01   410     0   371   388     0   370                  PRN / # OF OBS      
   G02   490   490     0   490   490     0                  PRN / # OF OBS      
   G03   136     0   135   136     0   135                  PRN / # OF OBS      
   G08   490     0   490   490     0   490                  PRN / # OF OBS      
   G10   490     0   490   490     0   490                  PRN / # OF OBS      
   G27   490     0   490   490     0   490                  PRN / # OF OBS      
   G32   488     0   486   488     0   486                  PRN / # OF OBS      
   R01   490     0   490     0                              PRN / # OF OBS      
   R02   490   490   490   490                              PRN / # OF OBS      
   R03   292   292   292   292                              PRN / # OF OBS      
   R16     6     3     4     2                              PRN / # OF OBS      
   R17   490   490   490   490                              PRN / # OF OBS      
   R18   276   271   275   269                              PRN / # OF OBS      
   R24   397   382   394   370                              PRN / # OF OBS      
DBHZ                                                        SIGNAL STRENGTH UNIT
                                                            END OF HEADER       
>                              2  1
              *** Start of Kinematic Data ***               COMMENT             
> 2025 06 15 10 45  0.0000000  0 20
C19  22392171.344 7 116601907.07217
C20  23332557.195 7 121498747.19417
C22  24960586.711 7 129976331.74517
C29  23744039.805 6 123641438.61816
E02  25716835.188 7  25716837.215 8 135142876.24017 102234720.55618
E04  25707695.922 7  25707698.535 8 135094851.41717 102198388.12818
E06  25381499.617 6  25381502.871 7 133380687.67616 100901632.62817
E11  25361557.953 7  25361557.922 7 133275882.71117 100822340.94417
E34  25658936.172 6  25658940.418 7 134838619.91416 102004556.04817
E36  23334625.688 8  23334628.359 8 122624286.37218  92764484.58118
G01  22906225.297 4                  22906258.945 4 120373044.13914                  93797307.31914
G02  21208469.898 8  21208472.004 6                 111451263.79218  86845145.85416
G08  20312460.266 8                  20312467.129 8 106742739.47418                  83176215.65318
G10  21402593.727 8                  21402600.059 7 112471390.50618                  87640045.44717
G27  21627342.914 7                  21627350.133 7 113652458.29717                  88560262.89617
G32  22351961.203 7                  22351967.281 6 117460356.38017                  91527551.98216
R01  19881963.930 7                 106280496.30717
R02  20398557.492 8  20398563.426 7 108850607.66618  84661614.41217
R17  19342772.719 8  19342777.430 7 103507093.53318  80505722.36117
R24  20614249.328 7  20614254.504 7 110233663.61817  85737237.41717
> 2025 06 15 10 45  5.0000000  0 20
C19  22389412.609 7 116587541.476 7
C20  23332732.367 7 121499662.082 7
C22  24955770.023 7 129951249.520 7
C29  23745176.055 7 123647355.830 7
E02  25717674.664 7  25717676.828 8 135147288.609 7 102238058.481 8
E04  25706191.422 7  25706194.004 8 135086944.915 7 102192406.915 8
E06  25378697.773 6  25378701.730 7 133365967.180 6 100890496.699 7
E11  25362010.445 7  25362010.305 7 133278260.092 7 100824139.403 7
E34  25655448.711 6  25655452.762 8 134820291.938 6 101990691.036 8
E36  23333089.508 8  23333091.941 8 122616212.223 8  92758376.534 8
G01  22901968.078 4                  22902002.063 5 120350704.202 4                  93779899.580 5
G02  21205607.078 8  21205608.871 6                 111436220.015 8  86833423.442 6
G08  20311644.586 8                  20311652.105 8 106738454.097 8                  83172876.403 8
G10  21402899.547 8                  21402905.543 7 112472995.912 8                  87641296.417 7
G27  21628691.625 7                  21628698.988 7 113659544.221 7                  88565784.409 7
G32  22348719.531 7                  22348725.965 6 117443324.795 7                  91514280.599 6
R01  19881577.734 7                 106278426.383 7
R02  20394280.930 8  20394286.551 7 108827782.801 8  84643861.760 7
R17  19340208.789 8  19340213.668 7 103493372.825 8  80495050.720 7
R24  20615087.672 7  20615092.219 7 110238141.917 7  85740720.504 7
>                              3  5
              *** Start of Occupation ***                   COMMENT             
37                                                          MARKER NAME         
37                                                          MARKER NUMBER       
  3912819.2191  1190414.4865  4878775.6044                  APPROX POSITION XYZ 
        1.3130        0.0000        0.0000                  ANTENNA: DELTA H/E/N
> 2025 06 15 10 45 10.0000000  0 20
C19  22386656.102 7 116573190.952 7
C20  23332911.750 7 121500590.643 7
C22  24950954.594 7 129926172.414 7
C29  23746313.547 7 123653280.507 7
E02  25718515.867 7  25718518.227 8 135151710.008 7 102241403.239 8
E04  25704689.594 7  25704692.145 8 135079052.616 7 102186436.445 8
E06  25375899.125 6  25375902.906 7 133351259.264 6 100879370.278 7
E11  25362463.414 7  25362463.656 7 133280642.495 7 100825941.667 7
E34  25651961.797 7  25651965.813 8 134801968.396 7 101976829.398 8
E36  23331554.078 8  23331556.906 8 122608145.609 8  92752274.206 8
G01  22897719.172 5                  22897747.523 5 120328369.944 5                  93762496.349 5
G02  21202746.383 8  21202747.320 6                 111421185.298 8  86821708.081 6
G08  20310832.469 8                  20310839.871 8 106734185.930 8                  83169550.564 8
G10  21403206.938 8                  21403213.523 7 112474613.346 8                  87642556.745 7
G27  21630041.391 7                  21630049.027 7 113666641.935 7                  88571315.060 7
G32  22345481.094 7                  22345487.531 6 117426307.871 7                  91501020.642 6
R01  19881194.641 7                 106276380.252 7
R02  20390007.031 8  20390012.262 7 108804976.421 8  84626123.473 7
R17  19337647.625 8  19337652.359 8 103479666.049 8  80484389.879 8
R24  20615927.703 7  20615931.742 7 110242632.345 7  85744213.068 7
> 2025 06 15 10 45 15.0000000  0 20
C19  22383902.664 7 116558854.355 7
C20  23333092.133 7 121501531.703 7
C22  24946139.016 7 129901099.294 7
C29  23747452.773 7 123659211.513 7
E02  25719358.523 7  25719361.195 8 135156139.282 7 102244753.948 8
E04  25703190.375 7  25703192.766 8 135071173.351 7 102180475.826 8
E06  25373102.219 6  25373106.301 7 133336562.653 6 100868252.395 7
E11  25362917.133 7  25362917.758 7 133283028.682 7 100827746.797 7
E34  25648476.063 7  25648479.551 7 134783648.136 7 101962970.254 7
E36  23330020.383 8  23330023.109 8 122600085.354 8  92746176.679 8
G01  22893468.563 4                  22893494.711 4 120306039.99114                  93745096.29814
G02  21199886.813 8  21199887.477 6                 111406158.434 8  86809998.851 6
G08  20310023.570 8                  20310030.508 8 106729933.805 8                  83166237.198 8
G10  21403516.680 8                  21403523.227 8 112476241.580 8                  87643825.485 8
G27  21631394.531 7                  21631401.621 7 113673750.181 7                  88576853.926 7
G32  22342245.938 7                  22342253.148 6 117409304.458 7                  91487771.239 6
R01  19880815.664 7                 106274356.746 7
R02  20385735.828 8  20385741.586 7 108782187.490 8  84608398.745 7
R17  19335088.828 8  19335093.613 7 103465972.163 8  80473739.061 7
R24  20616768.461 7  20616773.770 7 110247133.822 7  85747714.193 7
> 2025 06 15 10 45 20.0000000  0 19
C19  22381152.336 7 116544532.668 7
C20  23333274.781 7 121502486.250 7
C22  24941325.211 7 129876031.195 7
C29  23748592.961 7 123665149.824 7
E02  25720202.469 7  25720205.742 8 135160577.398 7 102248111.335 8
E04  25701693.125 7  25701696.039 8 135063308.083 7 102174525.817 8
E06  25370308.695 6  25370312.012 7 133321878.441 6 100857143.872 7
E11  25363372.484 7  25363372.758 7 133285419.737 7 100829555.597 7
E34  25644991.047 7  25644994.164 8 134765332.183 7 101949114.372 8
E36  23328488.125 8  23328490.680 8 122592032.456 8  92740084.705 8
G02  21197028.555 8  21197029.047 6                 111391140.435 8  86798296.512 6
G08  20309217.422 8                  20309224.695 8 106725698.711 8                  83162937.130 8
G10  21403828.695 8                  21403835.023 7 112477881.618 8                  87645103.421 7
G27  21632750.008 7                  21632756.219 7 113680869.997 7                  88582401.794 7
G32  22339013.797 7                  22339020.051 6 117392315.560 7                  91474533.154 6
R01  19880441.344 7                 106272356.918 7
R02  20381469.352 8  20381474.180 7 108759416.679 8  84590688.121 7
R17  19332532.211 8  19332536.859 8 103452291.954 8  80463098.917 8
R24  20617612.672 7  20617617.879 7 110251647.333 7  85751224.685 7
> 2025 06 15 10 45 25.0000000  0 19
C19  22378404.766 7 116530226.713 7
C20  23333460.633 7 121503455.104 7
C22  24936512.188 7 129850968.926 7
C29  23749735.211 7 123671096.261 7
E02  25721049.063 7  25721052.227 8 135165025.174 7 102251476.046 8
E04  25700199.570 7  25700202.059 8 135055457.684 7 102168587.021 8
E06  25367515.188 5  25367520.285 7 133307207.371 5 100846045.314 7
E11  25363828.672 7  25363828.777 7 133287816.394 7 100831368.637 7
E34  25641506.648 7  25641509.789 8 134747021.324 7 101935262.363 8
E36  23326957.180 8  23326959.770 8 122583987.752 8  92733998.932 8
G02  21194172.570 8  21194172.887 6                 111376132.158 8  86786601.757 6
G08  20308415.320 8                  20308422.141 8 106721481.484 8                  83159650.974 8
G10  21404143.109 8                  21404149.281 7 112479534.283 8                  87646391.210 7
G27  21634105.797 7                  21634113.344 7 113688002.176 7                  88587959.324 7
G32  22335783.664 7                  22335790.633 6 117375341.991 7                  91461307.003 6
R01  19880072.344 8                 106270381.456 8
R02  20377205.344 8  20377210.414 7 108736665.434 8  84572992.713 7
R17  19329978.281 8  19329983.363 8 103438626.406 8  80452470.169 8
R24  20618458.641 7  20618464.109 7 110256173.725 7  85754745.218 7
> 2025 06 15 10 45 30.0000000  0 20
C19  22375660.844 7 116515935.124 7
C20  23333649.336 7 121504436.878 7
C22  24931700.500 7 129825911.119 7
C29  23750877.609 7 123677049.466 7
E02  25721897.461 7  25721900.168 8 135169481.234 7 102254847.007 8
E04  25698708.336 7  25698710.684 8 135047620.733 7 102162658.424 8
E06  25364726.063 5  25364730.742 7 133292548.146 5 100834955.674 7
E11  25364285.586 7  25364285.676 7 133290217.314 7 100833184.895 7
E34  25638023.102 7  25638026.027 8 134728714.195 7 101921413.153 8
E36  23325427.391 8  23325430.254 8 122575949.848 8  92727918.320 8
G01  22880728.078 5                                                                
G02  21191318.148 8  21191319.281 6                 111361132.206 8  86774913.478 6
G08  20307616.047 8                  20307622.758 8 106717280.730 8                  83156377.661 8
G10  21404459.859 8                  21404466.113 7 112481198.154 8                  87647687.748 7
G27  21635466.789 7                  21635472.973 7 113695145.331 7                  88593525.402 7
G32  22332555.953 7                  22332562.996 6 117358382.463 7                  91448091.805 6
R01  19879707.008 8                 106268429.087 8
R02  20372945.266 8  20372950.168 7 108713931.869 8  84555311.065 7
R17  19327427.125 8  19327431.691 8 103424973.995 8  80441851.632 8
R24  20619306.953 7  20619313.160 7 110260711.464 7  85758274.536 7
> 2025 06 15 10 45 35.0000000  0 20
C19  22372919.055 7 116501658.292 7
C20  23333840.383 7 121505431.915 7
C22  24926891.086 7 129800858.134 7
C29  23752022.906 7 123683009.753 7
E02  25722747.063 7  25722749.746 8 135173945.931 7 102258224.514 8
E04  25697219.570 7  25697221.945 8 135039797.576 7 102156740.271 8
E06  25361940.367 5  25361943.512 8 133277901.045 5 100823875.303 8
E11  25364743.445 7  25364743.441 7 133292622.866 7 100835004.665 7
E34  25634540.227 7  25634543.055 8 134710411.174 7 101907567.058 8
E36  23323899.477 8  23323902.102 8 122567919.119 8  92721843.117 8
G01  22876484.125 5                                 120216771.56915                
G02  21188465.125 8  21188466.871 6                 111346140.964 8  86763231.994 6
G08  20306819.617 8                  20306826.676 8 106713096.837 8                  83153117.476 8
G10  21404778.406 8                  21404784.500 7 112482873.650 8                  87648993.318 7
G27  21636828.602 7                  21636834.129 7 113702299.797 7                  88599100.289 7
G32  22329330.617 7                  22329338.848 6 117341437.285 7                  91434887.830 6
R01  19879345.984 7                 106266500.031 7
R02  20368688.805 8  20368693.871 7 108691216.557 8  84537643.610 7
R17  19324878.188 8  19324883.242 8 103411335.239 8  80431243.733 8
R24  20620158.719 7  20620164.137 7 110265261.013 7  85761813.063 7
> 2025 06 15 10 45 40.0000000  0 20
C19  22370179.906 7 116487396.912 7
C20  23334035.313 7 121506440.922 7
C22  24922081.000 7 129775810.680 7
C29  23753168.773 7 123688977.829 7
E02  25723597.930 7  25723601.191 8 135178419.936 7 102261609.058 8
E04  25695733.383 7  25695735.992 8 135031989.018 7 102150833.147 8
E06  25359155.391 5  25359158.730 7 133263266.799 5 100812804.658 7
E11  25365202.539 7  25365202.176 7 133295033.746 7 100836828.458 7
E34  25631057.719 7  25631061.047 8 134692113.017 7 101893724.612 8
E36  23322372.664 8  23322375.398 8 122559896.237 8  92715773.870 8
G01  22872236.844 4                  22872257.789 5 120194469.704 4                  93658068.86815
G02  21185614.313 7  21185616.035 6                 111331159.123 7  86751557.841 6
G08  20306026.789 8                  20306033.805 8 106708930.453 8                  83149870.934 8
G10  21405099.977 8                  21405106.297 7 112484561.399 8                  87650308.438 7
G27  21638192.445 7                  21638197.969 7 113709466.255 7                  88604684.574 7
G32  22326110.719 7                  22326116.652 6 117324507.136 7                  91421695.522 6
R01  19878989.781 7                 106264595.036 7
R02  20364435.070 8  20364440.363 7 108668520.274 8  84519990.946 7
R17  19322331.922 8  19322337.328 8 103397710.824 8  80420646.971 8
R24  20621010.906 7  20621017.211 7 110269823.115 7  85765361.380 7
> 2025 06 15 10 45 45.0000000  0 20
C19  22367443.547 7 116473150.943 7
C20  23334231.516 7 121507463.892 7
C22  24917271.180 7 129750768.796 7
C29  23754316.141 7 123694953.699 7
E02  25724450.336 7  25724454.234 8 135182903.253 7 102265000.635 8
E04  25694251.000 7  25694252.699 8 135024194.957 7 102144936.984 8
E06  25356371.641 5  25356376.438 7 133248645.447 5 100801743.718 7
E11  25365662.148 7  25365661.977 7 133297449.965 7 100838656.303 7
E34  25627576.188 7  25627579.949 8 134673819.639 7 101879885.772 8
E36  23320847.711 8  23320850.199 8 122551881.234 8  92709710.568 8
G01  22868000.906 5                  22868016.121 5 120172173.857 5                  93640695.363 5
G02  21182765.859 8  21182767.410 6                 111316186.678 8  86739891.018 6
G08  20305237.273 8                  20305244.082 8 106704781.623 8                  83146638.077 8
G10  21405423.766 8                  21405429.445 7 112486261.429 8                  87651633.139 7
G27  21639558.305 7                  21639564.625 7 113716644.737 7                  88610278.194 7
G32  22322890.367 7                  22322898.082 6 117307592.074 7                  91408514.986 6
R01  19878637.844 7                 106262714.149 7
R02  20360185.633 8  20360191.063 7 108645843.088 8  84502353.145 7
R17  19319788.945 8  19319793.641 7 103384100.758 8  80410061.361 7
R24  20621866.523 7  20621872.793 7 110274397.765 7  85768919.436 7
> 2025 06 15 10 45 50.0000000  0 21
C19  22364711.055 7 116458919.202 7
C20  23334430.266 7 121508499.575 7
C22  24912462.906 7 129725731.220 7
C29  23755466.297 7 123700936.114 7
E02  25725305.453 7  25725309.012 8 135187394.642 7 102268398.325 8
E04  25692770.867 7  25692771.973 8 135016414.175 7 102139050.873 8
E06  25353588.766 5  25353596.293 7 133234035.78015 100790691.61317
E11  25366122.898 7  25366122.531 7 133299870.215 7 100840487.201 7
E30  26297242.523 5  26297234.645 4 138193016.39515 104542030.52614
E34  25624095.797 7  25624099.391 8 134655529.796 7 101866049.628 8
E36  23319323.664 8  23319326.242 8 122543872.854 8  92703652.281 8
G01  22863759.398 5                  22863773.258 5 120149882.676 5                  93623325.571 5
G02  21179917.773 8  21179920.238 6                 111301222.385 8  86728230.523 6
G08  20304451.047 8                  20304457.625 8 106700649.069 8                  83143417.895 8
G10  21405749.180 8                  21405755.340 7 112487972.494 8                  87652966.425 7
G27  21640925.977 7                  21640933.367 7 113723833.990 7                  88615880.230 7
G32  22319675.086 7                  22319681.895 6 117290690.863 7                  91395345.226 6
R01  19878289.781 7                 106260856.126 7
R02  20355938.953 8  20355944.176 7 108623183.446 8  84484728.963 7
R17  19317248.234 8  19317252.438 7 103370503.852 8  80399485.992 7
R24  20622724.570 7  20622730.813 7 110278983.643 7  85772486.199 7
> 2025 06 15 10 45 55.0000000  0 21
C19  22361980.961 7 116444699.188 7
C20  23334630.547 7 121509545.512 7
C22  24907654.414 7 129700695.512 7
C29  23756616.563 7 123706922.628 7
E02  25726161.992 7  25726164.754 8 135191891.586 7 102271800.229 8
E04  25691292.500 7  25691293.305 8 135008644.241 7 102133172.942 8
E06  25350809.703 4                                
E11  25366583.492 7  25366583.410 7 133302292.062 7 100842319.299 7
E30  26295699.406 5  26295701.695 4 138184961.174 5 104535936.818 4
E34  25620615.750 7  25620619.051 8 134637241.031 7 101852214.311 8
E36  23317800.648 8  23317803.074 8 122535868.614 8  92697597.130 8
G01  22859521.375 5                  22859530.371 5 120127593.920 5                  93605957.619 5
G02  21177071.492 8  21177073.754 6                 111286263.804 8  86716574.489 6
G08  20303667.125 8                  20303674.027 8 106696530.325 8                  83140208.493 8
G10  21406075.961 8                  21406082.738 7 112489692.050 8                  87654306.339 7
G27  21642295.648 7                  21642303.613 7 113731031.492 7                  88621488.663 7
G32  22316460.797 7                  22316467.941 6 117273801.072 7                  91382184.381 6
R01  19877945.164 7                 106259018.336 7
R02  20351696.469 8  20351701.098 7 108600539.169 8  84467116.755 7
R17  19314709.078 8  19314713.375 7 103356917.376 8  80388918.725 7
R24  20623584.156 7  20623589.621 7 110283578.141 7  85776059.670 7
> 2025 06 15 10 46  0.0000000  0 21
C19  22359253.297 7 116430493.958 7
C20  23334833.414 7 121510604.694 7
C22  24902848.273 7 129675664.690 7
C29  23757765.953 7 123712916.233 7
E02  25727020.031 7  25727022.227 8 135196397.122 7 102275208.628 8
E04  25689816.055 7  25689817.332 8 135000888.101 7 102127305.477 8
E06  25348037.445 4  25348041.793 7 133204846.97914 100768610.49317
E11  25367045.641 7  25367045.207 7 133304718.522 7 100844154.890 7
E30  26294163.328 6  26294162.402 4 138176919.683 6 104529853.45614
E34  25617135.664 7  25617139.645 8 134618956.398 7 101838382.107 8
E36  23316278.586 8  23316281.258 8 122527871.562 8  92691547.411 8
G01  22855278.055 5                  22855291.922 5 120105310.299 5                  93588593.747 5
G02  21174226.328 8  21174228.707 6                 111271313.890 8  86704925.215 6
G08  20302886.719 8                  20302893.480 8 106692428.426 8                  83137012.220 8
G10  21406405.625 8                  21406412.215 7 112491423.171 8                  87655655.256 7
G27  21643667.844 7                  21643675.371 7 113738240.296 7                  88627105.897 7
G32  22313249.594 7                  22313256.617 6 117256925.633 7                  91369034.707 6
R01  19877607.016 7                 106257203.885 7
R02  20347455.680 8  20347460.793 7 108577913.168 8  84449518.762 7
R17  19312172.320 8  19312177.074 7 103343344.661 8  80378362.177 7
R24  20624446.398 7  20624451.098 7 110288184.597 7  85779642.453 7
> 2025 06 15 10 46  5.0000000  0 21
C19  22356528.180 7 116416303.116 7
C20  23335039.539 7 121511676.722 7
C22  24898042.164 7 129650638.367 7
C29  23758918.719 7 123718916.522 7
E02  25727878.125 7  25727881.094 8 135200910.875 7 102278623.239 8
E04  25688342.242 7  25688343.844 8 134993145.419 7 102121448.197 8
E06  25345260.492 4  25345267.965 7 133190270.65114 100757583.56217
E11  25367508.047 7  25367507.742 7 133307149.246 7 100845993.703 7
E30  26292633.742 5  26292634.641 5 138168891.585 5 104523780.709 5
E34  25613656.758 7  25613661.035 8 134600675.470 7 101824552.705 8
E36  23314757.953 8  23314760.738 9 122519881.289 8  92685502.813 9
G01  22851039.039 5                  22851049.070 4 120083031.668 5                  93571233.688 4
G02  21171383.328 8  21171385.496 6                 111256372.290 8  86693282.413 6
G08  20302109.328 8                  20302115.965 8 106688342.999 8                  83133828.754 8
G10  21406737.547 8                  21406743.887 7 112493165.468 8                  87657012.882 7
G27  21645041.422 7                  21645049.156 7 113745459.998 7                  88632731.610 7
G32  22310040.602 7                  22310048.348 6 117240064.275 7                  91355895.999 6
R01  19877271.445 7                 106255412.322 7
R02  20343219.148 8  20343224.188 7 108555305.228 8  84431934.799 7
R17  19309638.758 8  19309643.609 7 103329785.252 8  80367815.972 7
R24  20625309.055 7  20625314.559 7 110292802.444 7  85783234.096 7
> 2025 06 15 10 46 10.0000000  0 21
C19  22353805.219 7 116402127.066 7
C20  23335247.656 7 121512761.980 7
C22  24893236.430 7 129625616.977 7
C29  23760071.188 7 123724923.957 7
E02  25728738.438 7  25728741.715 8 135205433.204 7 102282044.343 8
E04  25686871.359 7  25686873.160 8 134985416.572 7 102115601.377 8
E06  25342491.203 5  25342496.535 7 133175706.36115 100746565.79217
E11  25367971.586 7  25367971.172 7 133309584.570 7 100847836.004 7
E30  26291107.703 5  26291109.699 5 138160877.321 5 104517717.943 5
E34  25610178.766 6  25610183.266 8 134582398.702 6 101810726.455 8
E36  23313238.891 8  23313241.594 9 122511898.204 8  92679463.663 9
G01  22846800.000 5                                 120060758.369 5                
G02  21168541.477 8  21168543.734 6                 111241439.423 8  86681646.423 6
G08  20301335.297 8                  20301341.754 8 106684274.396 8                  83130658.416 8
G10  21407071.336 8                  21407077.270 7 112494919.276 8                  87658379.501 7
G27  21646417.000 7                  21646424.895 7 113752690.973 7                  88638366.115 7
G32  22306835.266 7                  22306842.813 7 117223217.362 7                  91342768.525 7
R01  19876939.695 7                 106253644.207 7
R02  20338985.984 8  20338990.801 7 108532715.658 8  84414365.133 7
R17  19307107.852 8  19307111.738 7 103316239.443 8  80357280.329 7
R24  20626175.016 7  20626180.184 7 110297432.071 7  85786834.901 7
> 2025 06 15 10 46 15.0000000  0 22
C19  22351085.844 7 116387966.811 7
C20  23335459.945 7 121513861.454 7
C22  24888432.570 7 129600601.508 7
C29  23761226.406 7 123730939.431 7
E02  25729600.953 7  25729604.113 8 135209965.123 7 102285472.698 8
E04  25685403.531 7  25685405.199 8 134977702.616 7 102109765.813 8
E06  25339724.773 5  25339727.629 7 133161155.38115 100735558.12017
E11  25368435.500 7  25368435.668 7 133312025.527 7 100849682.576 7
E30  26289584.852 5  26289587.480 4 138152877.874 5 104511666.38014
E34  25606702.266 6  25606706.301 8 134564127.108 6 101796904.078 8
E36  23311721.266 8  23311724.055 9 122503923.317 8  92673430.708 9
G01  22842568.344 4                                 120038491.383 4                
G02  21165701.789 8  21165703.832 6                 111226516.292 8  86670018.016 6
G08  20300564.805 8                  20300571.031 8 106680223.669 8                  83127501.997 8
G10  21407407.055 8                  21407413.176 7 112496685.651 8                  87659755.908 7
G27  21647794.594 7                  21647802.883 7 113759934.236 7                  88644010.197 7
G32  22303632.484 7                  22303639.922 6 117206385.895 7                  91329653.085 6
R01  19876614.563 7                 106251900.459 7
R02  20334756.578 8  20334761.238 7 108510145.367 8  84396810.474 7
R16  22331507.477 5  22331468.547 3 119290790.35015  92781651.94013
R17  19304579.516 8  19304583.445 8 103302708.395 8  80346756.159 8
R24  20627043.258 7  20627048.512 7 110302074.492 7  85790445.670 7
> 2025 06 15 10 46 20.0000000  0 21
C19  22348369.469 7 116373821.852 7
C20  23335673.531 7 121514974.709 7
C22  24883629.375 7 129575591.538 7
C29  23762383.406 7 123736962.566 7
E02  25730465.828 7  25730468.266 8 135214506.182 7 102288907.962 8
E04  25683937.875 7  25683940.008 8 134970003.041 7 102103941.141 8
E06  25336956.375 4  25336961.090 7 133146617.17514 100724560.10217
E11  25368901.500 7  25368901.160 7 133314471.698 7 100851533.085 7
E30  26288065.938 5  26288068.148 4 138144892.746 5 104505625.53714
E34  25603226.305 6  25603230.242 8 134545860.218 6 101783085.278 8
E36  23310205.242 8  23310208.004 8 122495956.184 8  92667403.623 8
G02  21162863.719 8  21162865.504 6                 111211602.462 8  86658396.844 6
G08  20299796.297 8                  20299803.789 8 106676190.307 8                  83124359.114 8
G10  21407745.938 8                  21407751.965 7 112498464.112 8                  87661141.711 7
G27  21649176.039 7                  21649183.000 7 113767189.313 7                  88649663.491 7
G32  22300432.781 7                  22300438.977 6 117189569.492 7                  91316549.377 6
R01  19876293.008 8                 106250180.631 8
R02  20330529.875 8  20330535.301 7 108487594.208 8  84379270.693 7
R16  22331378.875 4                 119290111.401 4
R17  19302053.539 8  19302057.520 7 103289191.576 8  80336243.080 7
R24  20627913.188 7  20627919.074 7 110306729.272 7  85794066.063 7
> 2025 06 15 10 46 25.0000000  0 20
C19  22345656.109 7 116359691.020 7
C20  23335890.258 7 121516100.478 7
C22  24878826.703 6 129550585.810 6
C29  23763541.320 7 123742992.081 7
E02  25731331.617 7  25731333.961 8 135219055.125 7 102292349.183 8
E04  25682475.305 7  25682477.367 8 134962316.645 7 102098126.438 8
E06  25334193.500 5  25334196.797 7 133132090.51315 100713570.78117
E11  25369367.516 7  25369367.441 7 133316921.775 7 100853386.545 7
E30  26286549.281 5  26286551.293 3 138136920.801 5 104499594.832 3
E34  25599751.203 6  25599754.789 8 134527596.690 6 101769269.052 8
E36  23308690.195 8  23308693.148 8 122487995.537 8  92661381.441 8
G02  21160027.391 8  21160028.793 6                 111196696.690 8  86646781.945 6
G08  20299032.102 8                  20299039.219 8 106672173.120 8                  83121228.846 8
G10  21408085.914 8                  21408092.621 7 112500253.408 8                  87662535.958 7
G27  21650557.750 7                  21650565.414 7 113774454.978 7                  88655325.026 7
G32  22297236.250 7                  22297241.105 6 117172766.844 7                  91303456.400 6
R01  19875975.563 8                 106248483.326 8
R02  20326306.992 8  20326312.211 7 108465060.750 8  84361744.695 7
R17  19299529.063 8  19299534.180 8 103275687.746 8  80325740.139 8
R24  20628785.953 7  20628791.730 7 110311395.266 7  85797695.160 7
> 2025 06 15 10 46 30.0000000  0 20
C19  22342945.258 7 116345574.534 7
C20  23336109.383 7 121517238.979 7
C22  24874026.258 6 129525584.510 6
C29  23764700.539 7 123749028.244 7
E02  25732198.828 7  25732201.098 8 135223612.109 7 102295796.511 8
E04  25681015.250 7  25681017.215 8 134954643.582 7 102092321.814 8
E06  25331428.516 5  25331434.664 7 133117575.77615 100702590.45017
E11  25369834.703 7  25369834.484 7 133319376.017 7 100855243.157 7
E30  26285033.750 5  26285036.969 4 138128962.128 5 104493574.18514
E34  25596276.078 7  25596280.066 8 134509336.807 7 101755455.608 8
E36  23307176.758 8  23307179.531 8 122480041.574 8  92655364.318 8
G02  21157192.711 8  21157193.652 6                 111181799.155 8  86635173.462 6
G08  20298270.391 8                  20298277.859 8 106668172.303 8                  83118111.332 8
G10  21408428.344 8                  21408435.102 7 112502053.736 8                  87663938.793 7
G27  21651942.875 7                  21651950.449 7 113781731.399 7                  88660994.965 7
G32  22294041.094 7                  22294046.859 7 117155978.178 7                  91290374.323 7
R01  19875662.016 7                 106246808.813 7
R02  20322087.883 8  20322093.527 7 108442545.175 8  84344232.578 7
R17  19297007.539 8  19297012.906 8 103262197.105 8  80315247.421 8
R24  20629660.383 7  20629666.410 7 110316072.592 7  85801333.070 7
> 2025 06 15 10 46 35.0000000  0 21
C19  22340237.258 7 116331473.569 7
C20  23336330.211 7 121518391.414 7
C22  24869227.047 6 129500588.937 6
C29  23765861.672 7 123755072.172 7
E02  25733067.609 7  25733070.051 8 135228178.391 7 102299250.857 8
E04  25679557.359 7  25679559.879 8 134946985.098 7 102086528.229 8
E06  25328673.164 5  25328674.996 7 133103074.024 5 100691619.914 7
E11  25370302.570 7  25370302.559 7 133321835.611 7 100857103.802 7
E30  26283520.875 5  26283525.371 5 138121017.931 5 104487564.51415
E34  25592801.672 6  25592806.156 8 134491081.789 6 101741645.816 8
E36  23305664.664 8  23305667.445 8 122472095.551 8  92649353.203 8
G01  22825615.992 5                                                                
G02  21154359.648 8  21154360.500 6                 111166911.072 8  86623572.355 6
G08  20297512.773 8                  20297520.090 8 106664189.039 8                  83115007.476 8
G10  21408774.070 8                  21408779.691 7 112503866.293 8                  87665351.166 7
G27  21653330.664 7                  21653337.676 7 113789019.780 7                  88666674.193 7
G32  22290849.203 7                  22290855.301 7 117139204.717 7                  91277304.115 7
R01  19875353.242 7                 106245158.373 7
R02  20317872.320 8  20317877.230 7 108420048.784 8  84326735.400 7
R17  19294489.297 8  19294494.379 7 103248721.036 8  80304766.042 7
R24  20630539.164 7  20630543.035 7 110320762.233 7  85804980.524 7
> 2025 06 15 10 46 40.0000000  0 21
C19  22337532.055 7 116317387.765 7
C20  23336553.617 7 121519557.408 7
C22  24864427.438 6 129475598.695 6
C29  23767023.781 7 123761123.557 7
E02  25733937.984 7  25733940.676 8 135232753.578 7 102302711.958 8
E04  25678102.930 7  25678105.332 8 134939340.861 7 102080745.404 8
E06  25325917.398 5  25325917.703 7 133088584.844 5 100680658.930 7
E11  25370771.375 7  25370771.543 7 133324300.214 7 100858968.240 7
E30  26282011.641 5  26282016.438 5 138113087.955 5 104481565.515 5
E34  25589329.367 6  25589333.141 8 134472831.343 6 101727839.459 8
E36  23304154.094 8  23304156.797 8 122464157.082 8  92643347.802 8
G01  22821383.859 5                  22821385.117 4 119927238.09115                  93449756.53514
G02  21151528.344 8  21151529.633 6                 111152032.146 8  86611978.377 6
G08  20296758.172 8                  20296765.008 8 106660223.001 8                  83111917.053 8
G10  21409120.578 8                  21409126.996 7 112505690.715 8                  87666772.783 7
G27  21654719.813 7                  21654726.859 7 113796319.774 7                  88672362.475 7
G32  22287659.227 7                  22287665.996 7 117122446.158 7                  91264245.514 7
R01  19875049.055 7                 106243531.591 7
R02  20313659.703 8  20313664.559 7 108397571.260 8  84309252.893 7
R17  19291974.227 8  19291978.617 7 103235259.060 8  80294295.620 7
R24  20631417.141 7  20631422.320 7 110325464.139 7  85808637.567 7
> 2025 06 15 10 46 45.0000000  0 21
C19  22334829.523 7 116303317.051 7
C20  23336779.844 7 121520736.852 7
C22  24859628.953 6 129450613.694 6
C29  23768187.445 6 123767182.258 6
E02  25734810.688 7  25734812.859 8 135237337.524 7 102306179.671 8
E04  25676651.188 7  25676653.445 8 134931710.736 7 102074973.269 8
E06  25323160.805 5  25323162.809 8 133074108.183 5 100669707.435 8
E11  25371241.234 7  25371241.473 7 133326769.652 7 100860836.335 7
E30  26280506.094 5  26280510.379 5 138105172.039 5 104475577.10715
E34  25585856.961 6  25585860.945 8 134454585.266 6 101714036.425 8
E36  23302644.773 8  23302647.602 9 122456226.063 8  92637348.046 9
G01  22817152.547 5                  22817156.363 5 119905003.990 5                  93432431.279 5
G02  21148699.172 8  21148699.832 6                 111137162.207 8  86600391.411 6
G08  20296006.211 8                  20296013.953 8 106656274.032 8                  83108839.937 8
G10  21409470.477 8                  21409476.715 7 112507526.911 8                  87668203.566 7
G27  21656111.461 8                  21656117.973 7 113803631.221 8                  88678059.689 7
G32  22284473.703 7                  22284480.039 7 117105702.358 7                  91251198.414 7
R01  19874748.672 7                 106241928.297 7
R02  20309450.195 8  20309455.828 7 108375112.644 8  84291785.106 7
R17  19289461.461 8  19289465.270 7 103221811.093 8  80283836.070 7
R24  20632299.031 7  20632303.457 7 110330178.100 7  85812303.954 7
> 2025 06 15 10 46 50.0000000  0 21
C19  22332130.383 7 116289261.304 7
C20  23337008.930 7 121521929.631 7
C22  24854831.578 6 129425633.864 6
C29  23769352.477 6 123773248.243 6
E02  25735684.766 7  25735686.906 8 135241930.203 7 102309654.000 8
E04  25675202.328 7  25675204.195 8 134924094.661 7 102069211.752 8
E06  25320405.852 5  25320410.309 7 133059643.919 5 100658765.354 7
E11  25371712.523 7  25371712.289 7 133329243.917 7 100862708.083 7
E30  26279003.789 5  26279007.102 5 138097270.145 5 104469599.323 5
E34  25582385.891 6  25582389.570 8 134436343.504 6 101700236.646 8
E36  23301137.336 8  23301139.785 8 122448302.420 8  92631353.861 8
G01  22812922.914 4                  22812927.730 5 119882775.373 4                  93415110.271 5
G02  21145870.727 8  21145871.832 6                 111122301.222 8  86588811.418 6
G08  20295258.039 8                  20295265.582 8 106652342.133 8                  83105776.104 8
G10  21409821.938 8                  21409828.051 7 112509374.738 8                  87669643.438 7
G27  21657504.727 7                  21657511.270 7 113810954.061 7                  88683765.801 7
G32  22281289.508 7                  22281296.859 7 117088973.295 7                  91238162.768 7
R01  19874453.344 7                 106240348.592 7
R02  20305245.461 8  20305250.219 7 108352672.542 8  84274331.700 7
R17  19286950.758 8  19286954.883 7 103208377.076 8  80273387.379 7
R24  20633182.000 7  20633187.387 7 110334904.070 7  85815979.706 7
> 2025 06 15 10 46 55.0000000  0 21
C19  22329433.492 7 116275220.182 7
C20  23337240.586 7 121523135.396 7
C22  24850034.813 6 129400658.854 6
C29  23770518.727 6 123779321.052 6
E02  25736559.945 7  25736562.484 8 135246531.203 7 102313134.595 8
E04  25673755.242 7  25673757.594 8 134916492.215 7 102063460.547 8
E06  25317656.672 5  25317660.051 7 133045191.782 5 100647832.416 7
E11  25372184.313 7  25372184.008 7 133331722.616 7 100864583.203 7
E30  26277502.523 5  26277506.086 5 138089381.826 5 104463631.871 5
E34  25578915.094 6  25578919.027 7 134418105.632 6 101686439.902 7
E36  23299630.602 8  23299633.301 8 122440385.746 8  92625364.943 8
G01  22808694.203 4                  22808699.527 5 119860551.929 4                  93397793.305 5
G02  21143044.992 8  21143045.488 6                 111107448.813 8  86577238.117 6
G08  20294512.961 8                  20294520.484 8 106648426.811 8                  83102725.207 8
G10  21410175.656 8                  21410181.918 7 112511233.822 8                  87671092.065 7
G27  21658900.070 7                  21658907.027 7 113818287.883 7                  88689480.458 7
G32  22278109.320 7                  22278115.828 7 117072258.537 7                  91225138.294 7
R01  19874161.719 7                 106238791.768 7
R02  20301043.070 8  20301048.594 7 108330250.770 8  84256892.569 7
R17  19284442.414 8  19284446.762 7 103194956.542 8  80262949.193 7
R24  20634068.820 7  20634073.371 7 110339641.604 7  85819664.450 7
> 2025 06 15 10 47  0.0000000  0 20
C19  22326740.047 7 116261192.756 7
C20  23337474.375 7 121524353.165 7
C22  24845239.125 6 129375687.681 6
C29  23771685.383 6 123785399.821 6
E02  25737436.727 7  25737439.445 8 135251139.560 7 102316620.772 8
E04  25672311.250 7  25672313.422 8 134908902.479 7 102057718.952 8
E06  25314909.211 5  25314911.957 7 133030750.750 5 100636907.904 7
E11  25372656.656 7  25372656.402 7 133334204.798 7 100866460.946 7
E30  26276004.359 5  26276007.285 5 138081506.186 5 104457674.001 5
E34  25575445.445 7  25575448.996 7 134399870.771 7 101672645.374 7
E36  23298125.313 8  23298127.957 8 122432475.131 8  92619380.618 8
G02  21140219.750 8  21140220.801 6                 111092604.049 8  86565670.774 6
G08  20293771.047 8                  20293778.605 8 106644527.194 8                  83099686.565 8
G10  21410531.242 8                  21410537.426 7 112513103.248 8                  87672548.762 7
G27  21660297.766 7                  21660304.297 7 113825631.776 7                  88695202.960 7
G32  22274931.641 7                  22274937.816 7 117055557.147 7                  91212124.267 7
R01  19873875.047 7                 106237257.036 7
R02  20296845.039 8  20296849.754 7 108307846.305 8  84239466.880 7
R17  19281936.695 8  19281941.938 8 103181548.560 8  80252520.768 8
R24  20634956.445 7  20634961.695 7 110344389.777 7  85823357.473 7
> 2025 06 15 10 47  5.0000000  0 20
C19  22324049.281 7 116247180.437 7
C20  23337711.195 7 121525584.359 7
C22  24840444.750 6 129350721.813 6
C29  23772851.648 6 123791485.949 6
E02  25738314.469 7  25738318.023 8 135255756.700 7 102320113.603 8
E04  25670869.391 7  25670871.887 8 134901326.868 7 102051988.056 8
E06  25312162.445 5  25312166.211 7 133016322.463 5 100625992.930 7
E11  25373130.141 7  25373129.719 7 133336691.877 7 100868342.387 7
E30  26274508.953 5  26274511.023 5 138073644.582 5 104451726.754 5
E34  25571976.086 7  25571979.727 7 134381640.409 7 101658854.216 7
E36  23296621.461 8  23296624.047 8 122424571.985 8  92613401.945 8
G02  21137396.672 8  21137397.586 6                 111077768.344 8  86554110.489 6
G08  20293032.609 8                  20293039.645 8 106640644.723 8                  83096661.254 8
G10  21410888.883 7                  21410895.465 7 112514984.386 7                  87674014.601 7
G27  21661697.102 7                  21661703.746 7 113832987.159 7                  88700934.409 7
G32  22271755.172 7                  22271762.691 7 117038870.661 7                  91199121.822 7
R01  19873592.047 7                 106235745.931 7
R02  20292649.672 8  20292654.480 7 108285460.854 8  84222055.979 7
R17  19279434.281 8  19279438.766 8 103168154.693 8  80242103.316 8
R24  20635847.742 8  20635851.828 7 110349150.043 8  85827059.890 7
> 2025 06 15 10 47 10.0000000  0 20
C19  22321361.539 7 116233182.648 7
C20  23337950.664 7 121526828.417 7
C22  24835651.672 7 129325760.689 7
C29  23774023.227 6 123797578.767 6
E02  25739194.984 7  25739198.324 8 135260382.041 7 102323612.629 8
E04  25669430.727 7  25669432.965 8 134893764.834 7 102046267.428 8
E06  25309420.078 6  25309422.797 7 133001906.015 6 100615087.005 7
E11  25373603.602 7  25373603.863 7 133339183.282 7 100870227.106 7
E30  26273018.008 4  26273017.410 5 138065796.433 4 104445789.69615
E34  25568507.445 7  25568511.215 8 134363413.858 7 101645065.956 8
E36  23295118.813 8  23295121.422 8 122416675.742 8  92607428.484 8
G02  21134574.867 8  21134576.199 6                 111062941.096 8  86542556.798 6
G08  20292296.305 8                  20292303.918 8 106636778.775 8                  83093648.838 8
G10  21411249.359 7                  21411255.211 7 112516876.708 7                  87675489.140 7
G27  21663098.367 7                  21663105.121 7 113840353.408 7                  88706674.333 7
G32  22268582.953 7                  22268590.039 7 117022198.397 7                  91186130.471 7
R01  19873314.156 7                 106234257.756 7
R02  20288457.461 8  20288462.715 7 108263093.501 8  84204659.168 7
R17  19276935.039 8  19276938.449 7 103154774.344 8  80231696.394 7
R24  20636740.063 8  20636744.211 7 110353921.648 8  85830771.121 7
> 2025 06 15 10 47 15.0000000  0 20
C19  22318676.016 7 116219199.075 7
C20  23338191.148 7 121528085.003 7
C22  24830858.742 6 129300803.966 6
C29  23775194.539 6 123803678.033 6
E02  25740076.750 7  25740079.949 8 135265015.230 7 102327117.581 8
E04  25667993.672 7  25667996.453 8 134886216.027 7 102040556.797 8
E06  25306678.875 6  25306681.582 7 132987501.309 6 100604189.939 7
E11  25374078.695 7  25374078.707 7 133341678.674 7 100872114.828 7
E30  26271528.070 5  26271526.488 5 138057961.526 5 104439862.644 5
E34  25565040.508 7  25565043.426 8 134345190.876 7 101631280.418 8
E36  23293617.484 8  23293620.078 8 122408786.087 8  92601460.014 8
G02  21131754.555 8  21131756.465 6                 111048122.014 8  86531009.468 6
G08  20291563.930 8                  20291571.512 8 106632929.041 8                  83090649.036 8
G10  21411611.539 8                  21411617.633 7 112518779.847 8                  87676972.084 7
G27  21664502.016 7                  21664509.324 7 113847730.218 7                  88712422.486 7
G32  22265412.734 7                  22265420.273 7 117005540.095 7                  91173149.979 7
R01  19873040.656 7                 106232792.180 7
R02  20284269.352 8  20284274.973 7 108240744.133 8  84187276.326 7
R17  19274436.258 8  19274440.652 7 103141407.163 8  80221299.704 7
R24  20637633.016 7  20637638.750 7 110358704.475 7  85834491.092 7
> 2025 06 15 10 47 20.0000000  0 20
C19  22315993.914 8 116205232.128 8
C20  23338435.492 7 121529356.465 7
C22  24826067.586 7 129275854.045 7
C29  23776368.047 6 123809786.140 6
E02  25740960.734 7  25740963.625 8 135269658.660 7 102330630.316 8
E04  25666560.703 7  25666562.934 8 134878682.857 7 102034858.006 8
E06  25303939.555 6  25303943.145 7 132973110.707 6 100593303.550 7
E11  25374554.453 7  25374554.781 7 133344180.465 7 100874007.405 7
E30  26270037.664 5  26270038.539 5 138050142.226 5 104433947.387 5
E34  25561574.555 7  25561576.863 8 134326973.809 7 101617499.314 8
E36  23292118.281 8  23292120.465 8 122400905.380 8  92595498.311 8
G02  21128936.883 8  21128938.387 6                 111033313.488 8  86519470.356 6
G08  20290835.297 8                  20290842.340 8 106629097.918 8                  83087663.741 8
G10  21411976.125 8                  21411982.184 7 112520696.166 8                  87678465.325 7
G27  21665908.008 7                  21665915.609 7 113855119.960 7                  88718180.720 7
G32  22262245.305 7                  22262253.180 7 116988898.192 7                  91160182.264 7
R01  19872771.570 8                 106231351.533 8
R02  20280086.047 8  20280090.766 7 108218415.285 8  84169909.452 7
R17  19271940.484 8  19271945.254 7 103128055.551 8  80210915.111 7
R24  20638530.383 7  20638536.355 7 110363500.884 7  85838221.620 7
> 2025 06 15 10 47 25.0000000  0 20
C19  22313314.180 8 116191280.323 8
C20  23338681.969 7 121530641.371 7
C22  24821277.195 7 129250909.506 7
C29  23777542.375 6 123815901.547 6
E02  25741846.219 7  25741848.926 8 135274310.868 7 102334149.662 8
E04  25665130.023 7  25665132.164 8 134871163.825 7 102029169.899 8
E06  25301204.547 6  25301207.090 7 132958732.722 6 100582426.675 7
E11  25375032.203 7  25375031.785 7 133346687.164 7 100875903.698 7
E30  26268552.156 4  26268553.320 5 138042336.93814 104428042.71615
E34  25558108.008 7  25558111.203 8 134308761.225 7 101603721.598 8
E36  23290619.844 8  23290622.285 8 122393032.177 8  92589542.277 8
G02  21126120.680 8  21126122.309 6                 111018514.039 8  86507938.331 6
G08  20290109.563 8                  20290116.211 8 106625283.925 8                  83084691.783 8
G10  21412342.773 8                  21412348.836 7 112522624.249 8                  87679967.715 7
G27  21667316.844 7                  21667324.664 7 113862521.105 7                  88723947.858 7
G32  22259082.750 7                  22259088.813 7 116972271.173 7                  91147226.111 7
R01  19872504.531 7                 106229934.512 7
R02  20275904.953 8  20275910.367 7 108196105.183 8  84152557.128 7
R17  19269447.578 8  19269452.688 7 103114718.051 8  80200541.517 7
R24  20639429.805 8  20639434.973 7 110368309.377 8  85841961.544 7
> 2025 06 15 10 47 30.0000000  0 20
C19  22310636.828 7 116177342.253 7
C20  23338931.086 7 121531938.261 7
C22  24816488.633 7 129225968.889 7
C29  23778718.523 6 123822022.916 6
E02  25742732.609 7  25742735.664 8 135278970.404 7 102337674.576 8
E04  25663701.477 7  25663703.723 8 134863657.548 7 102023491.445 8
E06  25298470.992 6  25298473.246 7 132944365.981 6 100571558.325 7
E11  25375509.336 7  25375509.410 7 133349197.369 7 100877802.644 7
E30  26267067.914 4                                
E34  25554642.453 7  25554645.906 8 134290551.649 7 101589946.166 8
E36  23289122.391 8  23289125.164 8 122385165.032 8  92583590.837 8
G02  21123305.078 7  21123307.406 6                 111003722.285 7  86496412.282 6
G08  20289386.445 8                  20289393.633 8 106621485.621 8                  83081732.065 8
G10  21412711.922 8                  21412717.785 7 112524562.595 8                  87681478.115 7
G27  21668727.188 7                  21668735.273 7 113869932.294 7                  88729722.800 7
G32  22255921.805 7                  22255927.695 7 116955657.615 7                  91134280.500 7
R01  19872244.289 7                 106228539.483 7
R02  20271727.766 8  20271732.543 7 108173812.729 8  84135218.573 7
R17  19266957.500 8  19266963.297 7 103101393.240 8  80190177.767 7
R24  20640331.023 8  20640336.129 7 110373128.420 8  85845709.648 7
> 2025 06 15 10 47 35.0000000  0 20
C19  22307963.219 7 116163419.163 7
C20  23339182.594 7 121533248.371 7
C22  24811699.219 7 129201033.489 7
C29  23779897.422 6 123828151.388 6
E02  25743620.641 7  25743624.039 8 135283638.530 7 102341205.966 8
E04  25662275.539 7  25662277.926 8 134856165.236 7 102017823.563 8
E06  25295737.188 6  25295741.820 7 132930011.614 6 100560699.366 7
E11  25375988.094 7  25375987.984 7 133351712.302 7 100879705.167 7
E34  25551178.828 7  25551181.559 8 134272346.349 7 101576173.976 8
E36  23287626.953 8  23287629.543 8 122377305.239 8  92577644.956 8
G02  21120491.703 7  21120494.109 6                 110988939.450 7  86484893.189 6
G08  20288666.578 8                  20288673.980 8 106617704.298 8                  83078785.581 8
G10  21413082.680 8                  21413088.746 7 112526512.478 8                  87682997.522 7
G27  21670140.125 7                  21670147.680 7 113877354.747 7                  88735506.514 7
G32  22252762.344 7                  22252768.957 7 116939058.753 7                  91121346.340 7
R01  19871988.594 7                 106227167.654 7
R02  20267552.797 8  20267557.984 7 108151539.046 8  84117894.614 7
R16  22329859.266 4                                
R17  19264470.313 8  19264475.707 8 103088082.416 8  80179824.884 8
R24  20641235.203 8  20641240.008 7 110377959.429 8  85849467.073 7
> 2025 06 15 10 47 40.0000000  0 19
C19  22305292.461 7 116149512.664 7
C20  23339437.203 7 121534573.348 7
C22  24806911.563 7 129176104.943 7
C29  23781076.789 6 123834288.724 6
E02  25744511.031 7  25744514.293 8 135288316.864 7 102344745.087 8
E04  25660852.594 7  25660855.086 8 134848688.547 7 102012167.495 8
E06  25293008.180 6  25293013.043 7 132915671.386 6 100549851.077 7
E11  25376468.414 7  25376467.742 7 133354233.638 7 100881612.532 7
E34  25547714.883 7  25547718.438 8 134254146.997 7 101562406.289 8
E36  23286132.656 8  23286135.605 8 122369454.405 8  92571705.848 8
G02  21117680.797 7  21117683.141 6                 110974167.135 7  86473382.316 6
G08  20287950.852 8                  20287958.105 8 106613941.579 8                  83075853.572 8
G10  21413456.359 8                  21413462.336 7 112528475.548 8                  87684527.173 7
G27  21671554.805 7                  21671562.715 7 113884790.097 7                  88741300.259 7
G32  22249606.445 7                  22249613.297 7 116922476.303 7                  91108424.991 7
R01  19871736.391 8                 106225820.899 8
R02  20263382.430 8  20263388.539 7 108129285.725 8  84100586.480 7
R17  19261985.359 8  19261990.586 7 103074787.257 8  80169484.211 7
R24  20642140.125 8  20642145.078 7 110382803.976 8  85853235.085 7
> 2025 06 15 10 47 45.0000000  0 19
C19  22302625.391 7 116135622.316 7
C20  23339694.336 7 121535912.653 7
C22  24802125.492 7 129151182.717 7
C29  23782254.688 6 123840434.351 6
E02  25745402.883 7  25745406.406 8 135293004.935 7 102348291.562 8
E04  25659432.367 7  25659435.164 8 134841227.021 7 102006522.900 8
E06  25290282.500 6  25290286.793 7 132901344.737 6 100539013.087 7
E11  25376949.438 7  25376948.652 7 133356760.863 7 100883524.332 7
E34  25544252.898 7  25544256.238 8 134235953.039 7 101548642.711 8
E36  23284640.500 8  23284643.238 8 122361612.041 8  92565773.143 8
G02  21114872.219 7  21114874.125 6                 110959404.885 7  86461879.288 6
G08  20287238.555 8                  20287245.691 8 106610196.921 8                  83072935.668 8
G10  21413831.930 8                  21413838.508 7 112530451.285 8                  87686066.683 7
G27  21672972.344 7                  21672980.305 7 113892237.835 7                  88747103.665 7
G32  22246453.078 7                  22246460.836 7 116905909.769 7                  91095516.003 7
R01  19871488.352 7                 106224498.541 7
R02  20259216.695 8  20259221.645 7 108107052.416 8  84083293.940 7
R17  19259504.453 8  19259508.891 7 103061507.160 8  80159155.251 7
R24  20643048.773 8  20643054.168 7 110387661.546 8  85857013.179 7
> 2025 06 15 10 47 50.0000000  0 19
C19  22299960.703 7 116121747.503 7
C20  23339954.922 7 121537265.731 7
C22  24797340.539 7 129126266.307 7
C29  23783436.797 6 123846587.689 6
E02  25746296.906 7  25746300.230 8 135297702.100 7 102351844.927 8
E04  25658015.828 7  25658017.938 8 134833780.020 7 102000889.293 8
E06  25287559.039 6  25287563.152 7 132887031.177 6 100528184.946 7
E11  25377430.813 7  25377430.527 7 133359293.358 7 100885440.148 7
E34  25540790.984 7  25540795.082 8 134217763.947 7 101534882.803 8
E36  23283149.445 8  23283152.359 8 122353777.538 8  92559846.410 8
G02  21112064.539 7  21112066.961 6                 110944652.151 7  86450383.659 6
G08  20286528.953 8                  20286536.488 8 106606469.778 8                  83070031.412 8
G10  21414210.141 8                  21414216.910 7 112532439.088 8                  87687615.640 7
G27  21674391.211 7                  21674399.324 7 113899697.351 7                  88752916.246 7
G32  22243303.461 7                  22243311.020 7 116889358.620 7                  91082618.975 7
R01  19871245.094 7                 106223200.129 7
R02  20255053.484 8  20255058.750 7 108084838.432 8  84066016.391 7
R17  19257026.367 8  19257030.445 7 103048241.660 8  80148837.651 7
R24  20643960.008 8  20643964.336 7 110392531.536 8  85860800.957 7
> 2025 06 15 10 47 55.0000000  0 19
C19  22297299.000 7 116107887.279 7
C20  23340216.797 7 121538631.641 7
C22  24792556.078 7 129101354.711 7
C29  23784619.703 6 123852747.786 6
E02  25747192.469 7  25747195.563 8 135302407.431 7 102355404.463 8
E04  25656601.430 7  25656603.352 8 134826346.620 7 101995265.984 8
E06  25284837.641 7  25284841.680 7 132872729.677 7 100517365.952 7
E11  25377913.492 7  25377913.309 7 133361830.210 7 100887359.231 7
E34  25537329.703 7  25537334.582 8 134199578.771 7 101521125.841 8
E36  23281660.047 8  23281662.781 8 122345949.986 8  92553924.907 8
G02  21109258.617 8  21109261.047 6                 110929907.946 8  86438894.675 6
G08  20285823.414 8                  20285830.254 8 106602759.185 8                  83067140.040 8
G10  21414591.172 7                  21414597.559 7 112534438.017 7                  87689173.238 7
G27  21675812.906 7                  21675820.898 7 113907167.716 7                  88758737.280 7
G32  22240157.445 7                  22240164.484 7 116872821.745 7                  91069733.138 7
R01  19871007.508 8                 106221924.470 8
R02  20250893.461 8  20250899.387 7 108062643.038 8  84048753.311 7
R17  19254550.281 8  19254553.418 7 103034989.819 8  80138530.649 7
R24  20644870.813 7  20644877.340 7 110397413.001 7  85864597.676 7
> 2025 06 15 10 48  0.0000000  0 21
C19  22294640.016 7 116094041.507 7
C20  23340481.094 7 121540010.157 7
C22  24787772.883 7 129076447.820 7
C29  23785801.547 5 123858914.507 5
E02  25748089.547 7  25748092.422 8 135307120.694 7 102358970.007 8
E04  25655189.039 7  25655191.445 8 134818926.600 7 101989652.792 8
E06  25282117.961 6  25282122.449 7 132858440.103 6 100506555.988 7
E11  25378397.242 7  25378396.863 7 133364371.229 7 100889281.495 7
E30  26258228.688 5                 137987951.24715
E34  25533870.336 7  25533874.762 8 134181397.312 7 101507371.688 8
E36  23280171.820 8  23280174.512 8 122338129.176 8  92548008.523 8
G01  22753811.188 5                                 119572095.97915                
G02  21106454.859 8  21106457.242 6                 110915172.119 8  86427412.212 6
G08  20285119.836 8                  20285127.246 8 106599064.987 8                  83064261.437 8
G10  21414973.859 8                  21414979.754 7 112536447.845 8                  87690739.332 7
G27  21677236.289 7                  21677244.602 8 113914648.652 7                  88764566.604 8
G32  22237013.391 7                  22237020.336 7 116856299.157 7                  91056858.415 7
R01  19870771.953 7                 106220671.466 7
R02  20246737.406 8  20246743.367 7 108040465.876 8  84031504.422 7
R17  19252076.617 8  19252080.168 7 103021751.314 8  80128234.021 7
R24  20645786.695 7  20645792.273 7 110402305.648 7  85868403.067 7
> 2025 06 15 10 48  5.0000000  0 21
C19  22291983.547 8 116080206.711 8
C20  23340748.195 7 121541397.844 7
C22  24782989.898 7 129051542.135 7
C29  23786987.461 5 123865084.236 5
E02  25748986.320 7  25748990.211 8 135311838.434 7 102362538.947 8
E04  25653778.547 7  25653781.352 8 134811516.557 7 101984047.129 8
E06  25279400.680 6  25279404.766 7 132844158.955 6 100495752.382 7
E11  25378880.805 7  25378880.543 7 133366912.936 7 100891204.272 7
E30  26256763.531 5  26256765.105 4 137980254.66115 104381147.69414
E34  25530410.828 7  25530415.109 8 134163216.080 7 101493617.752 8
E36  23278684.438 8  23278686.820 8 122330311.638 8  92542094.608 8
G01  22749596.555 5                  22749600.246 5 119549946.660 5                  93155799.88515
G02  21103652.664 8  21103654.070 6                 110900441.155 8  86415933.540 6
G08  20284420.086 8                  20284426.457 8 106595383.680 8                  83061392.869 8
G10  21415357.883 8                  21415363.852 7 112538465.113 8                  87692311.223 7
G27  21678661.805 7                  21678669.820 7 113922136.776 7                  88770401.508 7
G32  22233870.797 7                  22233878.813 7 116839787.290 7                  91043992.033 7
R01  19870541.602 7                 106219437.637 7
R02  20242585.039 8  20242589.645 7 108018303.399 8  84014266.920 7
R17  19249603.945 8  19249607.680 7 103008522.628 8  80117945.049 7
R24  20646702.781 8  20646708.820 7 110407206.238 8  85872214.613 7
> 2025 06 15 10 48 10.0000000  0 21
C19  22289329.820 8 116066386.536 8
C20  23341016.820 7 121542798.323 7
