     3.04           OBSERVATION DATA    Mixed(MIXED)        RINEX VERSION / TYPE
cnvtToRINEX 3.14.0  convertToRINEX OPR  20250615 162938 UTC PGM / RUN BY / DATE 
----------------------------------------------------------- COMMENT             
413                                                         MARKER NAME         
413                                                         MARKER NUMBER       
GEODETIC                                                    MARKER TYPE         
GNSS Observer       Trimble                                 OBSERVER / AGENCY   
5849S10870          Geo Explorer 3      5.51                REC # / TYPE / VERS 
49S10870            UNKNOWN EXT     NONE                    ANT # / TYPE        
  3912503.4819  1190593.1233  4879099.0234                  APPROX POSITION XYZ 
        1.1590        0.0000        0.0000                  ANTENNA: DELTA H/E/N
R    4 C1C C2C L1C L2C                                      SYS / # / OBS TYPES 
G    6 C1C C2W C2X L1C L2W L2X                              SYS / # / OBS TYPES 
E    4 C1X C8X L1X L8X                                      SYS / # / OBS TYPES 
C    2 C2I L2I                                              SYS / # / OBS TYPES 
     5.000                                                  INTERVAL            
  2025     6    15     8    38   45.0000000     GPS         TIME OF FIRST OBS   
  2025     6    15     9    20   15.0000000     GPS         TIME OF LAST OBS    
     0                                                      RCV CLOCK OFFS APPL 
  8 R01  1 R07  5 R08  6 R14 -7 R15  0 R17  4 R23  3 R24  2 GLONASS SLOT / FRQ #
R L2C -0.25000                                              SYS / PHASE SHIFT   
G L2X -0.25000                                              SYS / PHASE SHIFT   
    18                                                      LEAP SECONDS        
    26                                                      # OF SATELLITES     
   C19   330   330                                          PRN / # OF OBS      
   C20   499   499                                          PRN / # OF OBS      
   C24   352   352                                          PRN / # OF OBS      
   C26   499   499                                          PRN / # OF OBS      
   C29   499   499                                          PRN / # OF OBS      
   C30    29    29                                          PRN / # OF OBS      
   E02   499   499   499   499                              PRN / # OF OBS      
   E10   497   495   496   495                              PRN / # OF OBS      
   E11   499   499   499   499                              PRN / # OF OBS      
   E16   499   499   499   499                              PRN / # OF OBS      
   E25   499   499   499   499                              PRN / # OF OBS      
   E36   499   499   499   499                              PRN / # OF OBS      
   G02   279   180     0   266   180     0                  PRN / # OF OBS      
   G08   499     0   499   499     0   499                  PRN / # OF OBS      
   G10   499     0   499   499     0   499                  PRN / # OF OBS      
   G16   499   499     0   499   499     0                  PRN / # OF OBS      
   G18   107     0    67    98     0    67                  PRN / # OF OBS      
   G23   499     0   499   499     0   499                  PRN / # OF OBS      
   G27   499     0   499   499     0   499                  PRN / # OF OBS      
   R01   447     0   445     0                              PRN / # OF OBS      
   R08   439   427   438   425                              PRN / # OF OBS      
   R14   499   499   499   499                              PRN / # OF OBS      
   R15   499   499   499   499                              PRN / # OF OBS      
   R17   499   499   499   499                              PRN / # OF OBS      
   R23   159     0   156     0                              PRN / # OF OBS      
   R24   499   499   499   499                              PRN / # OF OBS      
DBHZ                                                        SIGNAL STRENGTH UNIT
                                                            END OF HEADER       
>                              2  1
              *** Start of Kinematic Data ***               COMMENT             
> 2025 06 15 08 38 45.0000000  0 19
C20  23932569.453 6 124623163.26316
C26  24433302.477 7 127230610.40817
C29  21386396.516 7 111364579.42317
E02  24501132.148 7  24501133.230 8 128754318.79617  97401811.35118
E10  24551299.844 8  24551302.039 8 129017949.59118  97601246.49718
E11  23410598.664 7  23410596.266 8 123023522.34817  93066487.56618
E16  25655186.383 7  25655189.242 8 134818910.59517 101989638.12318
E25  24342861.359 7  24342864.027 8 127922597.45517  96772623.20718
E36  24747303.086 8  24747305.918 8 130047952.85418  98380444.37118
G08  22347756.398 7                  22347763.586 7 117438249.54917                  91510358.37917
G10  21625503.547 8                  21625511.121 7 113642786.89318                  88552852.93917
G16  21275437.188 7  21275441.320 5                 111803175.66817  87119366.57815
G23  20833076.805 7                  20833081.613 8 109478556.94217                  85307985.25618
G27  20224694.078 8                  20224699.668 7 106281477.90618                  82816956.29617
R08  21088733.180 6  21088733.891 5 112929234.80616  87833899.36015
R14  20843629.430 8  20843634.094 7 111108281.52518  86417495.35417
R15  21339170.758 7  21339173.609 6 114030048.79717  88690319.19416
R17  22851130.438 7  22851138.156 6 122281038.14617  95107509.20216
R24  19560630.461 8  19560633.746 7 104599488.28018  81355351.11217
> 2025 06 15 08 38 50.0000000  0 19
C20  23928784.063 6 124603455.605 6
C26  24432454.039 7 127226189.946 7
C29  21385349.398 7 111359127.029 7
E02  24498795.086 7  24498796.133 8 128742037.506 7  97392520.655 8
E10  24551537.625 7  24551540.121 8 129019200.495 7  97602192.797 8
E11  23409619.930 7  23409617.508 8 123018379.197 7  93062596.809 8
E16  25656482.641 7  25656485.699 8 134825723.695 7 101994792.170 8
E25  24343295.656 8  24343298.031 8 127924878.273 8  96774348.619 8
E36  24744055.836 8  24744058.801 8 130030889.221 8  98367535.835 8
G08  22343472.398 7                  22343479.637 7 117415736.574 7                  91492815.802 7
G10  21621877.766 8                  21621885.023 7 113623731.456 8                  88538004.550 7
G16  21276141.984 7  21276145.617 5                 111806878.473 7  87122251.863 5
G23  20832096.953 7                  20832101.703 8 109473407.598 7                  85303972.767 8
G27  20222158.000 8                  20222163.773 7 106268151.547 8                  82806572.112 7
R08  21085998.867 6  21085998.422 5 112914587.897 6  87822507.366 5
R14  20844525.227 8  20844529.711 7 111113056.102 8  86421208.908 7
R15  21336305.359 7  21336308.750 6 114014737.808 7  88678410.663 6
R17  22846585.570 7  22846592.891 6 122256710.792 7  95088587.919 6
R24  19558261.906 8  19558266.688 7 104586827.556 8  81345503.897 7
>                              3  5
              *** Start of Occupation ***                   COMMENT             
413                                                         MARKER NAME         
413                                                         MARKER NUMBER       
  3912503.4819  1190593.1233  4879099.0234                  APPROX POSITION XYZ 
        1.1590        0.0000        0.0000                  ANTENNA: DELTA H/E/N
> 2025 06 15 08 38 55.0000000  0 19
C20  23925001.758 6 124583758.759 6
C26  24431607.828 6 127221783.854 6
C29  21384304.023 7 111353683.540 7
E02  24496460.555 7  24496461.340 8 128729768.128 7  97383238.938 8
E10  24551776.781 8  24551779.223 8 129020456.810 8  97603143.183 8
E11  23408643.016 7  23408640.348 8 123013243.937 7  93058712.007 8
E16  25657780.164 7  25657783.422 8 134832542.864 7 101999950.818 8
E25  24343731.328 8  24343734.012 8 127927169.191 8  96776081.675 8
E36  24740810.445 8  24740812.883 8 130013832.160 8  98354632.279 8
G08  22339189.094 7                  22339197.324 7 117393230.365 7                  91475278.508 7
G10  21618254.336 8                  21618261.242 8 113604689.036 8                  88523166.304 8
G16  21276849.422 7  21276853.184 5                 111810595.717 7  87125148.414 5
G23  20831120.414 8                  20831124.977 8 109468275.313 8                  85299973.577 8
G27  20219625.328 8                  20219630.555 7 106254838.614 8                  82796198.412 7
R08  21083265.492 6  21083268.328 5 112899963.196 6  87811132.663 5
R14  20845423.930 8  20845429.535 7 111117849.803 8  86424937.341 7
R15  21333443.867 8  21333447.473 6 113999448.915 8  88666519.305 6
R17  22842039.656 7  22842047.082 6 122232387.381 7  95069669.779 6
R24  19555896.133 8  19555900.785 7 104574178.387 8  81335665.666 7
> 2025 06 15 08 39  0.0000000  0 19
C20  23921219.805 6 124564070.830 6
C26  24430763.867 6 127217390.226 6
C29  21383259.797 7 111348247.069 7
E02  24494127.695 7  24494128.508 8 128717508.720 7  97373964.799 8
E10  24552016.516 8  24552018.988 8 129021716.604 8  97604096.195 8
E11  23407666.945 7  23407664.238 8 123008114.642 7  93054831.729 8
E16  25659078.766 7  25659081.867 8 134839366.205 7 102005112.620 8
E25  24344168.422 8  24344171.539 8 127929468.301 8  96777820.906 8
E36  24737565.547 8  24737567.871 8 129996779.718 8  98341732.225 8
G08  22334907.789 7                  22334915.316 7 117370728.976 7                  91457744.953 7
G10  21614632.430 8                  21614639.727 8 113585657.779 8                  88508336.759 8
G16  21277559.523 7  21277563.098 5                 111814325.530 7  87128054.755 5
G23  20830146.461 7                  20830150.934 7 109463158.207 7                  85295986.226 7
G27  20217094.031 8                  20217099.398 8 106241537.185 8                  82785833.666 8
R08  21080540.125 6  21080543.492 5 112885359.094 6  87799773.967 5
R14  20846326.891 8  20846332.645 7 111122660.604 8  86428679.051 7
R15  21330586.695 8  21330590.266 6 113984180.273 8  88654643.697 6
R17  22837495.875 7  22837503.027 6 122208065.876 7  95050753.067 6
R24  19553533.086 8  19553537.074 7 104561538.953 8  81325835.003 7
> 2025 06 15 08 39  5.0000000  0 20
C20  23917441.078 6 124544393.604 6
C26  24429923.367 7 127213010.752 7
C29  21382217.367 7 111342819.374 7
E02  24491797.227 7  24491797.879 8 128705261.046 7  97364699.515 8
E10  24552257.094 7  24552259.762 8 129022981.602 7  97605053.165 8
E11  23406692.320 7  23406689.609 8 123002993.026 7  93050957.261 8
E16  25660377.797 7  25660381.348 8 134846195.464 7 102010278.885 8
E25  24344607.875 8  24344610.965 8 127931777.309 8  96779567.653 8
E36  24734321.406 8  24734324.176 8 129979733.666 8  98328836.999 8
G08  22330626.828 7                  22330634.672 7 117348234.185 7                  91440216.581 7
G10  21611013.688 7                  21611020.414 7 113566639.409 7                  88493517.257 7
G16  21278272.125 7  21278275.484 5                 111818069.663 7  87130972.264 5
G23  20829176.695 8                  20829180.746 7 109458057.969 8                  85292012.011 7
G27  20214565.453 8                  20214570.414 7 106228249.024 8                  82775479.262 7
R01  22746068.320 5                 121590770.28415
R08  21077820.938 6  21077820.078 6 112870777.117 6  87788432.450 6
R14  20847231.781 8  20847238.656 7 111127490.091 8  86432435.282 7
R15  21327734.016 8  21327736.367 6 113968933.688 8  88642785.266 6
R17  22832951.586 6  22832958.438 6 122183748.073 6  95031839.274 6
R24  19551171.047 8  19551176.043 7 104548911.024 8  81316013.274 7
> 2025 06 15 08 39 10.0000000  0 20
C20  23913663.453 6 124524725.525 6
C26  24429084.281 7 127208643.969 7
C29  21381176.648 7 111337398.900 7
E02  24489468.305 8  24489469.113 8 128693023.588 8  97355441.961 8
E10  24552498.711 7  24552501.152 8 129024250.311 7  97606012.938 8
E11  23405718.703 7  23405716.133 8 122997877.612 7  93047087.481 8
E16  25661678.508 7  25661681.867 8 134853029.100 7 102015448.463 8
E25  24345048.938 8  24345051.926 8 127934094.728 8  96781320.754 8
E36  24731078.477 8  24731081.227 8 129962692.498 8  98315945.480 8
G08  22326347.313 7                  22326355.199 7 117325744.490 7                  91422692.141 7
G10  21607396.883 8                  21607403.348 7 113547632.413 8                  88478706.594 7
G16  21278986.789 7  21278990.504 5                 111821826.545 7  87133899.704 5
G23  20828208.852 8                  20828212.977 7 109452973.108 8                  85288049.798 7
G27  20212038.430 8                  20212044.215 8 106214972.599 8                  82765134.014 8
R01  22740614.258 5                 121561596.046 5
R08  21075102.625 5  21075101.516 5 112856215.855 5  87777107.028 5
R14  20848141.766 8  20848147.855 7 111132337.012 8  86436205.096 7
R15  21324884.602 8  21324887.727 7 113953707.554 8  88630942.709 7
R17  22828408.031 6  22828414.512 6 122159432.377 6  95012927.008 6
R24  19548811.258 8  19548816.422 7 104536292.975 8  81306199.234 7
> 2025 06 15 08 39 15.0000000  0 20
C20  23909888.617 6 124505067.791 6
C26  24428248.203 7 127204291.005 7
C29  21380137.344 7 111331986.785 7
E02  24487141.805 7  24487142.555 8 128680797.491 7  97346193.000 8
E10  24552741.156 8  24552743.512 8 129025523.832 8  97606976.342 8
E11  23404746.750 7  23404744.094 8 122992769.510 7  93043223.241 8
E16  25662979.648 7  25662983.340 8 134859868.236 7 102020622.220 8
E25  24345491.711 8  24345494.730 8 127936421.673 8  96783081.061 8
E36  24727836.383 8  24727839.684 8 129945657.319 8  98303058.466 8
G08  22322069.328 7                  22322076.191 7 117303261.029 7                  91405172.571 7
G10  21603782.469 8                  21603788.750 7 113528637.899 8                  88463905.696 7
G16  21279703.867 7  21279708.199 5                 111825597.328 7  87136837.955 5
G23  20827244.469 8                  20827248.379 7 109447904.766 8                  85284100.452 7
G27  20209514.945 8                  20209520.336 8 106201709.063 8                  82754798.796 8
R01  22735156.930 5                 121532427.631 5
R08  21072386.742 5  21072385.637 6 112841676.381 5  87765798.604 6
R14  20849054.719 8  20849060.410 7 111137202.410 8  86439989.281 7
R15  21322039.820 8  21322042.414 6 113938503.100 8  88619117.021 6
R17  22823865.938 7  22823871.176 6 122135119.863 7  94994017.345 6
R24  19546453.813 8  19546458.422 7 104523686.065 8  81296393.854 7
> 2025 06 15 08 39 20.0000000  0 19
C20  23906115.195 6 124485419.444 6
C26  24427415.328 6 127199950.908 6
C29  21379099.242 7 111326582.167 7
E02  24484817.359 7  24484818.059 8 128668581.829 7  97336951.935 8
E10  24552984.258 7  24552986.633 8 129026801.281 7  97607942.721 8
E11  23403775.891 7  23403773.285 8 122987667.859 7  93039363.878 8
E16  25664282.141 7  25664285.695 8 134866711.960 7 102025799.427 8
E25  24345936.148 8  24345939.156 8 127938757.237 8  96784847.890 8
E36  24724595.773 8  24724598.922 8 129928627.227 8  98290175.341 8
G08  22317791.945 7                  22317798.879 7 117280782.926 7                  91387657.161 7
G10  21600170.195 8                  21600176.527 7 113509655.050 8                  88449113.867 7
G16  21280423.453 7  21280427.777 5                 111829381.057 7  87139786.297 5
G23  20826282.695 8                  20826286.930 7 109442852.018 8                  85280163.252 7
G27  20206993.328 8                  20206998.688 8 106188457.551 8                  82744472.949 8
R01  22729699.867 5                 121503263.900 5
R14  20849970.375 8  20849976.387 7 111142085.198 8  86443787.005 7
R15  21319197.719 8  21319201.234 6 113923319.226 8  88607307.338 6
R17  22819323.078 7  22819328.750 6 122110809.915 7  94975109.602 6
R24  19544098.063 8  19544103.008 7 104511089.337 8  81286596.388 7
> 2025 06 15 08 39 25.0000000  0 20
C20  23902344.555 6 124465781.680 6
C26  24426584.375 7 127195624.813 7
C29  21378062.977 7 111321186.113 7
E02  24482494.867 7  24482495.621 8 128656377.782 7  97327719.647 8
E10  24553228.688 7  24553230.715 8 129028083.791 7  97608912.922 8
E11  23402806.602 7  23402803.887 8 122982573.706 7  93035510.183 8
E16  25665585.648 7  25665589.160 8 134873561.449 7 102030980.995 8
E25  24346382.555 8  24346385.402 8 127941102.566 8  96786622.113 8
E36  24721356.148 8  24721359.441 8 129911603.369 8  98277296.901 8
G08  22313515.711 7                  22313522.816 7 117258311.257 7                  91370146.783 7
G10  21596560.250 8                  21596566.668 7 113490684.945 8                  88434331.969 7
G16  21281146.617 7  21281150.316 5                 111833178.877 7  87142745.625 5
G23  20825324.328 8                  20825328.809 8 109437816.025 8                  85276239.104 8
G27  20204473.680 8                  20204479.543 8 106175219.132 8                  82734157.296 8
R01  22724243.414 5                 121474106.224 5
R08  21066976.438 5  21066967.527 5 112812661.85815  87743231.46715
R14  20850890.039 8  20850895.984 7 111146986.731 8  86447599.293 7
R15  21316361.570 8  21316364.164 7 113908157.410 8  88595514.819 7
R17  22814780.508 7  22814786.566 6 122086503.424 7  94956204.541 6
R24  19541744.734 8  19541749.438 7 104498503.924 8  81276807.748 7
> 2025 06 15 08 39 30.0000000  0 20
C20  23898575.156 6 124446153.145 6
C26  24425756.922 6 127191311.440 6
C29  21377028.508 7 111315797.319 7
E02  24480174.555 8  24480175.203 8 128644183.980 8  97318495.126 8
E10  24553473.336 7  24553475.449 8 129029369.990 7  97609885.913 8
E11  23401838.352 7  23401835.703 8 122977485.772 7  93031661.196 8
E16  25666889.109 7  25666893.418 8 134880415.299 7 102036165.871 8
E25  24346830.094 8  24346833.266 8 127943456.293 8  96788402.682 8
E36  24718117.445 8  24718120.859 8 129894584.437 8  98264422.195 8
G08  22309240.438 7                  22309247.113 7 117235844.767 7                  91352640.448 7
G10  21592952.508 8                  21592959.063 7 113471726.293 8                  88419559.010 7
G16  21281871.414 7  21281875.063 5                 111836989.439 7  87145714.885 5
G23  20824368.766 8                  20824373.629 8 109432795.411 8                  85272326.930 8
G27  20201956.781 8                  20201962.703 8 106161992.565 8                  82723850.874 8
R01  22718791.703 5                 121444953.354 5
R08  21064274.977 5  21064263.813 5 112798186.238 5  87731972.674 5
R14  20851812.961 8  20851819.172 7 111151905.552 8  86451425.054 7
R15  21313526.797 7  21313530.703 7 113893015.988 7  88583738.157 7
R17  22810238.859 7  22810244.836 6 122062199.183 7  94937301.250 6
R24  19539392.891 8  19539398.023 7 104485928.471 8  81267026.843 7
> 2025 06 15 08 39 35.0000000  0 20
C20  23894807.516 6 124426534.950 6
C26  24424930.898 7 127187011.778 7
C29  21375994.742 7 111310416.884 7
E02  24477856.242 8  24477856.941 8 128632001.525 8  97309279.175 8
E10  24553719.078 7  24553721.172 8 129030660.976 7  97610862.537 8
E11  23400871.594 7  23400868.887 8 122972405.132 7  93027817.723 8
E16  25668194.836 7  25668198.738 8 134887274.570 7 102041354.854 8
E25  24347279.859 8  24347282.965 8 127945819.519 8  96790190.433 8
E36  24714879.945 8  24714883.414 8 129877571.453 8  98251551.993 8
G08  22304966.742 7                  22304973.156 7 117213384.531 7                  91335138.979 7
G10  21589347.500 8                  21589353.855 7 113452780.150 8                  88404795.783 7
G16  21282599.813 7  21282602.660 5                 111840813.786 7  87148694.882 5
G23  20823416.492 8                  20823421.527 8 109427791.264 8                  85268427.593 8
G27  20199442.070 8                  20199448.090 8 106148778.853 8                  82713554.480 8
R01  22713338.336 5                 121415806.258 5
R08  21061568.758 6  21061564.273 5 112783732.562 6  87720730.913 5
R14  20852738.820 8  20852744.984 7 111156842.550 8  86455264.954 7
R15  21310697.297 7  21310701.141 7 113877896.226 7  88571978.324 7
R17  22805697.813 7  22805703.973 7 122037898.217 7  94918400.503 7
R24  19537044.047 8  19537048.387 7 104473364.072 8  81257254.533 7
> 2025 06 15 08 39 40.0000000  0 20
C20  23891042.352 6 124406927.098 6
C26  24424107.969 7 127182725.915 7
C29  21374962.867 7 111305044.810 7
E02  24475540.070 8  24475540.805 8 128619830.441 8  97300071.831 8
E10  24553965.609 7  24553967.734 9 129031956.761 7  97611842.789 9
E11  23399905.977 7  23399903.488 8 122967331.771 7  93023979.766 8
E16  25669501.336 7  25669505.156 8 134894139.343 7 102046547.997 8
E25  24347731.617 7  24347734.496 8 127948192.198 7  96791985.343 8
E36  24711643.852 7  24711647.137 8 129860564.479 7  98238686.332 8
G08  22300693.625 7                  22300700.406 7 117190930.518 7                  91317642.352 7
G10  21585744.391 8                  21585750.898 7 113433846.572 8                  88390042.348 7
G16  21283329.859 7  21283332.809 5                 111844651.947 7  87151685.646 5
G23  20822467.109 8                  20822472.230 8 109422803.589 8                  85264541.086 8
G27  20196930.328 8                  20196936.219 8 106135578.063 8                  82703268.144 8
R01  22707886.938 5                 121386664.918 5
R08  21058867.273 6  21058868.387 5 112769300.589 6  87709506.089 5
R14  20853669.336 8  20853675.000 7 111161798.019 8  86459119.205 7
R15  21307872.273 7  21307875.984 7 113862798.198 7  88560235.406 7
R17  22801158.219 7  22801162.473 6 122013600.513 7  94899502.281 6
R24  19534695.977 8  19534700.660 7 104460810.759 8  81247490.842 7
> 2025 06 15 08 39 45.0000000  0 20
C20  23887277.625 6 124387328.613 6
C26  24423287.445 7 127178452.770 7
C29  21373932.875 7 111299680.071 7
E02  24473225.969 8  24473226.668 8 128607669.697 8  97290872.305 8
E10  24554212.836 7  24554215.055 8 129033256.307 7  97612825.872 8
E11  23398941.602 7  23398939.223 8 122962264.665 7  93020146.531 8
E16  25670808.383 7  25670812.359 8 134901008.501 7 102051744.463 8
E25  24348184.844 8  24348187.609 8 127950573.365 8  96793786.672 8
E36  24708408.695 7  24708411.789 8 129843562.501 7  98225824.444 8
G08  22296421.375 7                  22296428.125 7 117168481.772 7                  91300149.825 7
G10  21582143.711 8                  21582150.230 7 113414924.509 8                  88375297.880 7
G16  21284062.586 7  21284065.738 5                 111848502.892 7  87154686.385 5
G23  20821521.453 8                  20821525.762 8 109417831.344 8                  85260666.611 8
G27  20194420.555 8                  20194426.324 8 106122389.161 8                  82692991.063 8
R01  22702435.141 4                 121357528.402 4
R08  21056174.328 6  21056177.609 5 112754889.722 6  87698297.624 5
R14  20854601.461 8  20854607.398 7 111166770.668 8  86462986.815 7
R15  21305050.547 7  21305054.879 7 113847720.865 7  88548508.595 7
R17  22796618.344 7  22796621.758 6 121989305.120 7  94880605.868 6
R24  19532350.914 8  19532354.816 7 104448267.472 8  81237734.950 7
> 2025 06 15 08 39 50.0000000  0 20
C20  23883515.992 6 124367740.072 6
C26  24422469.203 7 127174192.966 7
C29  21372904.141 7 111294323.248 7
E02  24470914.172 7  24470914.582 8 128595519.902 7  97281681.061 8
E10  24554461.227 8  24554463.215 9 129034560.220 8  97613812.260 9
E11  23397978.289 7  23397976.328 8 122957204.437 7  93016318.501 8
E16  25672117.109 7  25672120.551 8 134907882.687 7 102056944.725 8
E25  24348639.602 7  24348642.473 8 127952963.562 7  96795594.829 8
E36  24705174.594 7  24705177.496 8 129826566.081 7  98212966.763 8
G08  22292150.836 7                  22292157.484 7 117146038.876 7                  91282661.861 7
G10  21578545.000 8                  21578551.898 7 113396014.597 8                  88360562.892 7
G16  21284798.641 7  21284801.059 5                 111852367.209 7  87157697.532 5
G23  20820578.328 8                  20820582.434 8 109412875.155 8                  85256804.653 8
G27  20191912.539 8                  20191918.996 8 106109212.738 8                  82682723.726 8
R01  22696988.141 5                 121328397.486 5
R08  21053488.523 6  21053490.590 5 112740500.208 6  87687105.805 5
R14  20855537.281 7  20855543.852 7 111171761.281 7  86466868.402 7
R15  21302231.453 7  21302237.137 7 113832664.663 7  88536798.212 7
R17  22792079.633 7  22792081.801 6 121965012.544 7  94861711.649 6
R24  19530007.266 8  19530011.695 7 104435734.835 8  81227987.330 7
> 2025 06 15 08 39 55.0000000  0 20
C20  23879757.023 6 124348163.273 6
C26  24421654.328 7 127169948.315 7
C29  21371877.305 7 111288976.188 7
E02  24468604.609 8  24468604.965 8 128583382.896 8  97272499.486 8
E10  24554710.602 8  24554712.492 9 129035870.297 8  97614803.314 9
E11  23397017.195 7  23397015.051 8 122952152.911 7  93012497.054 8
E16  25673426.531 7  25673430.059 8 134914763.750 7 102062150.201 8
E25  24349096.586 7  24349099.441 8 127955364.654 7  96797411.230 8
E36  24701941.984 7  24701944.613 8 129809577.048 7  98200114.673 8
G08  22287881.289 7                  22287888.195 7 117123603.660 7                  91265179.875 7
G10  21574949.516 8                  21574955.953 7 113377118.648 8                  88345838.786 7
G16  21285536.313 7  21285539.293 5                 111856246.765 7  87160720.558 5
G23  20819638.398 8                  20819642.695 7 109407936.840 8                  85252956.614 7
G27  20189408.383 8                  20189414.391 8 106096050.657 8                  82672467.559 8
R01  22691542.117 5                 121299273.698 5
R08  21050808.656 6  21050807.109 5 112726134.001 6  87675932.060 5
R14  20856477.891 8  20856483.777 7 111176771.645 8  86470765.352 7
R15  21299418.172 7  21299424.184 7 113817631.707 7  88525105.941 7
R17  22787539.953 7  22787543.094 6 121940724.846 7  94842821.231 6
R24  19527666.156 8  19527669.684 7 104423214.739 8  81218249.475 7
> 2025 06 15 08 40  0.0000000  0 21
C20  23875998.938 6 124328597.028 6
C26  24420841.195 7 127165717.545 7
C29  21370852.195 7 111283637.592 7
E02  24466297.125 7  24466297.520 8 128571257.401 7  97263326.620 8
E10  24554960.586 8  24554962.770 8 129037185.313 8  97615798.104 8
E11  23396057.406 7  23396055.160 8 122947108.784 7  93008681.200 8
E16  25674737.484 7  25674740.613 8 134921650.298 7 102067359.821 8
E25  24349555.523 7  24349558.234 8 127957775.340 7  96799234.890 8
E36  24698710.336 7  24698712.891 8 129792594.162 7  98187267.229 8
G08  22283613.391 7                  22283619.965 7 117101174.896 7                  91247702.896 7
G10  21571356.164 8                  21571362.668 7 113358235.407 8                  88331124.586 7
G16  21286277.820 7  21286280.445 5                 111860140.297 7  87163754.452 5
G18  22404342.578 5                                                                
G23  20818701.883 8                  20818706.402 8 109403015.118 8                  85249121.486 8
G27  20186906.141 8                  20186912.254 8 106082901.628 8                  82662221.561 8
R01  22686092.984 5                 121270156.054 5
R08  21048128.117 6  21048129.047 5 112711789.872 6  87664775.521 5
R14  20857421.414 8  20857426.605 7 111181800.271 8  86474676.488 7
R15  21296608.742 7  21296615.172 7 113802620.539 7  88513430.601 7
R17  22783001.516 7  22783005.031 6 121916440.493 7  94823933.455 6
R24  19525326.398 8  19525330.523 7 104410705.929 8  81208520.413 7
> 2025 06 15 08 40  5.0000000  0 21
C20  23872245.305 6 124309041.653 6
C26  24420031.414 7 127161501.017 7
C29  21369828.805 7 111278307.872 7
E02  24463992.094 8  24463992.418 8 128559143.782 8  97254162.752 8
E10  24555212.039 7  24555214.008 9 129038505.586 7  97616796.874 9
E11  23395098.578 7  23395096.805 8 122942072.413 7  93004871.220 8
E16  25676048.813 6  25676052.289 8 134928542.851 6 102072573.976 8
E25  24350015.695 7  24350018.871 8 127960195.998 7  96801066.096 8
E36  24695479.695 7  24695482.426 8 129775617.783 7  98174424.697 8
G08  22279346.188 7                  22279352.801 6 117078752.916 7                  91230231.220 6
G10  21567764.938 8                  21567771.844 7 113339365.274 8                  88316420.599 7
G16  21287021.453 7  21287024.227 5                 111864048.000 7  87166799.402 5
G18  22405466.586 5                                 117741509.104 5                
G23  20817768.313 8                  20817773.055 8 109398110.360 8                  85245299.605 8
G27  20184406.391 8                  20184412.441 8 106069766.056 8                  82651986.053 8
R01  22680647.422 5                 121241044.952 5
R08  21045452.125 6  21045455.066 5 112697468.195 6  87653636.474 5
R14  20858367.969 8  20858374.145 7 111186847.688 8  86478602.242 7
R15  21293803.820 7  21293810.547 7 113787631.532 7  88501772.468 7
R17  22778461.742 7  22778467.895 6 121892160.009 7  94805048.670 6
R24  19522989.188 8  19522993.719 7 104398208.662 8  81198800.326 7
> 2025 06 15 08 40 10.0000000  0 21
C20  23868492.180 6 124289496.605 6
C26  24419223.414 7 127157298.167 7
C29  21368806.766 7 111272986.451 7
E02  24461688.945 8  24461689.422 8 128547041.518 8  97245007.468 8
E10  24555464.273 8  24555466.180 8 129039830.575 8  97617799.201 8
E11  23394141.766 7  23394139.820 8 122937043.294 7  93001066.721 8
E16  25677361.734 7  25677364.898 8 134935440.758 7 102077792.189 8
E25  24350478.445 7  24350481.309 8 127962626.055 7  96802904.401 8
E36  24692250.539 7  24692253.066 8 129758647.339 7  98161586.674 8
G08  22275081.055 7                  22275087.246 6 117056337.222 7                  91212764.456 6
G10  21564176.773 8                  21564183.359 7 113320507.665 8                  88301726.371 7
G16  21287767.641 7  21287770.340 5                 111867969.427 7  87169855.060 5
G18  22406592.727 5                                 117747424.499 5                
G23  20816838.797 8                  20816842.789 8 109393221.964 8                  85241490.465 8
G27  20181909.766 8                  20181915.121 8 106056643.360 8                  82641760.590 8
R01  22675202.922 5                 121211939.644 5
R08  21042780.422 5  21042784.289 5 112683168.357 5  87642514.369 5
R14  20859318.016 8  20859324.465 7 111191913.327 8  86482542.174 7
R15  21291003.594 7  21291009.273 7 113772664.289 7  88490131.278 7
R17  22773924.500 7  22773931.316 6 121867882.701 7  94786166.353 6
R24  19520654.148 8  19520659.078 7 104385722.326 8  81189088.740 7
> 2025 06 15 08 40 15.0000000  0 21
C20  23864739.883 6 124269962.736 6
C26  24418419.070 6 127153109.719 6
C29  21367786.508 7 111267674.055 7
E02  24459388.102 8  24459388.785 8 128534951.324 8  97235861.304 8
E10  24555717.719 7  24555719.305 8 129041160.986 7  97618805.662 8
E11  23393186.266 7  23393184.352 8 122932022.090 7  92997268.212 8
E16  25678675.086 7  25678678.758 8 134942344.734 7 102083014.982 8
E25  24350942.664 7  24350945.703 8 127965066.241 7  96804750.371 8
E36  24689022.000 8  24689025.008 8 129741683.572 8  98148753.694 8
G08  22270817.211 7                  22270823.438 7 117033928.473 7                  91195303.089 7
G10  21560590.430 8                  21560597.504 7 113301663.350 8                  88287042.493 7
G16  21288516.492 7  21288519.727 5                 111871905.271 7  87172921.945 5
G18  22407721.508 5                                 117753346.162 5                
G23  20815911.539 8                  20815915.863 8 109388350.705 8                  85237694.677 8
G27  20179414.805 8                  20179421.031 8 106043534.297 8                  82631545.735 8
R01  22669760.555 5                 121182841.068 5
R08  21040114.703 6  21040118.852 6 112668891.355 6  87631410.004 6
R14  20860271.656 8  20860278.039 7 111196997.787 8  86486496.732 7
R15  21288206.492 7  21288212.504 7 113757719.475 7  88478507.539 7
R17  22769387.719 7  22769395.180 6 121843609.505 7  94767287.232 6
R24  19518321.094 8  19518326.270 7 104373247.915 8  81179386.423 7
> 2025 06 15 08 40 20.0000000  0 21
C20  23860990.891 6 124250438.856 6
C26  24417617.914 6 127148934.531 6
C29  21366767.859 7 111262369.578 7
E02  24457089.656 8  24457090.188 8 128522872.063 8  97226723.424 8
E10  24555971.500 7  24555973.332 9 129042495.726 7  97619815.377 9
E11  23392231.922 7  23392230.180 8 122927007.746 7  92993474.894 8
E16  25679989.055 7  25679993.551 8 134949253.676 7 102088241.542 8
E25  24351408.906 7  24351411.738 8 127967515.442 7  96806603.172 8
E36  24685795.156 8  24685798.004 8 129724725.358 8  98135924.914 8
G08  22266553.633 7                  22266560.250 7 117011525.646 7                  91177846.358 7
G10  21557006.258 8                  21557013.602 7 113282831.210 8                  88272368.100 7
G16  21289267.172 7  21289271.715 5                 111875854.393 7  87175999.188 5
G18  22408849.031 5                                 117759272.974 5                
G23  20814987.719 8                  20814991.805 8 109383495.464 8                  85233911.367 8
G27  20176922.828 8                  20176928.398 7 106030437.729 8                  82621340.611 7
R01  22664314.508 4                 121153748.026 4
R08  21037454.633 5  21037457.270 6 112654635.783 5  87620322.256 6
R14  20861229.508 8  20861235.426 7 111202100.085 8  86490465.178 7
R15  21285414.367 7  21285419.852 7 113742795.925 7  88466900.348 7
R17  22764851.227 7  22764860.184 7 121819339.256 7  94748410.384 7
R24  19515990.023 8  19515995.172 7 104360784.110 8  81169692.358 7
> 2025 06 15 08 40 25.0000000  0 21
C20  23857242.656 6 124230925.213 6
C26  24416818.406 6 127144772.967 6
C29  21365750.719 7 111257073.313 7
E02  24454792.914 7  24454793.762 8 128510804.091 7  97217594.086 8
E10  24556226.258 8  24556228.164 8 129043835.084 8  97620828.590 8
E11  23391279.195 7  23391277.348 8 122922000.521 7  92989686.959 8
E16  25681304.633 7  25681309.313 8 134956167.890 7 102093472.077 8
E25  24351876.734 7  24351879.570 8 127969973.946 7  96808463.000 8
E36  24682568.773 8  24682572.082 8 129707773.026 8  98123100.592 8
G08  22262291.133 7                  22262298.281 7 116989129.007 7                  91160394.440 7
G10  21553424.773 8                  21553431.930 7 113264011.555 8                  88257703.442 7
G16  21290022.086 7  21290025.953 5                 111879817.081 7  87179086.988 5
G18  22409978.188 5                  22409988.754 4 117765205.304 5                  91765156.13214
G23  20814066.484 7                  20814070.809 8 109378656.503 7                  85230140.754 8
G27  20174432.500 8                  20174438.719 8 106017354.006 8                  82611145.516 8
R01  22658873.742 5                 121124661.02715
R08  21034797.352 5  21034799.336 6 112640402.127 5  87609251.544 6
R14  20862189.781 8  20862196.066 7 111207220.479 8  86494447.698 7
R15  21282625.750 8  21282631.031 7 113727894.001 8  88455309.964 7
R17  22760316.719 7  22760325.734 7 121795072.203 7  94729536.012 7
R24  19513661.445 8  19513666.090 7 104348331.308 8  81160006.850 7
> 2025 06 15 08 40 30.0000000  0 20
C20  23853496.383 6 124211422.100 6
C26  24416021.609 6 127140625.123 6
C29  21364734.797 7 111251785.436 7
E02  24452498.602 8  24452499.453 8 128498747.559 8  97208473.403 8
E10  24556482.258 8  24556483.977 8 129045179.241 8  97621845.421 8
E11  23390327.711 7  23390325.891 8 122917000.554 7  92985904.509 8
E16  25682621.242 7  25682626.078 8 134963087.489 7 102098706.695 8
E25  24352346.492 7  24352349.195 8 127972441.904 7  96810329.983 8
E36  24679343.789 8  24679347.309 8 129690826.714 8  98110280.826 8
G08  22258031.156 7                  22258038.172 7 116966738.758 7                  91142947.512 7
G10  21549846.359 8                  21549852.754 7 113245204.544 8                  88243048.621 7
G16  21290778.141 7  21290782.867 5                 111883793.501 7  87182185.478 5
G18  22411110.773 5                  22411119.383 4 117771143.230 5                  91769783.073 4
G23  20813149.117 8                  20813153.176 7 109373834.021 8                  85226382.985 7
G27  20171945.352 8                  20171951.344 8 106004283.276 8                  82600960.538 8
R08  21032142.836 6  21032145.813 6 112626190.476 6  87598197.971 6
R14  20863154.578 8  20863159.746 7 111212359.045 8  86498444.366 7
R15  21279841.961 8  21279846.289 7 113713013.871 8  88443736.531 7
R17  22755784.336 7  22755791.625 7 121770808.550 7  94710664.271 7
R24  19511335.258 8  19511339.520 7 104335889.608 8  81150329.968 7
> 2025 06 15 08 40 35.0000000  0 20
C20  23849753.789 6 124191930.707 6
C26  24415228.547 6 127136492.251 6
C29  21363720.922 7 111246507.169 7
E02  24450206.297 7  24450207.594 8 128486703.681 7  97199362.293 8
E10  24556738.891 7  24556740.895 8 129046529.380 7  97622866.800 8
E11  23389377.773 7  23389376.074 8 122912009.146 7  92982128.527 8
E16  25683939.359 7  25683944.125 8 134970013.770 7 102103946.351 8
E25  24352818.211 8  24352820.859 8 127974920.576 8  96812205.073 8
E36  24676120.227 8  24676123.938 8 129673887.670 8  98097466.566 8
G08  22253771.367 7                  22253778.934 7 116944356.117 7                  91125506.502 7
G10  21546269.539 8                  21546276.363 7 113226411.422 8                  88228404.641 7
G16  21291537.633 7  21291542.398 5                 111887784.865 7  87185295.613 5
G18  22412242.359 5                  22412251.820 4 117777087.927 5                  91774415.242 4
G23  20812234.641 7                  20812238.742 8 109369029.222 7                  85222638.993 8
G27  20169460.938 8                  20169466.855 8 105991226.763 8                  82590786.633 8
R08  21029498.719 6  21029496.078 6 112612001.987 6  87587162.458 6
R14  20864121.898 8  20864127.008 7 111217517.109 8  86502456.182 7
R15  21277061.867 8  21277065.605 7 113698156.719 8  88432180.979 7
R17  22751251.000 7  22751258.262 7 121746549.415 7  94691796.034 7
R24  19509010.797 8  19509015.145 7 104323460.156 8  81140662.616 7
> 2025 06 15 08 40 40.0000000  0 20
C20  23846013.109 6 124172448.378 6
C26  24414437.922 6 127132371.707 6
C29  21362708.531 7 111241235.872 7
E02  24447916.422 7  24447917.668 8 128474669.836 7  97190258.769 8
E10  24556996.508 7  24556998.461 9 129047882.877 7  97623890.712 9
E11  23388428.977 7  23388427.398 8 122907023.579 7  92978356.978 8
E16  25685258.188 7  25685262.910 8 134976944.024 7 102109189.026 8
E25  24353291.188 7  24353294.070 8 127977407.272 7  96814086.235 8
E36  24672897.547 8  24672901.430 8 129656953.229 8  98084655.782 8
G08  22249512.516 7                  22249520.797 7 116921978.462 7                  91108069.382 7
G10  21542695.516 7                  21542702.328 7 113207629.597 7                  88213769.453 7
G16  21292299.891 7  21292304.023 5                 111891788.549 7  87188415.347 5
G18  22413371.516 5                  22413383.004 3 117783036.847 5                  91779050.822 3
G23  20811323.055 7                  20811327.141 8 109364239.472 7                  85218906.713 8
G27  20166978.313 8                  20166984.348 7 105978181.864 8                  82580621.779 7
R08  21026854.492 6  21026850.563 6 112597834.077 6  87576142.978 6
R14  20865092.852 8  20865097.754 7 111222691.856 8  86506480.999 7
R15  21274284.695 8  21274288.730 7 113683320.051 8  88420641.357 7
R17  22746719.766 7  22746725.879 7 121722292.333 7  94672929.428 7
R24  19506688.508 8  19506692.949 7 104311040.528 8  81131002.905 7
> 2025 06 15 08 40 45.0000000  0 20
C20  23842273.516 6 124152977.299 6
C26  24413648.898 6 127128265.624 6
C29  21361697.484 7 111235973.698 7
E02  24445628.750 7  24445630.059 8 128462648.161 7  97181164.456 8
E10  24557255.438 7  24557257.094 8 129049241.863 7  97624918.767 8
E11  23387481.969 7  23387480.184 8 122902046.013 7  92974591.477 8
E16  25686578.125 7  25686582.852 8 134983880.382 7 102114436.319 8
E25  24353766.555 8  24353769.211 8 127979904.143 8  96815975.104 8
E36  24669676.469 8  24669680.168 8 129640025.543 8  98071850.113 8
G08  22245256.391 7                  22245263.941 7 116899607.913 7                  91090637.782 7
G10  21539123.992 7                  21539130.840 7 113188861.192 7                  88199144.695 7
G16  21293064.797 7  21293068.633 5                 111895806.632 7  87191546.307 5
G18  22414498.070 4                                 117788992.071 4                
G23  20810414.695 7                  20810419.125 7 109359466.887 7                  85215187.821 7
G27  20164498.781 8                  20164504.793 8 105965150.706 8                  82570467.618 8
R08  21024206.367 6  21024209.145 6 112583688.943 6  87565141.238 6
R14  20866066.250 8  20866071.859 7 111227885.468 8  86510520.471 7
R15  21271512.258 8  21271516.598 7 113668505.872 8  88409119.243 7
R17  22742186.445 7  22742193.309 7 121698039.308 7  94654065.956 7
R24  19504368.219 8  19504372.813 7 104298632.768 8  81121352.417 7
> 2025 06 15 08 40 50.0000000  0 19
C20  23838536.797 6 124133516.704 6
C26  24412863.289 6 127124173.267 6
C29  21360688.594 7 111230719.849 7
E02  24443343.133 7  24443344.586 8 128450637.904 7  97172078.775 8
E10  24557514.930 7  24557516.582 8 129050605.571 7  97625950.396 8
E11  23386536.102 7  23386534.371 8 122897075.704 7  92970831.465 8
E16  25687899.578 7  25687903.805 8 134990822.114 7 102119687.678 8
E25  24354243.305 8  24354246.129 8 127982410.397 8  96817871.067 8
E36  24666456.297 8  24666460.043 8 129623103.849 8  98059048.975 8
G08  22241000.547 7                  22241007.891 7 116877243.754 7                  91073211.161 7
G10  21535555.781 7                  21535561.852 7 113170105.398 7                  88184529.794 7
G16  21293831.953 7  21293835.918 6                 111899838.365 7  87194687.906 6
G23  20809509.602 8                  20809514.227 8 109354710.702 8                  85211481.716 8
G27  20162021.477 8                  20162027.391 7 105952132.511 8                  82560323.574 7
R08  21021567.688 6  21021571.637 6 112569565.790 6  87554156.605 6
R14  20867044.867 8  20867049.723 7 111233097.117 8  86514573.958 7
R15  21268744.742 8  21268747.848 6 113653713.414 8  88397614.027 6
R17  22737655.695 7  22737661.781 7 121673789.600 7  94635205.102 7
R24  19502049.297 8  19502054.398 7 104286236.052 8  81111710.528 7
> 2025 06 15 08 40 55.0000000  0 19
C20  23834801.586 6 124114065.139 6
C26  24412079.305 6 127120093.115 6
C29  21359681.563 7 111225472.833 7
E02  24441059.648 7  24441061.004 8 128438637.575 7  97163000.601 8
E10  24557774.727 7  24557776.684 8 129051972.502 7  97626984.467 8
E11  23385591.148 7  23385589.680 8 122892111.102 7  92967075.771 8
E16  25689221.273 7  25689225.449 8 134997767.686 7 102124941.938 8
E25  24354721.875 8  24354724.574 8 127984924.579 8  96819773.024 8
E36  24663237.438 8  24663240.770 8 129606186.688 8  98046251.259 8
G08  22236746.195 7                  22236753.371 7 116854884.472 7                  91055788.354 7
G10  21531988.523 7                  21531994.898 7 113151360.803 7                  88169923.612 7
G16  21294601.578 7  21294605.293 5                 111903882.251 7  87197838.985 5
G23  20808607.039 8                  20808612.074 8 109349969.440 8                  85207787.218 8
G27  20159546.391 8                  20159552.160 8 105939125.818 8                  82550188.478 8
R08  21018935.258 6  21018937.883 6 112555463.244 6  87543187.932 6
R14  20868025.742 8  20868030.879 7 111238325.270 8  86518640.274 7
R15  21265980.789 8  21265984.125 7 113638941.432 8  88386124.697 7
R17  22733124.188 7  22733129.871 7 121649541.757 7  94616345.698 7
R24  19499732.398 8  19499737.863 7 104273848.970 8  81102076.121 7
> 2025 06 15 08 41  0.0000000  0 19
C20  23831067.500 6 124094623.702 6
C26  24411298.266 7 127116026.287 7
C29  21358675.813 7 111220233.796 7
E02  24438778.430 7  24438779.590 8 128426648.285 7  97153930.787 8
E10  24558035.703 7  24558037.613 8 129053343.771 7  97628021.813 8
E11  23384647.703 7  23384646.266 8 122887153.387 7  92963325.292 8
E16  25690543.922 7  25690548.078 8 135004718.210 7 102130199.948 8
E25  24355202.039 8  24355204.734 8 127987447.769 8  96821681.798 8
E36  24660019.086 7  24660022.590 8 129589275.135 7  98033457.775 8
G08  22232492.641 7                  22232499.566 7 116832531.234 7                  91038370.256 7
G10  21528423.523 7                  21528430.262 7 113132628.449 7                  88155326.996 7
G16  21295374.102 7  21295377.426 5                 111907939.391 7  87201000.396 5
G23  20807708.258 8                  20807712.563 7 109345244.197 8                  85204105.207 7
G27  20157073.523 8                  20157079.574 8 105926131.718 8                  82540063.216 8
R08  21016303.133 6  21016307.734 6 112541382.232 6  87532236.053 6
R14  20869010.023 8  20869015.047 7 111243571.206 8  86522720.441 7
R15  21263219.820 8  21263223.352 7 113624190.749 8  88374651.952 7
R17  22728593.031 7  22728598.891 7 121625296.885 7  94597488.584 7
R24  19497418.656 8  19497423.391 7 104261472.496 8  81092449.984 7
> 2025 06 15 08 41  5.0000000  0 19
C20  23827335.883 6 124075193.889 6
C26  24410519.469 7 127111974.230 7
C29  21357671.102 7 111215004.263 7
E02  24436499.273 7  24436500.508 8 128414671.582 7  97144870.479 8
E10  24558297.602 7  24558299.699 8 129054720.911 7  97629063.603 8
E11  23383706.234 7  23383704.461 8 122882204.021 7  92959581.120 8
E16  25691867.813 7  25691871.945 8 135011675.197 7 102135462.838 8
E25  24355683.930 8  24355686.895 8 127989981.496 8  96823598.540 8
E36  24656802.508 7  24656805.770 8 129572370.758 7  98020669.729 8
G08  22228239.766 7                  22228246.969 7 116810185.502 7                  91020957.996 7
G10  21524862.258 8                  21524868.371 7 113113909.930 8                  88140741.123 7
G16  21296148.742 7  21296152.297 6                 111912011.356 7  87204173.341 6
G23  20806812.320 8                  20806816.938 8 109340536.501 8                  85200436.860 8
G27  20154603.375 8                  20154609.496 8 105913151.774 8                  82529948.975 8
R08  21013675.586 6  21013681.984 6 112527324.508 6  87521302.335 6
R14  20869997.414 8  20870002.781 7 111248836.269 8  86526815.480 7
R15  21260463.430 8  21260467.609 7 113609463.088 8  88363197.109 7
R17  22724062.859 7  22724068.902 7 121601056.590 7  94578635.033 7
R24  19495106.891 8  19495111.125 7 104249108.366 8  81082833.447 7
> 2025 06 15 08 41 10.0000000  0 19
C20  23823606.906 6 124055774.465 6
C26  24409743.961 7 127107935.705 7
C29  21356668.695 7 111209782.874 7
E02  24434222.367 7  24434223.570 8 128402706.133 7  97135818.692 8
E10  24558560.750 7  24558562.586 8 129056102.563 7  97630108.798 8
E11  23382765.875 7  23382763.992 8 122877261.719 7  92955842.300 8
E16  25693192.883 7  25693196.785 8 135018637.330 7 102140729.639 8
E25  24356167.844 7  24356170.785 8 127992524.456 7  96825522.261 8
E36  24653587.313 8  24653590.078 8 129555472.152 8  98007886.044 8
G08  22223988.578 7                  22223995.965 7 116787846.003 7                  91003550.615 7
G10  21521302.328 8                  21521308.801 7 113095203.932 8                  88126165.045 7
G16  21296925.984 7  21296930.051 5                 111916096.733 7  87207356.745 5
G23  20805919.500 8                  20805924.297 8 109335845.023 8                  85196781.149 8
G27  20152136.336 8                  20152142.281 7 105900184.646 8                  82519844.732 7
R08  21011053.172 5  21011060.824 6 112513288.621 5  87510385.568 6
R14  20870989.500 8  20870993.988 7 111254119.227 8  86530924.429 7
R15  21257711.164 8  21257715.363 7 113594757.056 8  88351759.075 7
R17  22719533.055 7  22719539.676 7 121576819.500 7  94559783.972 7
R24  19492796.680 8  19492801.484 7 104236755.165 8  81073225.395 7
> 2025 06 15 08 41 15.0000000  0 19
C20  23819879.359 6 124036365.837 6
C26  24408971.500 7 127103911.165 7
C29  21355667.406 7 111204570.146 7
E02  24431947.469 7  24431948.922 8 128390752.412 7  97126775.779 8
E10  24558824.672 7  24558826.473 8 129057489.233 7  97631157.800 8
E11  23381826.578 7  23381824.945 8 122872326.922 7  92952109.150 8
E16  25694518.773 7  25694522.688 8 135025605.094 7 102146000.679 8
E25  24356653.758 7  24356656.520 8 127995077.067 7  96827453.289 8
E36  24650372.625 7  24650375.539 8 129538579.896 7  97995107.163 8
G08  22219738.625 7                  22219746.168 7 116765513.214 7                  90986148.441 7
G10  21517745.219 8                  21517751.570 7 113076510.934 8                  88111599.081 7
G16  21297706.461 7  21297710.141 5                 111920196.043 7  87210551.007 5
G23  20805029.867 8                  20805034.656 8 109331170.221 8                  85193138.448 8
G27  20149671.555 8                  20149677.039 7 105887230.823 8                  82509750.845 7
R08  21008436.000 5  21008443.469 6 112499275.164 5  87499486.253 6
R14  20871983.695 8  20871988.395 7 111259420.461 8  86535047.586 7
R15  21254963.281 8  21254967.992 7 113580073.265 8  88340338.357 7
R17  22715004.109 7  22715010.922 7 121552585.971 7  94540935.682 7
R24  19490488.930 8  19490493.910 7 104224413.412 8  81063626.236 7
> 2025 06 15 08 41 20.0000000  0 19
C20  23816154.266 6 124016966.981 6
C26  24408201.125 7 127099899.448 7
C29  21354667.617 7 111199364.955 7
E02  24429674.914 8  24429676.266 8 128378809.322 8  97117740.917 8
E10  24559089.242 7  24559091.031 8 129058879.788 7  97632209.741 8
E11  23380888.914 7  23380887.090 8 122867398.524 7  92948380.848 8
E16  25695845.305 7  25695849.453 8 135032577.334 7 102151275.120 8
E25  24357141.352 8  24357143.938 8 127997638.262 8  96829390.804 8
E36  24647159.070 7  24647162.023 8 129521692.806 7  97982332.187 8
G08  22215489.945 7                  22215497.133 7 116743186.051 7                  90968750.654 7
G10  21514190.516 8                  21514196.730 7 113057829.822 8                  88097042.384 7
G16  21298489.008 7  21298492.738 5                 111924308.152 7  87213755.251 5
G23  20804143.273 8                  20804148.230 8 109326511.005 8                  85189507.876 8
G27  20147208.344 8                  20147214.215 8 105874289.228 8                  82499666.488 8
R08  21005824.586 6  21005830.723 6 112485282.961 6  87488603.461 6
R14  20872981.586 8  20872986.109 7 111264738.915 8  86539184.139 7
R15  21252219.758 8  21252223.719 7 113565410.395 8  88328933.889 7
R17  22710477.133 7  22710482.969 7 121528355.021 7  94522089.373 7
R24  19488182.898 8  19488187.426 7 104212081.966 8  81054035.103 7
> 2025 06 15 08 41 25.0000000  0 19
C20  23812431.219 6 123997578.467 6
C26  24407433.977 7 127095901.226 7
C29  21353669.953 7 111194167.894 7
E02  24427403.977 8  24427405.734 8 128366877.479 8  97108714.560 8
E10  24559354.742 7  24559356.516 8 129060274.821 7  97633265.062 8
E11  23379952.609 7  23379950.582 8 122862477.158 7  92944657.860 8
E16  25697173.039 7  25697177.195 8 135039554.703 7 102156553.441 8
E25  24357630.617 7  24357633.039 8 128000208.621 7  96831335.259 8
E36  24643946.594 7  24643949.613 8 129504811.520 7  97969561.603 8
G08  22211242.477 7                  22211249.586 7 116720865.115 7                  90951357.737 7
G10  21510637.727 8                  21510644.270 7 113039161.199 8                  88082495.434 7
G16  21299273.609 7  21299277.676 5                 111928433.674 7  87216969.948 5
G23  20803260.398 8                  20803264.730 8 109321867.949 8                  85185889.903 8
G27  20144748.656 8                  20144754.027 8 105861360.439 8                  82489592.100 8
R08  21003218.578 6  21003222.348 6 112471312.641 6  87477737.621 6
R14  20873982.031 8  20873987.324 7 111270075.070 8  86543334.453 7
R15  21249479.008 8  21249484.477 7 113550769.295 8  88317546.363 7
R17  22705949.383 7  22705955.141 7 121504127.221 7  94503245.541 7
R24  19485879.047 8  19485883.703 7 104199761.352 8  81044452.398 7
> 2025 06 15 08 41 30.0000000  0 20
C20  23808709.602 6 123978200.107 6
C26  24406668.180 7 127091916.230 7
C29  21352674.086 7 111188978.768 7
E02  24425135.703 8  24425137.285 8 128354956.645 8  97099696.527 8
E10  24559621.109 7  24559622.742 8 129061674.128 7  97634323.631 8
E11  23379017.359 7  23379015.379 8 122857562.564 7  92940939.996 8
E16  25698502.016 7  25698505.852 8 135046536.897 7 102161835.412 8
E25  24358121.328 7  24358123.855 8 128002787.902 7  96833286.456 8
E36  24640735.141 7  24640738.277 8 129487935.817 7  97956795.250 8
G08  22206996.133 7                  22207003.082 7 116698550.164 7                  90933969.478 7
G10  21507087.211 8                  21507093.980 7 113020504.856 8                  88067958.027 7
G16  21300060.984 7  21300064.758 5                 111932572.294 7  87220194.847 5
G23  20802378.906 8                  20802384.309 8 109317240.854 8                  85182284.365 8
G27  20142290.336 8                  20142296.285 8 105848444.235 8                  82479527.531 8
R01  22588246.836 5                 120747077.73715
R08  21000613.867 6  21000617.336 5 112457363.927 6  87466888.647 5
R14  20874986.148 8  20874991.566 7 111275428.832 8  86547498.484 7
R15  21246743.352 8  21246747.949 7 113536149.505 8  88306175.408 7
R17  22701423.477 7  22701427.820 7 121479902.410 7  94484404.044 7
R24  19483577.641 8  19483581.434 7 104187451.377 8  81034877.975 7
> 2025 06 15 08 41 35.0000000  0 20
C20  23804990.898 6 123958832.350 6
C26  24405905.875 7 127087944.936 7
C29  21351679.055 7 111183798.023 7
E02  24422869.688 8  24422871.051 8 128343047.325 8  97090687.210 8
E10  24559888.398 7  24559889.914 8 129063078.154 7  97635385.754 8
E11  23378083.422 7  23378081.559 8 122852655.223 7  92937227.624 8
E16  25699831.547 7  25699835.594 8 135053524.467 7 102167121.444 8
E25  24358613.922 7  24358616.453 8 128005376.597 7  96835244.780 8
E36  24637524.766 8  24637528.102 8 129471066.139 8  97944033.453 8
G08  22202751.078 7                  22202758.133 7 116676241.713 7                  90916586.271 7
G10  21503539.273 8                  21503546.172 7 113001861.290 8                  88053430.581 7
G16  21300851.078 7  21300855.078 5                 111936724.511 7  87223430.325 5
G23  20801502.477 8                  20801506.980 8 109312630.163 8                  85178691.604 8
G27  20139834.570 8                  20139840.766 7 105835541.106 8                  82469473.155 7
R01  22582818.914 5                 120718075.690 5
R08  20998011.969 6  20998016.242 6 112443437.350 6  87456056.908 6
R14  20875993.391 8  20875998.910 7 111280800.505 8  86551676.455 7
R15  21244011.352 8  21244016.496 7 113521551.582 8  88294821.470 7
R17  22696895.195 7  22696901.332 7 121455681.012 7  94465565.224 7
R24  19481277.320 8  19481281.750 7 104175152.487 8  81025312.174 7
> 2025 06 15 08 41 40.0000000  0 20
C20  23801273.578 7 123939474.460 7
C26  24405144.906 7 127083986.557 7
C29  21350685.492 7 111178624.880 7
E02  24420605.305 7  24420606.805 8 128331148.708 7  97081685.990 8
E10  24560156.164 7  24560157.777 8 129064486.133 7  97636450.879 8
E11  23377150.891 7  23377148.961 8 122847754.346 7  92933520.134 8
E16  25701162.078 7  25701166.141 8 135060516.543 7 102172410.890 8
E25  24359108.258 7  24359110.637 8 128007973.882 7  96837209.608 8
E36  24634315.563 8  24634318.941 8 129454201.739 8  97931275.650 8
G08  22198506.914 7                  22198514.285 7 116653939.000 7                  90899207.532 7
G10  21499994.078 8                  21500000.902 7 112983229.733 8                  88038912.486 7
G16  21301643.367 7  21301647.766 5                 111940889.543 7  87226675.801 5
G23  20800628.086 8                  20800632.605 8 109308035.082 8                  85175111.019 8
G27  20137381.406 8                  20137387.504 8 105822650.265 8                  82459428.354 8
R01  22577391.195 5                 120689079.310 5
R08  20995417.344 6  20995419.430 6 112429532.215 6  87445241.820 6
R14  20877004.883 8  20877010.172 7 111286189.463 8  86555867.867 7
R15  21241283.781 8  21241287.961 7 113506974.900 8  88283484.041 7
R17  22692369.531 7  22692375.547 7 121431462.234 7  94446728.425 7
R24  19478979.172 8  19478983.227 7 104162864.029 8  81015754.501 7
> 2025 06 15 08 41 45.0000000  0 20
C20  23797558.336 6 123920126.946 6
C26  24404387.383 7 127080041.615 7
C29  21349693.844 7 111173459.847 7
E02  24418343.516 7  24418344.676 8 128319261.326 7  97072693.258 8
E10  24560425.094 7  24560426.492 8 129065898.544 7  97637519.346 8
E11  23376219.703 7  23376217.680 8 122842860.435 7  92929817.928 8
E16  25702493.109 7  25702497.660 8 135067513.641 7 102177704.135 8
E25  24359604.289 7  24359606.625 8 128010580.291 7  96839181.328 8
E36  24631107.500 8  24631110.824 8 129437343.093 8  97918522.195 8
G08  22194264.352 7                  22194271.066 7 116631642.514 7                  90881833.632 7
G10  21496451.086 8                  21496457.746 7 112964610.657 8                  88024404.115 7
G16  21302438.555 7  21302442.836 5                 111945067.865 7  87229931.632 5
G23  20799756.594 8                  20799761.188 8 109303456.131 8                  85171542.986 8
G27  20134930.938 8                  20134937.141 8 105809772.245 8                  82449393.535 8
R01  22571967.664 5                 120660088.840 5
R08  20992822.789 6  20992826.934 6 112415648.836 6  87434443.653 6
R14  20878018.727 8  20878024.016 7 111291596.056 8  86560072.980 7
R15  21238560.703 8  21238564.828 7 113492419.803 8  88272163.398 7
R17  22687844.547 7  22687850.469 6 121407246.650 7  94427894.104 6
R24  19476683.273 8  19476687.711 7 104150586.408 8  81006205.234 7
> 2025 06 15 08 41 50.0000000  0 20
C20  23793844.742 6 123900790.623 6
C26  24403631.742 7 127076110.884 7
C29  21348703.813 7 111168303.764 7
E02  24416083.875 8  24416084.836 8 128307386.033 8  97063709.674 8
E10  24560694.375 7  24560696.250 8 129067316.227 7  97638591.810 8
E11  23375289.688 7  23375287.898 8 122837974.327 7  92926121.614 8
E16  25703826.039 7  25703830.277 8 135074516.625 7 102183001.821 8
E25  24360102.250 7  24360104.469 8 128013196.612 7  96841160.555 8
E36  24627900.813 8  24627904.035 8 129420491.082 8  97905773.765 8
G08  22190022.203 7                  22190029.688 7 116609353.091 7                  90864465.240 7
G10  21492910.602 8                  21492917.082 7 112946004.960 8                  88009906.188 7
G16  21303235.547 7  21303240.582 5                 111949260.344 7  87233198.498 5
G23  20798888.523 8                  20798892.926 8 109298894.123 8                  85167988.172 8
G27  20132483.180 8                  20132489.074 7 105796907.890 8                  82439369.371 7
R01  22566544.641 5                 120631105.414 5
R08  20990235.773 7  20990238.762 6 112401788.300 7  87423663.227 6
R14  20879036.453 8  20879042.500 7 111297021.111 8  86564292.480 7
R15  21235840.758 8  21235845.453 6 113477887.153 8  88260860.235 6
R17  22683319.438 7  22683325.922 7 121383034.976 7  94409062.824 7
R24  19474389.461 8  19474393.270 7 104138320.519 8  80996665.087 7
> 2025 06 15 08 41 55.0000000  0 20
C20  23790133.594 7 123881465.903 7
C26  24402879.203 7 127072194.801 7
