     3.04           OBSERVATION DATA    Mixed(MIXED)        RINEX VERSION / TYPE
cnvtToRINEX 3.14.0  convertToRINEX OPR  20250615 162936 UTC PGM / RUN BY / DATE 
----------------------------------------------------------- COMMENT             
414                                                         MARKER NAME         
414                                                         MARKER NUMBER       
GEODETIC                                                    MARKER TYPE         
GNSS Observer       Trimble                                 OBSERVER / AGENCY   
5849S10870          Geo Explorer 3      5.51                REC # / TYPE / VERS 
49S10870            UNKNOWN EXT     NONE                    ANT # / TYPE        
  3912274.6651  1190403.9442  4879349.6417                  APPROX POSITION XYZ 
        1.1940        0.0000        0.0000                  ANTENNA: DELTA H/E/N
G    6 C1C C2W C2X L1C L2W L2X                              SYS / # / OBS TYPES 
R    4 C1C C2C L1C L2C                                      SYS / # / OBS TYPES 
E    4 C1X C8X L1X L8X                                      SYS / # / OBS TYPES 
C    2 C2I L2I                                              SYS / # / OBS TYPES 
     5.000                                                  INTERVAL            
  2025     6    15     7    31   30.0000000     GPS         TIME OF FIRST OBS   
  2025     6    15     8    13   10.0000000     GPS         TIME OF LAST OBS    
     0                                                      RCV CLOCK OFFS APPL 
  8 R07  5 R08  6 R13 -2 R14 -7 R15  0 R22 -3 R23  3 R24  2 GLONASS SLOT / FRQ #
G L2X -0.25000                                              SYS / PHASE SHIFT   
R L2C -0.25000                                              SYS / PHASE SHIFT   
    18                                                      LEAP SECONDS        
    26                                                      # OF SATELLITES     
   C20   482   482                                          PRN / # OF OBS      
   C26   489   489                                          PRN / # OF OBS      
   C29   489   489                                          PRN / # OF OBS      
   C30   489   489                                          PRN / # OF OBS      
   E02   488   488   488   488                              PRN / # OF OBS      
   E10   489   489   489   489                              PRN / # OF OBS      
   E11   489   489   489   489                              PRN / # OF OBS      
   E12   489   489   489   489                              PRN / # OF OBS      
   E16   489   489   489   489                              PRN / # OF OBS      
   E24   490   490   490   490                              PRN / # OF OBS      
   E25   489   489   489   489                              PRN / # OF OBS      
   E36   303   303   303   303                              PRN / # OF OBS      
   G08   254     0   253   254     0   253                  PRN / # OF OBS      
   G10   489     0   489   489     0   489                  PRN / # OF OBS      
   G16   490   490     0   490   490     0                  PRN / # OF OBS      
   G18   490     0   490   490     0   490                  PRN / # OF OBS      
   G23   489     0   489   489     0   489                  PRN / # OF OBS      
   G27   490     0   490   490     0   490                  PRN / # OF OBS      
   R07   490   490   490   489                              PRN / # OF OBS      
   R08   483   483   483   483                              PRN / # OF OBS      
   R13   489     0   489     0                              PRN / # OF OBS      
   R14   489   489   489   489                              PRN / # OF OBS      
   R15   476   476   476   476                              PRN / # OF OBS      
   R22    66    66    66    66                              PRN / # OF OBS      
   R23   489     0   489     0                              PRN / # OF OBS      
   R24   489   489   489   489                              PRN / # OF OBS      
DBHZ                                                        SIGNAL STRENGTH UNIT
                                                            END OF HEADER       
>                              2  1
              *** Start of Kinematic Data ***               COMMENT             
> 2025 06 15 07 31 30.0000000  0  5
E24  25293548.953 8  25293550.762 8 132918495.37018 100551985.07818
G16  20454724.094 7  20454726.148 6                 107490296.97917  83758683.56516
G18  20726037.859 7                  20726042.445 8 108916061.39217                  84869678.31018
G27  21717628.609 7                  21717635.582 7 114126903.60417                  88930083.82517
R07  21967085.453 6  21967090.523 7 117591528.44216
> 2025 06 15 07 32 30.0000000  0 20
C26  25026363.156 6 130318832.11916
C29  21785298.266 7 113441767.03417
C30  22837268.703 7 118919644.75817
E10  23789283.438 8  23789284.734 9 125013527.24118  94571926.01719
E11  23738461.867 7  23738459.738 8 124746456.50717  94369875.68218
E12  25370238.734 7  25370238.426 8 133321501.71717 100856849.55318
E16  24120737.703 8  24120738.266 9 126755329.65318  95889586.73319
E24  25606544.602 8  25606546.902 8 134563299.49318 101796271.26118
E25  23693683.695 8  23693685.902 9 124511144.22818  94191882.17519
G10  24162396.758 7                  24162405.539 7 126974251.66417                  98941033.11317
G16  20733091.172 7  20733093.156 6                 108953125.388 7  84898549.856 6
G18  21023663.648 7                  21023668.504 8 110480096.052 7                  86088406.560 8
G23  21674421.008 7                  21674426.500 8 113899854.03917                  88753174.45318
G27  21968709.219 7                  21968715.539 7 115446342.859 7                  89958218.359 7
R07  22235944.398 7  22235950.656 6 119030743.471 7  92579490.68416
R13  21169353.586 6                 113043175.30016
R14  20465219.672 8  20465224.723 7 109091132.70018  84848851.09517
R22  22505488.836 7  22505492.469 6 120135843.69317  93438992.81016
R23  19794519.156 8                 105887333.01118
R24  21130485.141 8  21130489.758 7 112994197.70418  87884402.58317
>                              3  5
              *** Start of Occupation ***                   COMMENT             
414                                                         MARKER NAME         
414                                                         MARKER NUMBER       
  3912274.6651  1190403.9442  4879349.6417                  APPROX POSITION XYZ 
        1.1940        0.0000        0.0000                  ANTENNA: DELTA H/E/N
> 2025 06 15 07 32 35.0000000  0 21
C26  25023412.172 6 130303464.873 6
C29  21783007.773 7 113429838.641 7
C30  22837651.578 7 118921638.377 7
E02  26008680.398 6  26008682.328 8 136676534.17916 103394919.05118
E10  23788524.766 8  23788525.883 9 125009539.448 8  94568909.276 9
E11  23736226.063 7  23736223.824 8 124734706.636 7  94360986.985 8
E12  25370591.203 7  25370590.945 8 133323354.197 7 100858250.928 8
E16  24120852.438 8  24120853.121 8 126755933.194 8  95890043.309 8
E24  25607653.273 8  25607655.605 8 134569125.353 8 101800678.483 8
E25  23692500.023 8  23692502.098 9 124504923.222 8  94187176.024 9
G10  24157523.563 7                  24157532.656 7 126948642.917 7                  98921078.256 7
G16  20731327.289 7  20731329.656 6                 108943858.384 7  84891328.791 6
G18  21023498.180 7                  21023502.703 8 110479226.178 7                  86087728.727 8
G23  21671008.461 8                  21671013.730 8 113881920.581 8                  88739200.340 8
G27  21964659.727 7                  21964666.367 7 115425062.108 7                  89941635.956 7
R07  22233392.414 7  22233399.141 7 119017086.241 7  92568868.399 7
R13  21171213.094 6                 113053105.394 6
R14  20462835.289 8  20462840.855 8 109078424.314 8  84838966.783 8
R22  22507229.578 6  22507234.242 5 120145140.659 6  93446223.799 5
R23  19794335.414 7                 105886348.816 7
R24  21126607.094 8  21126611.914 7 112973461.515 8  87868274.451 7
> 2025 06 15 07 32 40.0000000  0 21
C26  25020463.047 6 130288109.585 6
C29  21780718.102 7 113417917.674 7
C30  22838034.992 7 118923637.182 7
E02  26005004.711 6  26005006.836 8 136657218.849 6 103380307.160 8
E10  23787767.406 8  23787768.492 9 125005559.605 8  94565898.546 9
E11  23733991.742 7  23733989.535 8 124722965.356 7  94352104.777 8
E12  25370944.711 7  25370944.492 8 133325211.986 7 100859656.331 8
E16  24120969.063 8  24120969.715 8 126756545.870 8  95890506.790 8
E24  25608763.063 7  25608765.285 8 134574956.612 7 101805089.765 8
E25  23691318.344 8  23691320.309 9 124498712.767 8  94182477.850 9
G10  24152650.609 7                  24152659.859 7 126923037.277 7                  98901125.813 7
G16  20729566.977 7  20729569.309 6                 108934607.897 7  84884120.637 6
G18  21023334.641 7                  21023339.133 8 110478367.078 7                  86087059.297 8
G23  21667598.383 7                  21667603.664 8 113864000.530 7                  88725236.663 8
G27  21960611.289 7                  21960617.605 7 115403788.011 7                  89925058.745 7
R07  22230845.281 7  22230852.078 6 119003449.602 7  92558262.138 6
R13  21173076.289 6                 113063048.955 6
R14  20460455.961 8  20460460.832 7 109065737.678 8  84829099.401 7
R22  22508971.867 6  22508976.621 6 120154439.883 6  93453456.498 6
R23  19794153.438 7                 105885375.502 7
R24  21122730.586 8  21122735.879 7 112952733.967 8  87852153.040 7
> 2025 06 15 07 32 45.0000000  0 21
C26  25017516.289 6 130272765.456 6
C29  21778430.500 7 113406003.383 7
C30  22838420.172 7 118925640.387 7
E02  26001330.266 6  26001332.141 8 136637908.388 6 103365698.923 8
E10  23787011.500 8  23787012.535 9 125001586.959 8  94562893.264 9
E11  23731759.086 7  23731756.730 8 124711231.865 7  94343228.467 8
E12  25371299.281 7  25371298.910 8 133327074.289 7 100861065.149 8
E16  24121087.109 8  24121087.816 8 126757166.921 8  95890976.599 8
E24  25609873.586 7  25609875.871 8 134580792.479 7 101809504.547 8
E25  23690138.164 8  23690140.363 9 124492512.121 8  94177787.104 9
G10  24147778.695 7                  24147787.422 7 126897433.961 7                  98881175.191 7
G16  20727809.156 7  20727812.164 6                 108925373.153 7  84876924.731 6
G18  21023172.938 7                  21023177.762 8 110477518.027 7                  86086397.705 8
G23  21664190.922 8                  21664196.207 8 113846093.144 8                  88711282.850 8
G27  21956564.086 7                  21956570.555 7 115382519.740 7                  89908486.056 7
R07  22228301.055 7  22228307.961 7 118989833.091 7  92547671.515 7
R13  21174941.188 6                 113073005.041 6
R14  20458079.117 8  20458084.965 7 109053072.149 8  84819248.447 7
R22  22510714.102 6  22510718.441 6 120163740.519 6  93460690.282 6
R23  19793973.195 8                 105884412.224 8
R24  21118856.117 8  21118860.906 7 112932014.122 8  87836037.603 7
> 2025 06 15 07 32 50.0000000  0 21
C26  25014572.758 6 130257433.785 6
C29  21776143.984 7 113394097.094 7
C30  22838805.977 7 118927649.284 7
E02  25997656.625 6  25997658.645 8 136618604.098 6 103351095.366 8
E10  23786257.023 8  23786258.180 9 124997622.818 8  94559894.421 9
E11  23729528.109 7  23729525.594 8 124699507.484 7  94334359.055 8
E12  25371654.836 7  25371654.379 8 133328942.460 7 100862478.400 8
E16  24121207.070 8  24121207.871 9 126757797.630 8  95891453.723 9
E24  25610985.344 8  25610987.508 8 134586634.281 8 101813923.816 8
E25  23688960.516 8  23688962.547 9 124486322.613 8  94173104.773 9
G10  24142907.055 7                  24142916.246 7 126871834.322 7                  98861227.445 7
G16  20726055.422 7  20726058.063 6                 108916155.502 7  84869742.148 6
G18  21023013.383 7                  21023018.090 8 110476680.324 7                  86085744.937 8
G23  21660785.969 8                  21660791.285 8 113828199.723 8                  88697339.946 8
G27  21952518.680 7                  21952524.480 7 115361258.681 7                  89891918.992 7
R07  22225761.180 7  22225768.309 7 118976237.615 7  92537097.256 7
R13  21176807.594 6                 113082975.101 6
R14  20455707.906 8  20455713.012 7 109040429.023 8  84809414.905 7
R22  22512457.164 7  22512462.105 6 120173043.800 7  93467926.127 6
R23  19793794.969 8                 105883460.352 8
R24  21114982.188 8  21114988.449 7 112911303.436 8  87819929.312 7
> 2025 06 15 07 32 55.0000000  0 21
C26  25011630.805 6 130242114.940 6
C29  21773859.383 7 113382199.084 7
C30  22839192.531 7 118929664.220 7
E02  25993984.227 6  25993986.480 8 136599306.319 6 103336496.709 8
E10  23785504.484 8  23785505.539 9 124993667.437 8  94556902.196 9
E11  23727298.734 7  23727296.359 8 124687792.493 7  94325496.739 8
E12  25372011.727 7  25372011.047 8 133330816.731 7 100863896.265 8
E16  24121328.773 8  24121329.813 9 126758438.327 8  95891938.397 9
E24  25612098.352 7  25612100.387 8 134592482.270 7 101818347.771 8
E25  23687784.758 8  23687786.930 9 124480144.520 8  94168431.085 9
G10  24138035.664 7                  24138045.992 7 126846238.647 7                  98841282.788 7
G16  20724305.039 7  20724307.355 6                 108906955.232 7  84862573.109 6
G18  21022856.711 7                  21022861.168 8 110475854.224 7                  86085101.227 8
G23  21657383.695 8                  21657388.961 8 113810320.578 8                  88683408.145 8
G27  21948473.852 7                  21948479.953 7 115340005.100 7                  89875357.765 7
R07  22223225.680 7  22223232.648 6 118962663.928 7  92526539.952 6
R13  21178677.813 6                 113092959.298 6
R14  20453340.914 8  20453345.219 7 109027808.361 8  84799598.835 7
R22  22514199.586 6  22514205.008 6 120182350.079 6  93475164.334 6
R23  19793619.781 7                 105882520.102 7
R24  21111111.172 8  21111117.227 7 112890602.183 8  87803828.345 7
> 2025 06 15 07 33  0.0000000  0 22
C26  25008691.547 6 130226808.984 6
C29  21771576.156 7 113370309.497 7
C30  22839580.555 7 118931685.229 7
E02  25990313.086 6  25990315.332 8 136580015.159 6 103321903.081 8
E10  23784753.586 8  23784754.555 9 124989721.012 8  94553916.747 9
E11  23725071.234 7  23725068.867 8 124676087.083 7  94316641.666 8
E12  25372369.469 7  25372368.902 8 133332697.259 7 100865318.876 8
E16  24121452.672 8  24121453.676 9 126759089.128 8  95892430.718 9
E24  25613212.617 8  25613214.461 8 134598336.645 8 101822776.543 8
E25  23686611.320 8  23686613.469 9 124473977.991 8  94163766.139 9
G10  24133165.961 7                  24133176.160 7 126820647.134 7                  98821341.372 7
G16  20722556.773 7  20722560.297 6                 108897772.479 7  84855417.721 6
G18  21022701.695 7                  21022706.133 8 110475039.900 7                  86084466.674 8
G23  21653983.938 7                  21653989.008 8 113792455.864 7                  88669487.599 8
G27  21944430.563 7                  21944437.395 7 115318759.146 7                  89858802.486 7
R07  22220693.570 7  22220700.699 7 118949111.738 7  92515999.367 7
R08  23349232.406 6  23349240.738 5 125034079.55416  97248766.68615
R13  21180549.492 6                 113102957.950 6
R14  20450976.945 8  20450982.012 7 109015210.760 8  84789800.691 7
R22  22515944.219 6  22515949.094 6 120191659.485 6  93482404.960 6
R23  19793446.367 8                 105881591.729 8
R24  21107241.672 8  21107247.922 7 112869910.583 8  87787734.879 7
> 2025 06 15 07 33  5.0000000  0 23
C20  26411768.078 6 137533004.42616
C26  25005754.523 6 130211516.673 6
C29  21769294.531 7 113358429.023 7
C30  22839969.695 7 118933713.067 7
E02  25986643.406 6  25986645.711 8 136560731.296 6 103307314.975 8
E10  23784004.258 8  23784005.391 9 124985784.171 8  94550938.554 9
E11  23722846.031 7  23722843.355 8 124664391.895 7  94307794.334 8
E12  25372728.578 7  25372728.035 8 133334584.732 7 100866746.721 8
E16  24121578.578 8  24121579.605 8 126759750.717 8  95892931.195 8
E24  25614327.773 8  25614329.848 8 134604198.046 8 101827210.645 8
E25  23685440.172 8  23685442.367 9 124467823.699 8  94159110.455 9
G10  24128297.555 7                  24128306.563 7 126795060.447 7                  98801403.699 7
G16  20720813.141 7  20720816.090 6                 108888607.921 7  84848276.518 6
G18  21022549.125 7                  21022553.523 8 110474238.012 7                  86083841.813 8
G23  21650587.055 8                  21650592.746 8 113774606.271 8                  88655578.824 8
G27  21940389.203 7                  21940395.727 7 115297521.525 7                  89842253.684 7
R07  22218167.297 7  22218173.082 7 118935582.196 7  92505476.409 7
R08  23344233.508 6  23344241.059 6 125007310.858 6  97227946.612 6
R13  21182424.406 6                 113112971.548 6
R14  20448618.102 8  20448623.660 8 109002636.619 8  84780020.801 8
R22  22517688.852 6  22517694.102 6 120200972.779 6  93489648.611 6
R23  19793275.461 8                 105880675.815 8
R24  21103375.008 8  21103380.258 7 112849229.251 8  87771649.395 7
> 2025 06 15 07 33 10.0000000  0 23
C20  26407132.836 6 137508866.831 6
C26  25002820.039 6 130196237.059 6
C29  21767014.508 7 113346556.731 7
C30  22840359.727 7 118935746.805 7
E02  25982975.063 6  25982977.406 8 136541453.920 6 103292731.761 8
E10  23783256.742 8  23783257.914 9 124981856.006 8  94547966.913 9
E11  23720622.023 7  23720619.578 8 124652705.987 7  94298954.023 8
E12  25373088.695 7  25373088.391 8 133336478.273 7 100868179.157 8
E16  24121706.422 8  24121707.348 9 126760422.159 8  95893439.139 9
E24  25615444.266 8  25615446.461 8 134610065.541 8 101831649.360 8
E25  23684271.188 8  23684273.406 9 124461680.743 8  94154463.348 9
G10  24123428.891 7                  24123438.363 7 126769477.676 7                  98781469.110 7
G16  20719072.328 7  20719075.375 6                 108879460.640 7  84841148.763 6
G18  21022398.477 7                  21022403.066 8 110473447.620 7                  86083225.924 8
G23  21647192.961 8                  21647198.832 8 113756770.897 8                  88641681.146 8
G27  21936349.727 7                  21936356.156 7 115276291.313 7                  89825710.669 7
R07  22215643.625 7  22215650.016 6 118922074.033 7  92494970.045 6
R08  23339235.648 6  23339243.953 6 124980549.992 6  97207132.638 6
R13  21184302.992 6                 113122999.385 6
R14  20446263.898 8  20446269.051 8 108990085.003 8  84770258.428 8
R22  22519433.500 6  22519438.914 6 120210288.936 6  93496894.500 6
R23  19793106.094 8                 105879771.485 8
R24  21099508.398 8  21099514.848 7 112828557.180 8  87755571.113 7
> 2025 06 15 07 33 15.0000000  0 23
C20  26402497.945 6 137484731.478 6
C26  24999888.422 6 130180971.210 6
C29  21764736.508 7 113334693.627 7
C30  22840751.961 7 118937787.425 7
E02  25979308.656 6  25979310.383 8 136522183.955 6 103278154.160 8
E10  23782511.109 8  23782512.234 9 124977937.535 8  94545002.616 9
E11  23718400.078 7  23718397.770 8 124641030.436 7  94290121.538 8
E12  25373450.609 7  25373450.035 8 133338378.733 7 100869616.836 8
E16  24121836.156 8  24121837.203 9 126761104.490 8  95893955.308 9
E24  25616562.063 8  25616564.301 8 134615940.129 8 101836093.438 8
E25  23683104.875 8  23683106.777 9 124455550.107 8  94149825.561 9
G10  24118561.359 7                  24118570.590 7 126743899.878 7                  98761538.377 7
G16  20717334.969 7  20717338.523 6                 108870331.695 7  84834035.299 6
G18  21022250.469 7                  21022255.094 8 110472669.746 7                  86082619.779 8
G23  21643802.172 8                  21643807.574 8 113738950.766 8                  88627795.333 8
G27  21932310.680 7                  21932317.551 7 115255069.548 7                  89809174.226 7
R07  22213124.063 7  22213130.754 7 118908588.519 7  92484481.317 7
R08  23334239.555 5  23334248.148 6 124953798.145 5  97186325.634 6
R13  21186183.555 6                 113133042.202 6
R14  20443913.422 8  20443918.801 8 108977557.116 8  84760514.524 8
R22  22521179.805 6  22521184.273 6 120219609.039 6  93504143.453 6
R23  19792939.133 8                 105878879.755 8
R24  21095644.461 8  21095650.500 7 112807895.584 8  87739500.991 7
> 2025 06 15 07 33 20.0000000  0 23
C20  26397864.234 6 137460597.689 6
C26  24996958.547 6 130165718.385 6
C29  21762459.633 7 113322839.095 7
C30  22841144.781 7 118939834.313 7
E02  25975642.422 6  25975644.648 8 136502920.757 6 103263581.690 8
E10  23781767.109 8  23781768.270 9 124974028.116 8  94542045.165 9
E11  23716180.352 7  23716177.777 8 124629364.534 7  94281296.371 8
E12  25373813.273 7  25373812.863 8 133340285.673 7 100871059.411 8
E16  24121967.961 8  24121968.961 8 126761797.063 8  95894479.232 8
E24  25617681.219 8  25617683.457 8 134621821.228 8 101840542.429 8
E25  23681940.375 8  23681942.383 9 124449431.202 8  94145196.644 9
G10  24113695.523 7                  24113704.035 7 126718326.402 7                  98741610.995 7
G16  20715601.492 7  20715604.590 6                 108861220.415 7  84826935.596 6
G18  21022104.891 7                  21022109.398 8 110471903.755 7                  86082022.897 8
G23  21640413.938 8                  21640419.285 8 113721145.230 8                  88613920.907 8
G27  21928274.242 7                  21928280.809 7 115233855.606 7                  89792643.887 7
R07  22210609.102 7  22210616.211 7 118895124.761 7  92474009.501 7
R08  23329247.492 6  23329253.414 5 124927054.589 6  97165525.098 5
R13  21188066.188 6                 113143099.380 6
R14  20441567.586 8  20441572.277 7 108965052.236 8  84750788.502 7
R22  22522926.555 6  22522931.660 6 120228932.378 6  93511394.907 6
R23  19792775.305 8                 105877999.840 8
R24  21091781.578 8  21091788.555 7 112787243.697 8  87723438.438 7
> 2025 06 15 07 33 25.0000000  0 23
C20  26393228.898 6 137436464.192 6
C26  24994031.734 6 130150477.423 6
C29  21760184.469 7 113310991.828 7
C30  22841538.477 7 118941886.157 7
E02  25971978.070 6  25971980.160 8 136483663.084 6 103249013.410 8
E10  23781024.727 8  23781025.871 9 124970126.421 8  94539093.557 9
E11  23713961.875 7  23713959.480 8 124617707.038 7  94272477.545 8
E12  25374177.109 7  25374176.793 8 133342197.634 7 100872505.790 8
E16  24122101.688 8  24122102.551 8 126762498.563 8  95895009.903 8
E24  25618801.242 8  25618803.609 8 134627707.461 8 101844995.311 8
E25  23680777.656 8  23680780.004 9 124443322.702 8  94140575.603 9
G10  24108829.906 7                  24108837.918 7 126692755.937 7                  98721685.974 7
G16  20713870.773 7  20713873.973 6                 108852125.527 7  84819848.662 6
G18  21021961.344 7                  21021965.633 8 110471148.321 7                  86081434.246 8
G23  21637028.438 7                  21637033.730 8 113703353.017 7                  88600056.837 8
G27  21924238.320 7                  21924245.535 7 115212648.160 7                  89776118.605 7
R07  22208097.070 7  22208104.742 7 118881681.826 7  92463553.874 7
R08  23324254.148 6  23324259.777 5 124900317.919 6  97144729.934 5
R13  21189953.070 6                 113153169.801 6
R14  20439225.492 8  20439230.445 7 108952569.136 8  84741079.437 7
R22  22524673.711 6  22524678.504 6 120238257.664 6  93518647.896 6
R23  19792612.594 8                 105877130.604 8
R24  21087922.695 8  21087928.910 7 112766600.222 8  87707382.392 7
> 2025 06 15 07 33 30.0000000  0 24
C20  26388593.508 6 137412331.975 6
C26  24991106.688 6 130135249.180 6
C29  21757910.859 7 113299152.775 7
C30  22841933.938 7 118943943.873 7
E02  25968314.227 7  25968316.781 8 136464411.904 7 103234450.023 8
E10  23780283.836 8  23780285.047 9 124966233.423 8  94536148.527 9
E11  23711745.047 7  23711742.848 8 124606058.854 7  94263665.773 8
E12  25374542.180 7  25374541.773 8 133344115.615 7 100873956.727 8
E16  24122237.063 8  24122237.934 9 126763209.941 8  95895548.055 9
E24  25619922.156 8  25619924.934 8 134633599.820 8 101849452.827 8
E25  23679617.563 8  23679619.738 9 124437225.559 8  94135963.146 9
G10  24103964.469 7                  24103972.262 7 126667189.490 7                  98701764.064 7
G16  20712143.367 7  20712146.445 6                 108843047.932 7  84812775.215 6
G18  21021819.758 7                  21021823.809 8 110470404.377 7                  86080854.553 8
G23  21633645.445 8                  21633650.406 8 113685575.075 8                  88586203.908 8
G27  21920204.367 7                  21920211.086 7 115191448.168 7                  89759599.137 7
R07  22205590.016 7  22205597.523 7 118868260.287 7  92453114.896 7
R08  23319262.211 6  23319268.305 5 124873589.265 6  97123941.004 5
R13  21191841.344 6                 113163254.038 6
R14  20436888.570 8  20436892.629 7 108940108.653 8  84731387.948 7
R15  23675421.453 6  23675426.578 6 126514272.09816  98400025.86316
R22  22526420.242 6  22526426.426 6 120247585.811 6  93525903.120 6
R23  19792452.422 8                 105876272.824 8
R24  21084063.914 8  21084069.449 7 112745966.247 8  87691333.749 7
> 2025 06 15 07 33 35.0000000  0 24
C20  26383958.688 6 137388200.316 6
C26  24988184.844 6 130120032.994 6
C29  21755639.180 7 113287321.264 7
C30  22842330.375 7 118946006.845 7
E02  25964652.039 7  25964654.402 8 136445166.494 7 103219891.000 8
E10  23779544.531 8  23779545.754 9 124962348.411 8  94533209.535 9
E11  23709530.039 7  23709527.969 8 124594419.335 7  94254860.552 8
E12  25374908.266 7  25374907.777 8 133346038.931 7 100875411.691 8
E16  24122374.234 8  24122375.117 8 126763930.501 8  95896093.150 8
E24  25621044.766 7  25621047.258 8 134639497.595 7 101853914.441 8
E25  23678459.219 8  23678461.523 9 124431139.081 8  94131358.767 9
G10  24099099.891 7                  24099108.195 7 126641626.338 7                  98681844.745 7
G16  20710419.289 7  20710422.098 6                 108833986.980 7  84805714.731 6
G18  21021679.977 7                  21021684.570 8 110469671.251 7                  86080283.285 8
G23  21630264.859 8                  21630270.359 8 113667810.734 8                  88572361.564 8
G27  21916171.719 7                  21916177.973 7 115170254.970 7                  89743084.974 7
R07  22203087.734 7  22203094.637 7 118854859.770 7  92442692.283 7
R08  23314274.625 6  23314278.250 5 124846867.914 6  97103157.711 5
R13  21193732.563 6                 113173351.763 6
R14  20434554.070 8  20434559.336 8 108927670.122 8  84721713.543 8
R15  23670259.758 6  23670265.926 6 126486697.741 6  98378579.144 6
R22  22528169.656 6  22528174.395 6 120256916.250 6  93533160.101 6
R23  19792294.094 8                 105875425.923 8
R24  21080206.953 8  21080212.207 7 112725340.900 8  87675291.813 7
> 2025 06 15 07 33 40.0000000  0 24
C20  26379325.320 5 137364070.546 5
C26  24985265.711 6 130104830.258 6
C29  21753368.125 7 113275498.595 7
C30  22842727.750 7 118948076.305 7
E02  25960991.617 7  25960993.508 8 136425928.217 7 103205337.368 8
E10  23778806.922 8  23778808.207 9 124958472.703 8  94530277.589 9
E11  23707317.023 7  23707314.871 8 124582789.741 7  94246062.841 8
E12  25375275.344 7  25375274.977 8 133347968.865 7 100876871.678 8
E16  24122513.336 8  24122514.211 8 126764661.578 8  95896646.196 8
E24  25622168.211 7  25622170.898 8 134645402.075 7 101858381.132 8
E25  23677303.531 8  23677305.602 9 124425064.593 8  94126763.445 9
G10  24094236.609 7                  24094244.422 7 126616067.852 7                  98661929.047 7
G16  20708698.570 7  20708701.098 6                 108824943.985 7  84798668.240 6
G18  21021542.992 7                  21021547.469 8 110468950.239 7                  86079721.464 8
G23  21626887.484 8                  21626892.320 8 113650061.294 8                  88558530.844 8
G27  21912139.945 7                  21912146.457 7 115149069.883 7                  89726577.097 7
R07  22200588.156 7  22200594.898 7 118841481.148 7  92432286.703 7
R08  23309286.086 6  23309290.625 5 124820155.230 6  97082381.225 5
R13  21195626.148 6                 113183464.088 6
R14  20432225.461 8  20432230.453 7 108915255.008 8  84712057.341 7
R15  23665102.594 6  23665107.879 6 126459133.097 6  98357140.023 6
R22  22529917.813 6  22529923.176 6 120266250.114 6  93540419.740 6
R23  19792138.133 8                 105874591.332 8
R24  21076352.188 8  21076357.184 7 112704725.632 8  87659257.707 7
> 2025 06 15 07 33 45.0000000  0 24
C20  26374692.758 5 137339943.187 5
C26  24982349.242 6 130089641.373 6
C29  21751099.648 7 113263685.260 7
C30  22843126.672 7 118950152.792 7
E02  25957332.000 7  25957333.965 8 136406697.530 7 103190789.480 8
E10  23778071.414 8  23778072.555 9 124954606.785 8  94527353.044 9
E11  23705105.883 7  23705103.836 8 124571170.604 7  94237273.047 8
E12  25375644.305 7  25375643.609 8 133349905.925 7 100878337.046 8
E16  24122654.438 8  24122655.434 8 126765403.629 8  95897207.545 8
E24  25623293.461 7  25623295.855 8 134651313.793 7 101862853.278 8
E25  23676149.734 8  23676152.008 9 124419002.574 8  94122177.566 9
G10  24089373.828 7                  24089382.113 6 126590514.521 7                  98642017.380 6
G16  20706980.977 7  20706983.426 6                 108815919.453 7  84791636.122 6
G18  21021407.930 7                  21021412.652 8 110468241.849 7                  86079169.463 8
G23  21623512.961 8                  21623517.699 8 113632327.292 8                  88544712.146 8
G27  21908110.320 7                  21908116.992 7 115127893.439 7                  89710075.999 7
R07  22198094.625 7  22198099.598 7 118828125.522 7  92421898.988 7
R08  23304300.328 6  23304304.477 5 124793451.764 6  97061611.902 5
R13  21197523.016 6                 113193591.464 6
R14  20429900.734 8  20429905.742 7 108902863.705 8  84702419.660 7
R15  23659945.313 6  23659951.418 6 126431578.551 6  98335708.704 6
R22  22531666.633 6  22531672.414 6 120275587.938 6  93547682.464 6
R23  19791984.289 8                 105873769.257 8
R24  21072498.969 8  21072503.996 7 112684120.907 8  87643231.812 7
> 2025 06 15 07 33 50.0000000  0 24
C20  26370058.578 6 137315817.087 6
C26  24979434.344 6 130074465.253 6
C29  21748832.555 7 113251880.100 7
C30  22843526.625 7 118952235.103 7
E02  25953673.906 7  25953675.695 8 136387473.335 7 103176246.506 8
E10  23777337.195 8  23777338.563 9 124950749.501 8  94524435.031 9
E11  23702896.578 7  23702894.590 8 124559560.753 7  94228490.262 8
E12  25376013.734 7  25376013.371 8 133351848.958 7 100879806.922 8
E16  24122797.555 8  24122798.492 8 126766155.519 8  95897776.333 8
E24  25624419.469 8  25624421.930 8 134657231.535 8 101867330.000 8
E25  23674998.336 8  23675000.641 9 124412951.896 8  94117600.267 9
G10  24084511.336 7                  24084520.184 6 126564965.209 7                  98622108.817 6
G16  20705267.367 7  20705269.602 6                 108806912.229 7  84784617.511 6
G18  21021274.953 7                  21021279.977 8 110467544.896 7                  86078626.366 8
G23  21620140.906 8                  21620146.047 8 113614607.572 8                  88530904.574 8
G27  21904081.664 7                  21904088.770 7 115106724.419 7                  89693580.648 7
R07  22195603.906 7  22195608.543 7 118814791.554 7  92411528.106 7
R08  23299314.156 6  23299318.855 5 124766756.351 6  97040848.809 5
R13  21199422.094 6                 113203732.793 6
R14  20427581.422 8  20427585.637 7 108890495.029 8  84692799.570 7
R15  23654790.227 6  23654796.141 6 126404033.055 6  98314284.389 6
R22  22533417.555 6  22533421.641 6 120284928.651 6  93554947.461 6
R23  19791832.992 8                 105872958.596 8
R24  21068647.125 8  21068652.461 7 112663525.593 8  87627213.226 7
> 2025 06 15 07 33 55.0000000  0 24
C20  26365424.938 5 137291692.358 5
C26  24976522.508 6 130059302.006 6
C29  21746567.484 7 113240083.220 7
C30  22843927.797 7 118954323.395 7
E02  25950016.828 7  25950018.672 8 136368255.692 7 103161708.481 8
E10  23776604.867 8  23776606.203 9 124946900.957 8  94521523.636 9
E11  23700689.055 7  23700687.074 8 124547960.306 7  94219714.597 8
E12  25376384.609 7  25376384.270 8 133353798.042 7 100881281.392 8
E16  24122942.469 8  24122943.426 8 126766917.344 8  95898352.640 8
E24  25625546.813 7  25625549.262 8 134663155.461 7 101871811.388 8
E25  23673849.031 8  23673851.398 8 124406912.657 8  94113031.614 8
G10  24079649.914 7                  24079659.082 6 126539420.015 7                  98602203.483 6
G16  20703556.391 7  20703558.719 6                 108797922.408 7  84777612.467 6
G18  21021144.828 7                  21021149.426 8 110466859.489 7                  86078092.292 8
G23  21616771.867 8                  21616776.523 8 113596902.233 8                  88517108.224 8
G27  21900055.055 7                  21900062.223 7 115085562.967 7                  89677091.221 7
R07  22193115.266 7  22193122.340 7 118801479.082 7  92401173.958 7
R08  23294329.234 6  23294335.715 5 124740069.040 6  97020092.060 5
R13  21201323.648 6                 113213888.192 6
R14  20425264.625 8  20425269.676 7 108878148.989 8  84683197.094 7
R15  23649635.336 6  23649643.113 6 126376496.729 6  98292867.285 6
R22  22535167.086 6  22535172.316 6 120294272.308 6  93562214.732 6
R23  19791684.273 8                 105872159.648 8
R24  21064797.539 8  21064802.938 7 112642939.688 8  87611201.963 7
> 2025 06 15 07 34  0.0000000  0 24
C20  26360792.773 5 137267569.121 5
C26  24973613.227 6 130044151.704 6
C29  21744303.266 7 113228294.738 7
C30  22844329.734 7 118956417.708 7
E02  25946361.336 7  25946362.938 8 136349044.750 7 103147175.540 8
E10  23775874.188 8  23775875.559 8 124943061.229 8  94518618.902 8
E11  23698483.492 7  23698481.414 8 124536369.347 7  94210946.114 8
E12  25376756.648 7  25376756.348 8 133355753.286 7 100882760.483 8
E16  24123089.328 8  24123090.258 8 126767689.183 8  95898936.527 8
E24  25626675.047 7  25626677.746 8 134669085.614 7 101876297.497 8
E25  23672702.359 8  23672704.375 9 124400884.939 8  94108471.686 9
G10  24074790.469 7                  24074799.086 6 126513879.056 7                  98582301.470 6
G16  20701848.938 7  20701851.590 6                 108788950.098 7  84770621.059 6
G18  21021016.875 7                  21021021.262 8 110466185.700 7                  86077567.247 8
G23  21613405.070 8                  21613410.055 8 113579211.392 8                  88503323.159 8
G27  21896029.602 7                  21896036.637 7 115064409.232 7                  89660607.773 7
R07  22190632.602 7  22190639.254 7 118788188.518 7  92390836.849 7
R08  23289348.000 6  23289354.359 5 124713389.961 6  96999341.698 5
R13  21203228.234 6                 113224057.654 6
R14  20422952.969 8  20422957.730 8 108865826.017 8  84673612.558 8
R15  23644484.211 6  23644491.559 6 126348969.647 6  98271457.315 6
R22  22536918.406 7  22536923.625 6 120303619.024 7  93569484.387 6
R23  19791536.148 8                 105871372.367 8
R24  21060949.914 8  21060955.047 7 112622363.357 8  87595198.151 7
> 2025 06 15 07 34  5.0000000  0 24
C20  26356160.906 6 137243446.865 6
C26  24970706.195 6 130029013.890 6
C29  21742041.141 7 113216514.165 7
C30  22844733.461 7 118958517.614 7
E02  25942706.648 7  25942708.359 8 136329839.993 7 103132647.266 8
E10  23775145.180 8  23775146.441 8 124939229.869 8  94515720.501 8
E11  23696279.242 7  23696277.461 8 124524787.396 7  94202184.445 8
E12  25377129.820 7  25377129.496 8 133357714.129 7 100884243.860 8
E16  24123237.914 8  24123238.977 8 126768470.577 8  95899527.642 8
E24  25627804.570 7  25627807.293 8 134675021.514 7 101880787.968 8
E25  23671557.375 8  23671559.461 9 124394868.285 8  94103920.120 9
G10  24069930.547 7                  24069939.395 6 126488341.843 7                  98562402.391 6
G16  20700144.531 7  20700147.418 6                 108779994.818 7  84763642.904 6
G18  21020890.648 8                  21020895.250 8 110465523.071 8                  86077050.912 8
G23  21610041.578 8                  21610046.555 8 113561534.591 8                  88489549.033 8
G27  21892005.930 7                  21892012.281 7 115043262.660 7                  89644129.925 7
R07  22188153.406 7  22188160.172 7 118774919.326 7  92380516.387 7
R08  23284365.922 6  23284373.191 5 124686718.778 6  96978597.480 5
R13  21205134.977 6                 113234240.693 6
R14  20420645.289 8  20420650.039 8 108853525.410 8  84664045.435 8
R15  23639334.336 5  23639341.738 6 126321451.338 5  98250054.196 6
R22  22538669.586 6  22538674.762 6 120312968.236 6  93576755.989 6
R23  19791392.188 8                 105870596.328 8
R24  21057104.211 7  21057108.234 7 112601796.117 7  87579201.417 7
> 2025 06 15 07 34 10.0000000  0 24
C20  26351528.305 6 137219325.215 6
C26  24967802.188 6 130013888.117 6
C29  21739780.766 7 113204741.004 7
C30  22845137.539 7 118960622.550 7
E02  25939053.078 7  25939054.875 8 136310640.949 7 103118123.315 8
E10  23774417.586 8  23774418.887 9 124935406.325 8  94512828.015 9
E11  23694077.180 7  23694075.094 8 124513213.952 7  94193429.210 8
E12  25377503.586 7  25377503.652 8 133359680.158 7 100885731.143 8
E16  24123388.469 8  24123389.426 8 126769261.009 8  95900125.588 8
E24  25628935.273 8  25628937.875 8 134680962.653 8 101885282.377 8
E25  23670414.422 8  23670416.535 9 124388862.174 8  94099376.531 9
G10  24065071.406 7                  24065080.313 6 126462807.958 7                  98542505.883 6
G16  20698443.625 7  20698446.406 6                 108771056.042 7  84756677.632 6
G18  21020766.242 7                  21020771.227 8 110464871.082 7                  86076542.855 8
G23  21606680.406 8                  21606685.148 8 113543871.318 8                  88475785.449 8
G27  21887982.703 7                  21887990.043 7 115022122.815 7                  89627657.341 7
R07  22185677.984 7  22185685.301 7 118761670.854 7  92370212.014 7
R08  23279387.711 6  23279393.023 5 124660054.889 6  96957858.925 5
R13  21207044.156 7                 113244436.639 7
R14  20418341.984 8  20418346.766 7 108841246.678 8  84654495.307 7
R15  23634186.484 6  23634193.844 6 126293941.283 6  98228657.549 6
R22  22540421.125 7  22540426.785 6 120322319.371 7  93584029.087 6
R23  19791248.430 8                 105869830.861 8
R24  21053259.320 8  21053264.598 7 112581237.489 8  87563211.383 7
> 2025 06 15 07 34 15.0000000  0 24
C20  26346896.258 6 137195204.285 6
C26  24964898.289 6 129998774.536 6
C29  21737520.773 7 113192975.469 7
C30  22845542.578 7 118962732.800 7
E02  25935401.227 7  25935402.531 8 136291447.850 7 103103603.867 8
E10  23773691.656 8  23773692.809 8 124931590.796 8  94509941.591 8
E11  23691876.336 7  23691874.406 8 124501649.223 7  94184680.563 8
E12  25377878.797 7  25377878.836 8 133361651.563 7 100887222.483 8
E16  24123540.945 8  24123541.590 8 126770060.672 8  95900730.522 8
E24  25630066.773 7  25630069.457 8 134686909.297 7 101889780.953 8
E25  23669273.508 8  23669275.652 9 124382866.807 8  94094841.078 9
G10  24060213.797 7                  24060222.125 6 126437277.569 7                  98522612.083 6
G16  20696746.141 7  20696748.457 6                 108762134.015 7  84749725.391 6
G18  21020644.477 7                  21020649.113 8 110464229.903 7                  86076043.226 8
G23  21603321.758 8                  21603326.746 8 113526221.799 8                  88462032.572 8
G27  21883960.938 7                  21883968.129 7 115000989.904 7                  89611190.123 7
R07  22183207.945 7  22183214.477 7 118748443.481 7  92359924.042 7
R08  23274406.797 6  23274414.855 5 124633398.584 6  96937126.260 5
R13  21208956.391 6                 113254645.902 6
R14  20416042.609 8  20416047.348 7 108828990.045 8  84644962.373 7
R15  23629037.227 5  23629047.504 6 126266439.813 5  98207267.524 6
R22  22542173.555 7  22542178.527 6 120331672.743 7  93591303.906 6
R23  19791106.820 8                 105869076.224 8
R24  21049416.664 8  21049421.242 7 112560687.705 8  87547228.209 7
> 2025 06 15 07 34 20.0000000  0 24
C20  26342265.289 6 137171085.838 6
C26  24961999.133 6 129983674.887 6
C29  21735263.406 7 113181219.289 7
C30  22845949.352 7 118964850.001 7
E02  25931749.906 7  25931751.703 8 136272262.405 7 103089090.205 8
E10  23772967.453 8  23772968.637 9 124927785.074 8  94507062.584 9
E11  23689677.539 7  23689675.699 8 124490094.962 7  94175939.839 8
E12  25378255.234 7  25378255.320 8 133363630.018 7 100888719.166 8
E16  24123695.414 7  24123695.863 8 126770871.335 7  95901343.776 8
E24  25631200.008 7  25631202.445 8 134692863.112 7 101894284.951 8
E25  23668134.953 8  23668137.137 9 124376883.952 8  94090315.083 9
G10  24055355.852 7                  24055365.039 6 126411752.429 7                  98502722.381 6
G16  20695051.625 7  20695054.180 6                 108753230.487 7  84742787.573 6
G18  21020524.805 8                  21020529.398 8 110463601.301 8                  86075553.407 8
G23  21599965.906 8                  21599970.988 8 113508587.782 8                  88448291.780 8
G27  21879941.445 7                  21879948.449 7 114979865.659 7                  89594729.661 7
R07  22180741.094 7  22180747.832 7 118735238.922 7  92349653.847 7
R08  23269431.891 6  23269438.438 5 124606751.572 6  96916400.824 5
R13  21210871.773 6                 113264870.218 6
R14  20413747.953 8  20413752.074 7 108816757.351 8  84635448.045 7
R15  23623893.406 5  23623903.813 6 126238948.604 5  98185885.483 6
R22  22543926.242 7  22543931.078 6 120341030.082 7  93598581.828 6
R23  19790968.625 8                 105868334.301 8
R24  21045575.813 8  21045580.266 7 112540148.479 8  87531253.269 7
> 2025 06 15 07 34 25.0000000  0 24
C20  26337633.219 6 137146968.396 6
C26  24959101.156 6 129968587.717 6
C29  21733007.281 7 113169470.937 7
C30  22846357.188 7 118966972.694 7
E02  25928100.672 7  25928101.902 8 136253083.094 7 103074581.178 8
E10  23772244.797 8  23772245.996 9 124923987.577 8  94504189.796 9
E11  23687480.492 7  23687478.684 8 124478549.615 7  94167205.855 8
E12  25378632.711 7  25378632.910 8 133365614.065 7 100890220.071 8
E16  24123851.352 7  24123851.938 8 126771691.442 7  95901964.179 8
E24  25632333.891 7  25632336.500 8 134698822.538 7 101898793.206 8
E25  23666998.383 8  23667000.730 9 124370912.063 8  94085797.392 9
G10  24050499.148 7                  24050508.281 6 126386230.989 7                  98482835.563 6
G16  20693361.086 7  20693363.059 6                 108744343.888 7  84735862.944 6
G18  21020407.320 7                  21020411.957 8 110462983.740 7                  86075072.187 8
G23  21596612.938 8                  21596618.098 8 113490967.752 8                  88434561.882 8
G27  21875922.844 7                  21875929.625 7 114958748.557 7                  89578274.782 7
R07  22178278.453 7  22178284.641 7 118722055.700 7  92339400.222 7
R08  23264455.617 6  23264464.063 5 124580112.408 6  96895681.444 5
R13  21212788.281 7                 113275107.929 7
R14  20411456.805 8  20411461.949 7 108804547.016 8  84625951.121 7
R15  23618748.742 5  23618759.707 6 126211466.151 5  98164510.271 6
R22  22545679.766 6  22545684.527 6 120350389.854 6  93605861.626 6
R23  19790831.625 8                 105867603.360 8
R24  21041735.984 8  21041740.766 7 112519618.290 8  87515285.354 7
> 2025 06 15 07 34 30.0000000  0 24
C20  26333001.313 6 137122852.198 6
C26  24956206.328 6 129953513.229 6
C29  21730752.742 7 113157730.716 7
C30  22846766.008 7 118969101.148 7
E02  25924452.461 7  25924453.469 8 136233910.278 7 103060077.074 8
E10  23771523.688 8  23771524.980 9 124920198.602 8  94501323.463 9
E11  23685285.398 7  23685283.457 8 124467013.492 7  94158478.857 8
E12  25379011.594 7  25379011.641 8 133367603.942 7 100891725.396 8
E16  24124009.133 8  24124009.879 8 126772521.272 8  95902591.931 8
E24  25633469.148 7  25633471.723 8 134704787.960 7 101903305.986 8
E25  23665864.234 8  23665866.469 9 124364951.448 8  94081288.225 9
G10  24045643.664 7                  24045652.121 6 126360713.634 7                  98462951.918 6
G16  20691673.094 7  20691675.352 6                 108735474.589 7  84728951.801 6
G18  21020291.930 7                  21020296.809 8 110462377.513 7                  86074599.803 8
G23  21593262.367 8                  21593267.578 8 113473362.000 8                  88420843.112 8
G27  21871905.563 7                  21871913.078 7 114937638.908 7                  89561825.714 7
R07  22175818.813 7  22175826.254 7 118708893.919 7  92329163.323 7
R08  23259483.859 6  23259490.137 5 124553481.441 6  96874968.507 5
R13  21214708.117 6                 113285359.349 6
R14  20409170.531 8  20409175.227 8 108792359.301 8  84616471.802 8
R15  23613610.000 5  23613618.465 6 126183992.829 5  98143142.159 6
R22  22547434.234 6  22547438.371 6 120359752.346 6  93613143.551 6
R23  19790696.906 8                 105866883.782 8
R24  21037898.141 8  21037904.125 7 112499097.430 8  87499324.695 7
> 2025 06 15 07 34 35.0000000  0 24
C20  26328370.633 6 137098737.267 6
C26  24953313.539 6 129938451.404 6
C29  21728499.867 7 113145998.509 7
C30  22847175.664 7 118971235.240 7
E02  25920805.008 7  25920806.266 8 136214743.807 7 103045577.757 8
E10  23770804.031 8  23770805.559 9 124916418.058 8  94498463.502 9
E11  23683091.703 7  23683089.945 8 124455486.462 7  94149758.732 8
E12  25379391.109 7  25379391.395 8 133369599.566 7 100893235.062 8
E16  24124168.688 8  24124169.641 8 126773360.729 8  95903226.970 8
E24  25634605.539 7  25634608.023 8 134710759.183 7 101907823.167 8
E25  23664731.766 8  23664734.324 9 124359002.006 8  94076787.509 9
G10  24040789.266 7                  24040797.566 7 126335200.203 7                  98443071.321 7
G16  20689988.172 7  20689990.820 6                 108726622.410 7  84722054.001 6
G18  21020179.219 7                  21020183.227 8 110461782.476 7                  86074136.130 8
G23  21589915.234 8                  21589920.211 8 113455770.438 8                  88407135.417 8
G27  21867890.063 7                  21867897.488 7 114916536.622 7                  89545382.383 7
R07  22173363.383 7  22173371.426 7 118695753.604 7  92318943.063 7
R08  23254513.203 6  23254518.121 5 124526858.410 6  96854261.739 5
R13  21216630.633 6                 113295624.240 6
R14  20406888.094 8  20406893.418 8 108780194.078 8  84607009.963 8
R15  23608469.922 6  23608478.953 6 126156528.622 6  98121781.132 6
R22  22549188.195 6  22549192.785 6 120369117.410 6  93620427.462 6
R23  19790564.969 8                 105866175.462 8
R24  21034063.266 8  21034067.902 7 112478585.777 8  87483371.176 7
> 2025 06 15 07 34 40.0000000  0 24
C20  26323739.703 6 137074623.006 6
C26  24950423.195 6 129923401.722 6
C29  21726247.984 7 113134273.836 7
C30  22847586.898 7 118973374.510 7
E02  25917158.711 7  25917160.020 8 136195583.197 7 103031082.886 8
E10  23770086.195 8  23770087.699 9 124912645.443 8  94495609.547 9
E11  23680899.789 7  23680898.082 8 124443968.060 7  94141045.134 8
E12  25379772.000 7  25379772.211 8 133371600.426 7 100894748.683 8
E16  24124330.180 8  24124331.172 8 126774209.354 8  95903868.941 8
E24  25635743.023 8  25635745.383 8 134716735.725 8 101912344.359 8
E25  23663601.883 8  23663604.223 9 124353063.233 8  94072294.855 9
G10  24035934.758 7                  24035942.848 7 126309690.280 7                  98423193.466 7
G16  20688306.820 7  20688309.488 6                 108717786.893 7  84715169.173 6
G18  21020067.992 8                  21020072.090 8 110461198.167 8                  86073680.815 8
G23  21586569.844 8                  21586575.504 8 113438192.595 8                  88393438.404 8
G27  21863876.930 7                  21863883.125 7 114895441.218 7                  89528944.408 7
R07  22170912.023 6  22170920.637 7 118682634.303 6  92308739.199 7
R08  23249541.273 6  23249548.539 5 124500242.942 6  96833560.885 5
R13  21218555.094 6                 113305902.223 6
R14  20404610.328 8  20404615.094 8 108768050.880 8  84597565.253 8
R15  23603333.031 5  23603341.168 6 126129072.813 5  98100426.610 6
R22  22550943.555 6  22550947.738 5 120378484.546 6  93627713.034 5
R23  19790433.844 8                 105865477.826 8
R24  21030228.844 8  21030233.762 7 112458082.918 8  87467424.532 7
> 2025 06 15 07 34 45.0000000  0 24
C20  26319109.406 6 137050509.967 6
C26  24947536.125 6 129908364.652 6
C29  21723997.688 7 113122557.149 7
C30  22847998.430 7 118975519.376 7
E02  25913513.914 7  25913515.109 8 136176428.937 7 103016592.806 8
E10  23769370.289 8  23769371.371 9 124908881.190 8  94492761.917 9
E11  23678709.844 7  23678707.934 8 124432458.725 7  94132338.402 8
E12  25380154.000 7  25380154.078 8 133373606.962 7 100896266.602 8
E16  24124493.406 8  24124494.461 9 126775067.544 8  95904518.155 9
E24  25636881.695 7  25636883.832 8 134722718.092 7 101916869.971 8
E25  23662474.008 8  23662476.195 9 124347135.595 8  94067810.635 9
G10  24031080.609 7                  24031089.297 7 126284184.236 7                  98403318.646 7
G16  20686629.008 7  20686631.320 6                 108708968.488 7  84708297.688 6
G18  21019958.875 8                  21019962.793 8 110460624.982 8                  86073234.174 8
G23  21583227.648 7                  21583233.270 8 113420628.922 7                  88379752.434 8
G27  21859863.773 7                  21859869.941 7 114874353.104 7                  89512512.120 7
R07  22168466.070 6  22168474.230 7 118669536.456 6  92298551.967 7
R08  23244573.445 6  23244578.715 5 124473635.547 6  96812866.291 5
R13  21220482.945 6                 113316193.668 6
R14  20402336.117 8  20402341.527 7 108755930.361 8  84588138.170 7
R15  23598194.234 5  23598204.609 6 126101626.010 5  98079079.099 6
R22  22552698.445 6  22552702.406 5 120387854.225 6  93635000.529 5
R23  19790305.586 8                 105864791.448 8
R24  21026396.109 8  21026401.328 7 112437589.110 8  87451484.908 7
> 2025 06 15 07 34 50.0000000  0 24
C20  26314479.117 6 137026398.220 6
C26  24944649.922 6 129893340.359 6
C29  21721749.281 7 113110848.578 7
C30  22848411.727 7 118977669.983 7
E02  25909870.109 7  25909871.496 8 136157281.141 7 103002107.627 8
E10  23768655.695 8  23768656.680 9 124905125.440 8  94489920.714 9
E11  23676521.359 7  23676519.527 8 124420958.610 7  94123638.639 8
E12  25380536.703 7  25380537.020 8 133375619.315 7 100897788.920 8
E16  24124658.859 8  24124659.641 9 126775935.443 8  95905174.715 9
E24  25638020.992 7  25638023.371 8 134728706.339 7 101921400.023 8
E25  23661348.320 8  23661350.363 9 124341219.199 8  94063334.924 9
G10  24026227.414 7                  24026236.449 7 126258682.297 7                  98383447.009 7
G16  20684954.195 7  20684956.527 6                 108700167.339 7  84701439.652 6
G18  21019851.602 7                  21019855.914 8 110460063.086 7                  86072796.338 8
G23  21579888.211 8                  21579893.918 8 113403079.553 8                  88366077.609 8
G27  21855851.445 7                  21855858.543 7 114853272.504 7                  89496085.677 7
R07  22166022.914 7  22166031.012 7 118656460.140 7  92288381.508 7
R08  23239606.445 6  23239613.344 5 124447036.271 6  96792178.023 5
R13  21222413.813 7                 113326498.845 7
R14  20400067.195 8  20400072.160 8 108743832.508 8  84578728.716 8
R15  23593059.859 5  23593070.066 6 126074188.565 5  98057738.837 6
R22  22554452.578 6  22554458.516 5 120397226.594 6  93642290.126 5
R23  19790179.742 8                 105864116.305 8
R24  21022565.891 8  21022570.914 7 112417104.706 8  87435552.592 7
> 2025 06 15 07 34 55.0000000  0 24
C20  26309849.359 6 137002287.482 6
C26  24941767.164 6 129878328.402 6
C29  21719502.555 7 113099147.781 7
C30  22848825.750 7 118979825.963 7
E02  25906227.789 7  25906228.977 8 136138139.449 7 102987627.064 8
E10  23767942.531 8  23767943.574 9 124901377.826 8  94487085.665 9
E11  23674334.422 7  23674332.852 8 124409467.308 7  94114945.539 8
E12  25380921.070 7  25380920.945 8 133377637.131 7 100899315.375 8
E16  24124825.703 8  24124826.594 8 126776812.700 8  95905838.346 8
E24  25639161.672 7  25639163.953 8 134734700.124 7 101925934.273 8
E25  23660224.367 8  23660226.641 9 124335313.717 8  94058867.462 9
G10  24021375.727 7                  24021384.441 7 126233184.105 7                  98363578.306 7
G16  20683282.625 7  20683285.215 6                 108691383.110 7  84694594.812 6
G18  21019746.977 8                  21019751.035 8 110459512.111 8                  86072366.996 8
G23  21576551.016 8                  21576556.840 8 113385544.161 8                  88352413.670 8
G27  21851841.555 7                  21851848.492 7 114832198.993 7                  89479664.765 7
R07  22163584.047 7  22163592.324 7 118643405.052 7  92278227.530 7
R08  23234641.250 6  23234647.621 5 124420444.926 6  96771495.852 5
R13  21224345.078 7                 113336817.141 7
R14  20397801.102 8  20397807.078 7 108731756.888 8  84569336.563 7
R15  23587926.922 5  23587937.695 6 126046759.778 5  98036405.359 6
R22  22556209.477 6  22556214.359 6 120406601.284 6  93649581.537 6
R23  19790055.102 8                 105863452.056 8
R24  21018736.398 8  21018741.090 7 112396629.219 8  87419627.213 7
> 2025 06 15 07 35  0.0000000  0 24
C20  26305218.820 6 136978177.625 6
C26  24938887.047 6 129863328.828 6
C29  21717256.813 7 113087454.642 7
C30  22849240.344 7 118981987.227 7
E02  25902585.797 7  25902587.520 8 136119003.795 7 102973151.075 8
E10  23767230.750 8  23767231.969 9 124897638.262 8  94484256.702 9
E11  23672149.422 7  23672147.797 8 124397984.794 7  94106259.090 8
E12  25381306.203 7  25381305.949 8 133379660.293 7 100900845.872 8
E16  24124994.305 8  24124995.266 9 126777699.233 8  95906508.998 9
E24  25640303.328 7  25640305.602 8 134740699.377 7 101930472.651 8
E25  23659102.578 8  23659104.887 9 124329419.051 8  94054408.183 9
G10  24016523.813 7                  24016532.742 7 126207689.528 7                  98343712.428 7
G16  20681614.406 7  20681616.953 6                 108682615.705 7  84687763.054 6
G18  21019644.070 8                  21019648.332 8 110458971.963 8                  86071946.111 8
G23  21573217.227 8                  21573222.926 8 113368022.644 8                  88338760.533 8
G27  21847833.359 7                  21847839.855 7 114811132.508 7                  89463249.336 7
R07  22161149.414 7  22161157.188 6 118630371.191 7  92268090.079 6
R08  23229676.641 6  23229682.684 5 124393861.384 6  96750819.776 5
R13  21226280.648 7                 113347148.558 7
R14  20395540.109 8  20395545.234 7 108719703.550 8  84559961.746 7
R15  23582796.500 5  23582806.195 6 126019339.795 5  98015078.755 6
R22  22557966.164 6  22557971.113 5 120415978.166 6  93656874.647 5
R23  19789933.594 8                 105862798.772 8
R24  21014909.992 8  21014913.887 7 112376162.763 8  87403708.837 7
> 2025 06 15 07 35  5.0000000  0 24
C20  26300589.078 6 136954068.879 6
C26  24936008.125 6 129848341.686 6
C29  21715012.719 7 113075769.352 7
C30  22849656.836 7 118984153.957 7
E02  25898945.898 7  25898947.270 8 136099874.401 7 102958679.822 8
E10  23766520.852 8  23766521.922 9 124893906.894 8  94481433.954 9
E11  23669966.188 7  23669964.430 8 124386511.189 7  94097579.381 8
E12  25381691.977 7  25381692.012 8 133381688.930 7 100902380.511 8
E16  24125164.781 8  24125165.770 9 126778595.202 8  95907186.785 9
E24  25641446.000 7  25641448.289 8 134746704.244 7 101935015.282 8
E25  23657983.250 8  23657985.289 9 124323535.387 8  94049957.230 9
G10  24011672.266 6                  24011682.309 7 126182198.843 6                  98323849.566 7
G16  20679948.891 7  20679951.648 6                 108673865.295 7  84680944.551 6
G18  21019542.883 7                  21019547.773 8 110458442.818 7                  86071533.779 8
G23  21569885.469 8                  21569891.066 8 113350515.200 8                  88325118.372 8
G27  21843824.828 7                  21843832.445 7 114790073.254 7                  89446839.532 7
R07  22158719.531 7  22158726.648 7 118617358.745 7  92257969.269 7
R08  23224716.484 6  23224719.582 5 124367285.916 6  96730149.986 5
R13  21228217.273 7                 113357493.363 7
R14  20393283.375 8  20393288.305 7 108707672.708 8  84550604.416 7
R15  23577666.406 5  23577675.824 6 125991928.737 5  97993759.067 6
R22  22559723.000 6  22559728.102 5 120425357.421 6  93664169.591 5
R23  19789812.961 8                 105862156.539 8
R24  21011083.242 8  21011088.445 7 112355705.262 8  87387797.480 7
> 2025 06 15 07 35 10.0000000  0 24
C20  26295959.258 6 136929962.703 6
C26  24933134.016 6 129833368.551 6
C29  21712770.297 7 113064093.372 7
C30  22850074.414 7 118986327.579 7
E02  25895307.211 7  25895308.570 8 136080752.659 7 102944214.336 8
E10  23765812.391 8  23765813.734 9 124890185.217 8  94478618.526 9
E11  23667784.883 7  23667783.035 8 124375047.979 7  94088907.545 8
E12  25382079.555 7  25382079.488 8 133383724.546 7 100903920.437 8
E16  24125337.508 8  24125338.270 8 126779502.046 8  95907872.805 8
E24  25642590.242 8  25642592.391 8 134752716.163 8 101939563.240 8
E25  23656865.758 8  23656868.004 8 124317664.172 8  94045515.690 8
G10  24006824.422 7                  24006832.625 6 126156713.425 7                  98303990.811 6
G16  20678287.500 7  20678290.172 6                 108665133.474 7  84674140.531 6
G18  21019445.078 7                  21019449.480 7 110457926.080 7                  86071131.118 7
G23  21566556.930 7                  21566562.637 8 113333023.275 7                  88311488.311 8
G27  21839819.781 7                  21839826.422 7 114769022.668 7                  89430436.479 7
R07  22156294.102 7  22156300.078 7 118604369.159 7  92247866.250 7
R08  23219754.188 5  23219760.008 5 124340719.802 5  96709487.509 5
R13  21230158.055 7                 113367852.870 7
R14  20391030.648 8  20391036.438 7 108695665.677 8  84541265.608 7
R15  23572540.211 5  23572548.988 6 125964528.084 5  97972447.446 6
R22  22561481.828 6  22561485.797 5 120434740.435 6  93671467.462 5
R23  19789695.109 7                 105861526.733 7
R24  21007259.492 8  21007264.762 7 112335258.400 8  87371894.363 7
> 2025 06 15 07 35 15.0000000  0 24
C20  26291329.922 6 136905857.479 6
C26  24930260.961 6 129818407.765 6
C29  21710529.586 7 113052425.087 7
C30  22850493.000 7 118988506.496 7
E02  25891669.445 7  25891671.023 8 136061637.032 7 102929753.493 8
E10  23765105.680 8  23765107.090 9 124886471.582 8  94475809.175 9
E11  23665605.234 7  23665603.371 8 124363593.521 7  94080242.318 8
E12  25382467.969 7  25382467.871 8 133385765.544 7 100905464.423 8
E16  24125511.945 8  24125512.633 8 126780418.180 8  95908565.847 8
E24  25643735.258 8  25643737.406 8 134758733.592 8 101944115.377 8
E25  23655750.492 8  23655752.777 9 124311803.791 8  94041082.353 9
G10  24001974.320 7                  24001983.352 6 126131231.748 7                  98284134.994 6
G16  20676629.383 7  20676631.656 6                 108656418.432 7  84667349.596 6
