     3.04           OBSERVATION DATA    Mixed(MIXED)        RINEX VERSION / TYPE
cnvtToRINEX 3.14.0  convertToRINEX OPR  20250615 162940 UTC PGM / RUN BY / DATE 
----------------------------------------------------------- COMMENT             
139.1                                                       MARKER NAME         
139.1                                                       MARKER NUMBER       
GEODETIC                                                    MARKER TYPE         
GNSS Observer       Trimble                                 OBSERVER / AGENCY   
5849S10870          Geo Explorer 3      5.51                REC # / TYPE / VERS 
49S10870            UNKNOWN EXT     NONE                    ANT # / TYPE        
  3912583.5309  1190649.9489  4878946.9618                  APPROX POSITION XYZ 
        1.2640        0.0000        0.0000                  ANTENNA: DELTA H/E/N
G    6 C1C C2W C2X L1C L2W L2X                              SYS / # / OBS TYPES 
R    4 C1C C2C L1C L2C                                      SYS / # / OBS TYPES 
E    4 C1X C8X L1X L8X                                      SYS / # / OBS TYPES 
C    2 C2I L2I                                              SYS / # / OBS TYPES 
     5.000                                                  INTERVAL            
  2025     6    15     9    43    5.0000000     GPS         TIME OF FIRST OBS   
  2025     6    15    10    24   10.0000000     GPS         TIME OF LAST OBS    
     0                                                      RCV CLOCK OFFS APPL 
  9 R01  1 R02 -4 R08  6 R14 -7 R15  0 R16 -1 R17  4 R23  3 GLONASS SLOT / FRQ #
    R24  2                                                  GLONASS SLOT / FRQ #
G L2X -0.25000                                              SYS / PHASE SHIFT   
R L2C -0.25000                                              SYS / PHASE SHIFT   
    18                                                      LEAP SECONDS        
    29                                                      # OF SATELLITES     
   C19   469   469                                          PRN / # OF OBS      
   C20   494   494                                          PRN / # OF OBS      
   C24     1     1                                          PRN / # OF OBS      
   C26    36    35                                          PRN / # OF OBS      
   C29   494   494                                          PRN / # OF OBS      
   E02   494   494   494   494                              PRN / # OF OBS      
   E04   487   487   487   487                              PRN / # OF OBS      
   E06    39    37    39    37                              PRN / # OF OBS      
   E10   478   476   478   476                              PRN / # OF OBS      
   E11   494   494   494   494                              PRN / # OF OBS      
   E25   121   118   119   118                              PRN / # OF OBS      
   E30   175   175   175   175                              PRN / # OF OBS      
   E34   295   295   295   295                              PRN / # OF OBS      
   E36   494   494   494   494                              PRN / # OF OBS      
   G01   124     0   112   120     0   112                  PRN / # OF OBS      
   G02   494   494     0   494   494     0                  PRN / # OF OBS      
   G08   494     0   494   494     0   494                  PRN / # OF OBS      
   G10   494     0   494   494     0   494                  PRN / # OF OBS      
   G23   494     0   493   493     0   493                  PRN / # OF OBS      
   G27   494     0   494   494     0   494                  PRN / # OF OBS      
   G32   144     0   136   138     0   136                  PRN / # OF OBS      
   R01   494     0   494     0                              PRN / # OF OBS      
   R02   107    96   103    92                              PRN / # OF OBS      
   R08   359   334   354   334                              PRN / # OF OBS      
   R14     5     4     5     4                              PRN / # OF OBS      
   R15   471   461   468   459                              PRN / # OF OBS      
   R16   114    79   109    72                              PRN / # OF OBS      
   R17   494   494   494   494                              PRN / # OF OBS      
   R24   494   494   494   494                              PRN / # OF OBS      
DBHZ                                                        SIGNAL STRENGTH UNIT
                                                            END OF HEADER       
>                              2  1
              *** Start of Kinematic Data ***               COMMENT             
> 2025 06 15 09 43  5.0000000  0 17
C20  23029555.602 7 119920941.41917
C29  22357449.477 7 116421105.70717
E02  24684925.352 8  24684926.629 8 129720155.42018  98132462.12718
E10  26258467.969 7  26258470.984 8 137989180.42217 104387928.20118
E11  24328028.680 7  24328026.535 8 127844648.91617  96713641.44618
E25  26431573.094 6  26431578.980 7 138898867.62316 105076084.07217
E36  23892122.781 8  23892125.547 8 125553953.74418  94980759.21318
G02  22793394.734 7  22793395.934 5                 119780090.21417  93335150.99815
G08  20824828.008 8                  20824835.281 8 109435206.86718                  85274428.11018
G10  20924559.711 8                  20924565.473 7 109959297.03118                  85682707.66317
G23  22222166.391 7                  22222172.750 7 116778276.72517                  90996006.02817
G27  20364428.906 8                  20364434.707 7 107015792.35118                  83388986.88317
R01  20465956.328 7                 109402258.55817
R08  21551618.789 7  21551622.168 7 115407943.71917  89761689.39017
R15  21690307.641 7  21690312.191 7 115906423.46317  90149415.88717
R17  20886272.648 8  20886276.699 7 111766649.78218  86929914.60017
R24  19672298.719 8  19672304.027 7 105196630.27818  81819661.76917
> 2025 06 15 09 43 10.0000000  0 17
C20  23027720.617 7 119911385.141 7
C29  22357596.703 7 116421871.288 7
E02  24684352.734 8  24684354.391 8 129717148.376 8  98130187.313 8
E10  26259183.875 7  26259187.195 8 137992943.599 7 104390775.009 8
E11  24327919.594 7  24327917.445 8 127844075.745 7  96713207.836 8
E25  26433009.102 6  26433015.242 7 138906415.148 6 105081793.701 7
E36  23889752.016 8  23889754.875 8 125541495.807 8  94971334.864 8
G02  22789634.859 7  22789636.242 5                 119760333.174 7  93319755.906 5
G08  20821929.891 8                  20821936.879 8 109419976.254 8                  85262560.094 8
G10  20923028.930 8                  20923034.703 7 109951254.595 8                  85676440.821 7
G23  22223178.773 7                  22223184.293 7 116783592.517 7                  91000148.179 7
G27  20363970.531 8                  20363976.328 8 107013383.512 8                  83387109.847 8
R01  20462413.313 7                 109383322.635 7
R08  21552108.234 7  21552110.965 7 115410565.136 7  89763728.292 7
R15  21690636.453 7  21690641.395 7 115908179.589 7  90150781.748 7
R17  20882407.680 8  20882412.344 7 111745971.328 8  86913831.381 7
R24  19671568.516 8  19671573.590 7 105192725.847 8  81816624.985 7
>                              3  5
              *** Start of Occupation ***                   COMMENT             
139.1                                                       MARKER NAME         
139.1                                                       MARKER NUMBER       
  3912583.5309  1190649.9489  4878946.9618                  APPROX POSITION XYZ 
        1.2640        0.0000        0.0000                  ANTENNA: DELTA H/E/N
> 2025 06 15 09 43 15.0000000  0 17
C20  23025888.289 7 119901844.246 7
C29  22357745.172 7 116422644.969 7
E02  24683782.766 8  24683784.555 9 129714153.606 8  98127921.792 9
E10  26259900.844 7  26259903.832 8 137996709.302 7 104393623.730 8
E11  24327811.688 7  24327809.375 8 127843507.718 7  96712778.122 8
E25  26434446.000 6  26434452.270 7 138913966.867 6 105087506.512 7
E36  23887382.719 8  23887385.434 9 125529044.236 8  94961915.326 9
G02  22785875.875 7  22785877.910 5                 119740581.877 7  93304365.293 5
G08  20819034.039 8                  20819040.797 8 109404758.798 8                  85250702.330 8
G10  20921502.086 8                  20921507.430 7 109943227.365 8                  85670185.841 7
G23  22224192.203 7                  22224197.715 7 116788918.574 7                  91004298.354 7
G27  20363514.820 8                  20363520.539 7 107010989.612 8                  83385244.462 7
R01  20458876.039 7                 109364407.484 7
R08  21552600.453 7  21552604.520 6 115413206.832 7  89765782.952 6
R15  21690968.734 8  21690973.117 7 115909955.764 8  90152163.202 7
R17  20878544.461 8  20878549.813 7 111725300.004 8  86897753.705 7
R24  19670841.945 8  19670845.348 7 105188833.688 8  81813597.754 7
> 2025 06 15 09 43 20.0000000  0 17
C20  23024058.742 7 119892319.504 7
C29  22357894.875 7 116423427.568 7
E02  24683215.555 8  24683217.156 8 129711171.893 8  98125666.147 8
E10  26260617.648 7  26260621.066 8 138000478.246 7 104396474.896 8
E11  24327704.781 7  24327702.410 8 127842945.652 7  96712352.920 8
E25  26435884.492 6  26435890.293 7 138921523.688 6 105093223.157 7
E36  23885014.781 8  23885017.320 9 125516599.797 8  94952501.189 9
G02  22782118.891 7  22782120.602 5                 119720837.139 7  93288979.784 5
G08  20816141.086 8                  20816147.992 8 109389555.304 8                  85238855.437 8
G10  20919977.234 8                  20919982.988 7 109935216.162 8                  85663943.348 7
G23  22225208.117 7                  22225213.426 7 116794255.634 7                  91008457.084 7
G27  20363061.961 8                  20363068.203 7 107008611.456 8                  83383391.349 7
R01  20455340.914 7                 109345513.739 7
R08  21553097.422 7  21553101.723 6 115415869.670 7  89767854.067 6
R15  21691304.289 8  21691309.824 7 115911752.702 8  90153560.814 7
R17  20874682.758 8  20874688.223 7 111704636.659 8  86881682.228 7
R24  19670115.789 8  19670120.488 7 105184954.224 8  81810580.373 7
> 2025 06 15 09 43 25.0000000  0 17
C20  23022232.563 7 119882811.401 7
C29  22358047.023 7 116424219.549 7
E02  24682650.734 8  24682652.348 8 129708203.761 8  98123420.771 8
E10  26261335.023 7  26261338.969 8 138004250.991 7 104399328.939 8
E11  24327598.445 7  24327596.668 8 127842389.979 7  96711932.557 8
E25  26437323.766 6  26437329.391 7 138929085.989 6 105098943.959 7
E36  23882648.250 8  23882650.684 8 125504162.998 8  94943092.823 8
G02  22778363.227 7  22778365.301 5                 119701099.406 7  93273599.754 5
G08  20813250.570 8                  20813257.406 7 109374366.265 8                  85227019.816 7
G10  20918456.047 8                  20918461.973 8 109927221.446 8                  85657713.699 8
G23  22226225.328 7                  22226230.633 7 116799604.155 7                  91012624.777 7
G27  20362612.719 8                  20362618.355 7 107006249.512 8                  83381550.871 7
R01  20451810.734 7                 109326641.987 7
R08  21553598.180 7  21553603.207 6 115418554.031 7  89769941.870 6
R15  21691645.438 8  21691649.699 7 115913570.855 8  90154974.916 7
R17  20870822.703 8  20870828.012 7 111683981.794 8  86865617.315 7
R24  19669392.875 8  19669397.367 7 105181087.977 8  81807573.294 7
> 2025 06 15 09 43 30.0000000  0 17
C20  23020410.016 7 119873319.264 7
C29  22358200.602 7 116425020.221 7
E02  24682088.508 8  24682090.000 8 129705248.490 8  98121185.120 8
E10  26262053.211 7  26262057.453 8 138008026.772 7 104402185.290 8
E11  24327493.891 7  24327492.035 8 127841840.072 7  96711516.556 8
E25  26438763.617 6  26438769.383 7 138936653.105 6 105104668.412 7
E36  23880282.844 8  23880285.379 9 125491733.139 8  94933689.709 9
G02  22774607.945 7  22774610.668 5                 119681368.057 7  93258224.684 5
G08  20810363.320 8                  20810369.863 8 109359190.986 8                  85215194.917 8
G10  20916937.781 8                  20916943.711 8 109919242.557 8                  85651496.374 8
G23  22227246.070 7                  22227250.141 7 116804963.474 7                  91016800.864 7
G27  20362166.414 8                  20362172.258 7 107003903.096 8                  83379722.487 7
R01  20448284.148 7                 109307791.612 7
R08  21554103.563 7  21554108.453 6 115421259.391 7  89772046.045 6
R15  21691989.211 8  21691993.945 7 115915409.646 8  90156405.084 7
R17  20866965.102 8  20866969.270 7 111663334.543 8  86849558.355 7
R24  19668671.961 8  19668676.535 7 105177234.499 8  81804576.134 7
> 2025 06 15 09 43 35.0000000  0 18
C19  24156659.758 5 125790059.75915
C20  23018589.859 7 119863842.445 7
C29  22358355.977 7 116425828.954 7
E02  24681529.016 8  24681529.965 8 129702305.436 8  98118958.716 8
E10  26262772.516 7  26262776.387 8 138011805.039 7 104405043.504 8
E11  24327390.398 7  24327388.336 8 127841295.254 7  96711104.406 8
E25  26440204.602 6  26440210.219 7 138944224.402 6 105110396.018 7
E36  23877919.289 8  23877921.250 8 125479309.579 8  94924291.372 8
G02  22770854.680 7  22770857.668 5                 119661642.374 7  93242854.041 5
G08  20807477.867 8                  20807484.492 8 109344028.837 8                  85203380.270 8
G10  20915422.063 8                  20915427.938 8 109911278.843 8                  85645290.881 8
G23  22228267.523 7                  22228272.008 7 116810332.960 7                  91020984.877 7
G27  20361722.250 7                  20361728.379 7 107001571.564 7                  83377905.718 7
R01  20444762.320 7                 109288961.986 7
R08  21554611.109 7  21554616.926 6 115423984.994 7  89774165.950 6
R15  21692335.891 7  21692341.664 7 115917268.290 7  90157850.701 7
R17  20863107.484 8  20863112.316 7 111642694.362 8  86833504.879 7
R24  19667953.453 8  19667957.766 7 105173392.849 8  81801588.182 7
> 2025 06 15 09 43 40.0000000  0 19
C19  24152342.469 5 125767586.094 5
C20  23016773.383 7 119854381.770 7
C29  22358512.789 7 116426646.593 7
E02  24680971.164 8  24680972.395 8 129699375.459 8  98116742.190 8
E04  26540139.516 6  26540142.699 6 139469380.15116 105507688.05616
E10  26263491.797 7  26263496.031 8 138015586.590 7 104407904.215 8
E11  24327287.477 7  24327285.770 8 127840756.378 7  96710696.747 8
E25  26441646.938 6  26441651.996 7 138951800.728 6 105116127.451 7
E36  23875556.094 8  23875558.488 8 125466893.157 8  94914898.428 8
G02  22767102.234 7  22767105.305 5                 119641923.288 7  93227488.532 5
G08  20804594.547 8                  20804601.773 8 109328880.687 8                  85191576.508 8
G10  20913909.875 8                  20913915.492 8 109903331.141 8                  85639097.859 8
G23  22229290.773 7                  22229296.195 7 116815713.369 7                  91025177.421 7
G27  20361281.219 7                  20361287.570 7 106999255.770 7                  83376101.204 7
R01  20441242.867 7                 109270153.871 7
R08  21555124.969 7  21555129.695 6 115426731.652 7  89776302.214 6
R15  21692688.047 7  21692693.055 7 115919147.655 7  90159312.420 7
R17  20859251.594 8  20859256.395 7 111622062.169 8  86817457.624 7
R24  19667237.344 8  19667241.910 7 105169564.047 8  81798610.221 7
> 2025 06 15 09 43 45.0000000  0 19
C19  24148029.008 5 125745120.881 5
C20  23014959.781 7 119844936.831 7
C29  22358671.336 7 116427472.648 7
E02  24680415.844 8  24680417.273 8 129696458.057 8  98114535.190 8
E04  26537027.289 6  26537029.961 6 139453022.852 6 105495313.87916
E10  26264211.977 7  26264216.125 8 138019370.918 7 104410767.018 8
E11  24327185.867 7  24327184.246 8 127840222.956 7  96710293.218 8
E25  26443089.406 6  26443094.605 7 138959381.553 6 105121862.274 7
E36  23873194.578 8  23873196.984 8 125454483.437 8  94905510.554 8
G02  22763350.891 7  22763354.059 5                 119622210.329 7  93212127.794 5
G08  20801714.430 7                  20801721.684 8 109313746.081 7                  85179783.311 8
G10  20912400.344 8                  20912406.191 8 109895398.973 8                  85632916.938 8
G23  22230316.430 7                  22230322.484 7 116821104.269 7                  91029378.133 7
G27  20360843.008 8                  20360850.082 7 106996955.226 8                  83374308.567 7
R01  20437728.789 7                 109251366.848 7
R08  21555642.180 7  21555646.223 6 115429498.831 7  89778454.438 6
R15  21693043.414 7  21693049.191 7 115921047.294 7  90160789.918 7
R17  20855396.875 8  20855402.176 7 111601437.382 8  86801416.121 7
R24  19666524.086 8  19666528.125 7 105165747.578 8  81795641.856 7
> 2025 06 15 09 43 50.0000000  0 19
C19  24143717.570 5 125722665.349 5
C20  23013149.469 7 119835508.791 7
C29  22358831.891 7 116428308.341 7
E02  24679863.023 8  24679864.719 8 129693554.456 8  98112338.622 8
E04  26533916.320 6  26533919.422 6 139436677.055 6 105482948.41616
E10  26264933.250 7  26264937.035 8 138023159.267 7 104413632.886 8
E11  24327085.523 7  24327083.992 8 127839696.187 7  96709894.722 8
E25  26444532.797 6  26444538.352 7 138966968.108 6 105127601.424 7
E36  23870834.492 8  23870837.008 8 125442081.560 8  94896128.616 8
G02  22759600.680 7  22759604.168 5                 119602504.632 7  93196772.706 5
G08  20798837.305 7                  20798844.746 8 109298626.205 7                  85168001.587 8
G10  20910894.398 8                  20910899.949 8 109887483.538 8                  85626749.054 8
G23  22231344.625 7                  22231350.824 7 116826506.869 7                  91033587.943 7
G27  20360408.586 8                  20360415.320 7 106994671.127 8                  83372528.769 7
R01  20434218.922 7                 109232602.104 7
R08  21556162.148 7  21556167.145 7 115432287.785 7  89780623.642 7
R15  21693403.719 7  21693407.977 7 115922968.410 7  90162284.111 7
R17  20851544.242 8  20851548.855 7 111580821.273 8  86785381.376 7
R24  19665812.773 8  19665816.898 7 105161944.672 8  81792684.037 7
> 2025 06 15 09 43 55.0000000  0 19
C19  24139407.367 5 125700219.898 5
C20  23011341.789 7 119826097.981 7
C29  22358994.031 7 116429153.977 7
E02  24679313.492 8  24679314.910 8 129690664.963 8  98110152.729 8
E04  26530807.258 6  26530811.117 6 139420343.041 6 105470591.873 6
E10  26265654.906 7  26265658.785 8 138026951.940 7 104416502.000 8
E11  24326986.578 7  24326985.070 8 127839176.437 7  96709501.535 8
E25  26445977.641 6  26445983.242 7 138974560.721 6 105133345.179 7
E36  23868475.820 8  23868478.566 8 125429687.921 8  94886752.901 8
G02  22755852.094 7  22755855.594 5                 119582806.602 7  93181423.583 5
G08  20795963.172 8                  20795970.188 8 109283521.409 8                  85156231.628 8
G10  20909391.680 8                  20909397.023 8 109879585.167 8                  85620594.471 8
G23  22232375.367 7                  22232381.121 7 116831921.470 7                  91037807.097 7
G27  20359977.227 8                  20359983.629 7 106992403.842 8                  83370762.037 7
R01  20430712.641 7                 109213860.090 7
R08  21556686.914 7  21556692.789 7 115435098.952 7  89782810.118 7
R15  21693766.742 7  21693771.766 7 115924911.390 7  90163795.317 7
R17  20847693.078 8  20847697.828 7 111560214.322 8  86769353.753 7
R24  19665104.141 8  19665108.395 7 105158155.656 8  81789737.013 7
> 2025 06 15 09 44  0.0000000  0 19
C19  24135098.773 5 125677783.780 5
C20  23009537.367 7 119816703.613 7
C29  22359158.195 7 116430008.781 7
E02  24678766.055 8  24678767.668 8 129687788.792 8  98107976.922 8
E04  26527701.469 6  26527705.035 6 139404020.088 6 105458243.677 6
E10  26266377.516 7  26266381.184 8 138030748.204 7 104419373.841 8
E11  24326889.219 7  24326887.344 8 127838662.870 7  96709113.022 8
E25  26447423.484 6  26447429.152 7 138982158.608 6 105139092.900 7
E36  23866118.539 8  23866121.566 8 125417301.707 8  94877382.809 8
G02  22752105.500 7  22752108.086 5                 119563115.415 7  93166079.800 5
G08  20793091.367 8                  20793098.484 8 109268430.911 8                  85144472.809 8
G10  20907891.719 8                  20907896.754 8 109871703.060 8                  85614452.575 8
G23  22233408.008 7                  22233413.738 7 116837347.253 7                  91042034.972 7
G27  20359549.336 8                  20359555.270 8 106990152.532 8                  83369007.778 8
R01  20427210.602 7                 109195139.913 7
R08  21557217.031 7  21557222.348 7 115437931.384 7  89785013.098 7
R15  21694135.164 7  21694139.434 7 115926875.331 7  90165322.810 7
R17  20843844.102 8  20843848.301 6 111539615.553 8  86753332.493 6
R24  19664398.531 8  19664402.391 7 105154379.727 8  81786800.178 7
> 2025 06 15 09 44  5.0000000  0 20
C19  24130792.633 5 125655355.688 5
C20  23007736.398 7 119807324.484 7
C29  22359324.727 7 116430871.533 7
E02  24678221.273 8  24678222.715 8 129684924.739 8  98105810.275 8
E04  26524597.219 6  26524600.766 6 139387706.987 6 105445902.94216
E10  26267100.320 7  26267103.973 8 138034546.793 7 104422247.430 8
E11  24326792.117 7  24326790.551 8 127838154.311 7  96708728.300 8
E25  26448870.180 6  26448875.758 7 138989760.481 6 105144843.646 7
E36  23863762.648 8  23863765.688 8 125404921.696 8  94868017.413 8
G02  22748359.523 7  22748361.598 5                 119543429.862 7  93150740.418 5
G08  20790222.461 8                  20790229.723 7 109253353.504 8                  85132724.181 7
G10  20906394.203 8                  20906399.617 8 109863836.011 8                  85608322.422 8
G23  22234441.938 7                  22234448.355 7 116842783.042 7                  91046270.632 7
G27  20359124.039 8                  20359129.754 7 106987916.018 8                  83367265.037 7
R01  20423712.133 7                 109176440.427 7
R08  21557750.336 7  21557755.137 7 115440783.768 7  89787231.618 7
R14  23634830.523 5                 125987052.92415
R15  21694505.352 7  21694511.070 7 115928858.910 7  90166865.600 7
R17  20839996.164 8  20840000.203 6 111519023.801 8  86737316.694 6
R24  19663694.797 8  19663698.598 7 105150615.691 8  81783872.590 7
> 2025 06 15 09 44 10.0000000  0 20
C19  24126485.664 5 125632936.557 5
C20  23005938.148 7 119797961.509 7
C29  22359492.328 7 116431743.193 7
E02  24677678.344 8  24677680.207 8 129682073.736 8  98103653.507 8
E04  26521494.859 6  26521498.488 6 139371404.667 6 105433570.364 6
E10  26267824.594 7  26267827.492 8 138038348.662 7 104425123.505 8
E11  24326696.430 7  24326694.926 8 127837651.655 7  96708348.039 8
E25  26450317.938 6  26450323.324 7 138997367.369 6 105150598.179 7
E36  23861408.570 8  23861411.215 8 125392548.859 8  94858657.438 8
G02  22744614.859 7  22744616.426 5                 119523750.855 7  93135406.132 5
G08  20787355.711 8                  20787362.977 8 109238290.172 8                  85120986.521 8
G10  20904900.320 8                  20904905.809 8 109855984.979 8                  85602204.727 8
G23  22235478.563 7                  22235484.410 7 116848229.758 7                  91050514.813 7
G27  20358701.125 8                  20358707.141 7 106985695.232 8                  83365534.546 7
R01  20420218.102 7                 109157762.623 7
R08  21558287.516 7  21558291.586 7 115443657.229 7  89789466.521 7
R14  23637319.688 5  23637328.883 5 126000328.152 5  98000211.19615
R15  21694880.898 7  21694886.273 7 115930863.252 7  90168424.525 7
R17  20836149.617 8  20836153.414 7 111498440.036 8  86721307.110 7
R24  19662994.289 8  19662997.285 7 105146864.440 8  81780954.942 7
> 2025 06 15 09 44 15.0000000  0 20
C19  24122181.695 5 125610526.971 5
C20  23004144.117 7 119788615.130 7
C29  22359661.922 7 116432624.093 7
E02  24677138.438 8  24677140.230 8 129679236.177 8  98101506.898 8
E04  26518394.984 6  26518398.348 6 139355113.536 6 105421246.235 6
E10  26268548.594 7  26268551.641 8 138042154.164 7 104428002.327 8
E11  24326601.906 7  24326600.469 8 127837155.288 7  96707972.536 8
E25  26451766.516 6  26451771.910 7 139004979.562 6 105156356.725 7
E36  23859055.359 8  23859058.133 8 125380183.516 8  94849303.138 8
G02  22740871.578 7  22740872.965 5                 119504078.803 7  93120077.263 5
G08  20784492.117 8                  20784499.395 8 109223241.255 8                  85109260.104 8
G10  20903409.266 8                  20903415.117 8 109848150.317 8                  85596099.793 8
G23  22236517.156 7                  22236523.441 7 116853687.716 7                  91054767.762 7
G27  20358281.859 8                  20358287.434 7 106983490.519 8                  83363816.586 7
R01  20416728.703 7                 109139106.723 7
R08  21558828.375 7  21558832.188 7 115446552.063 7  89791718.039 7
R14  23639808.828 4  23639823.063 5 126013607.762 4  98010539.728 5
R15  21695259.961 7  21695265.672 7 115932888.565 7  90169999.791 7
R17  20832304.016 8  20832309.090 7 111477864.617 8  86705304.029 7
R24  19662295.195 8  19662298.004 7 105143126.395 8  81778047.568 7
> 2025 06 15 09 44 20.0000000  0 20
C19  24117881.266 5 125588125.381 5
C20  23002352.148 7 119779283.979 7
C29  22359832.516 7 116433512.975 7
E02  24676600.750 7  24676602.578 8 129676410.715 7  98099369.449 8
E04  26515297.820 6  26515300.156 6 139338832.247 6 105408929.549 6
E10  26269273.203 7  26269276.262 8 138045961.985 7 104430882.908 8
E11  24326508.242 7  24326506.934 8 127836663.929 7  96707600.825 8
E25  26453216.047 6  26453221.270 7 139012595.748 6 105162118.306 7
E36  23856703.508 8  23856706.223 8 125367824.415 8  94839953.560 8
G02  22737128.930 7  22737130.719 5                 119484412.357 7  93104752.797 5
G08  20781631.094 8                  20781638.215 8 109208205.452 8                  85097543.894 8
G10  20901921.422 8                  20901927.023 8 109840330.721 8                  85590006.603 8
G23  22237557.227 7                  22237563.539 7 116859155.648 7                  91059028.473 7
G27  20357865.273 8                  20357870.371 7 106981300.623 8                  83362110.175 7
R01  20413243.234 7                 109120471.647 7
R08  21559372.695 7  21559376.367 7 115449466.943 7  89793985.154 7
R14  23642305.227 4  23642318.824 5 126026890.493 4  98020870.740 5
R15  21695642.242 7  21695648.422 7 115934933.655 7  90171590.419 7
R17  20828461.570 8  20828465.355 7 111457296.261 8  86689306.426 7
R24  19661598.297 8  19661601.430 7 105139400.152 8  81775149.396 7
> 2025 06 15 09 44 25.0000000  0 20
C19  24113580.297 5 125565732.881 5
C20  23000563.633 7 119769968.975 7
C29  22360004.820 7 116434410.722 7
E02  24676065.469 7  24676067.430 8 129673598.250 7  98097241.837 8
E04  26512202.086 6  26512204.031 6 139322561.771 6 105396621.022 6
E10  26269998.633 7  26270001.496 8 138049773.063 7 104433765.962 8
E11  24326415.594 7  24326414.594 8 127836178.450 7  96707233.558 8
E25  26454666.586 6  26454671.594 7 139020216.882 6 105167883.610 7
E36  23854353.000 8  23854355.715 8 125355472.411 8  94830609.351 8
G02  22733387.711 7  22733389.695 5                 119464752.504 7  93089433.446 5
G08  20778772.352 8                  20778779.477 8 109193183.716 8                  85085838.643 8
G10  20900436.305 8                  20900442.145 8 109832527.113 8                  85583925.868 8
G23  22238600.430 7                  22238605.789 7 116864634.397 7                  91063297.619 7
G27  20357451.102 8                  20357456.770 7 106979126.390 8                  83360415.961 7
R01  20409760.750 7                 109101858.261 7
R08  21559919.102 7  21559924.773 7 115452402.705 7  89796268.522 7
R14  23644804.328 4  23644814.160 4 126040177.34114  98031204.91614
R15  21696029.047 7  21696035.141 7 115936999.239 7  90173196.969 7
R17  20824619.453 8  20824623.555 7 111436735.854 8  86673315.013 7
R24  19660903.242 8  19660906.715 7 105135686.754 8  81772261.208 7
> 2025 06 15 09 44 30.0000000  0 19
C19  24109282.148 5 125543349.662 5
C20  22998777.789 7 119760670.427 7
C29  22360178.875 7 116435317.614 7
E02  24675533.008 7  24675534.742 8 129670799.085 7  98095124.281 8
E04  26509107.805 6  26509110.016 6 139306302.358 6 105384320.892 6
E10  26270724.313 7  26270727.414 8 138053587.677 7 104436651.675 8
E11  24326324.453 7  24326323.414 8 127835699.161 7  96706870.974 8
E25  26456118.320 6  26456122.895 7 139027843.199 6 105173652.841 7
E36  23852004.063 8  23852006.590 8 125343127.835 8  94821270.767 8
G02  22729647.609 7  22729649.844 5                 119445099.485 7  93074119.434 5
G08  20775916.289 8                  20775923.695 8 109178176.300 8                  85074144.554 8
G10  20898954.375 8                  20898960.371 8 109824739.740 8                  85577857.779 8
G23  22239645.156 7                  22239650.711 7 116870124.304 7                  91067575.454 7
G27  20357040.320 8                  20357046.207 7 106976968.151 8                  83358734.210 7
R01  20406282.867 7                 109083266.660 7
R08  21560469.844 6  21560476.699 7 115455359.653 6  89798568.368 7
R15  21696419.703 7  21696425.488 7 115939085.815 7  90174819.830 7
R17  20820778.664 8  20820783.047 7 111416183.746 8  86657330.061 7
R24  19660211.281 8  19660215.324 7 105131986.370 8  81769383.130 7
> 2025 06 15 09 44 35.0000000  0 19
C19  24104985.414 5 125520975.970 5
C20  22996995.305 7 119751388.455 7
C29  22360354.703 7 116436233.827 7
E02  24675003.188 7  24675004.652 8 129668013.382 7  98093016.907 8
E04  26506015.344 6  26506018.113 7 139290054.189 6 105372029.257 7
E10  26271450.680 7  26271454.109 8 138057405.947 7 104439540.163 8
E11  24326234.563 7  24326233.453 8 127835226.188 7  96706513.166 8
E25  26457570.609 6  26457575.215 7 139035474.873 6 105179426.123 7
E36  23849656.539 8  23849658.875 8 125330790.818 8  94811937.900 8
G02  22725909.195 7  22725911.051 5                 119425453.470 7  93058810.864 5
G08  20773063.578 8                  20773070.461 7 109163183.382 8                  85062461.760 7
G10  20897475.453 8                  20897481.941 8 109816968.773 8                  85571802.488 8
G23  22240692.219 7                  22240697.648 7 116875625.482 7                  91071862.067 7
G27  20356632.898 8                  20356638.543 7 106974826.037 8                  83357065.008 7
R01  20402808.359 7                 109064697.403 7
R08  21561025.484 6  21561032.594 7 115458338.021 6  89800884.861 7
R15  21696814.523 7  21696819.879 7 115941193.381 7  90176459.021 7
R17  20816939.938 8  20816944.574 7 111395640.007 8  86641351.611 7
R24  19659521.383 8  19659525.836 7 105128299.193 8  81766515.327 7
> 2025 06 15 09 44 40.0000000  0 19
C19  24100690.406 5 125498612.316 5
C20  22995215.961 7 119742123.648 7
C29  22360532.156 7 116437159.872 7
E02  24674475.859 7  24674477.207 8 129665241.709 7  98090920.150 8
E04  26502924.664 6  26502928.406 7 139273817.821 6 105359746.554 7
E10  26272178.164 7  26272181.484 8 138061228.488 7 104442431.867 8
E11  24326146.039 7  24326144.789 8 127834760.157 7  96706160.600 8
E25  26459024.055 6  26459028.648 7 139043112.430 6 105185203.851 7
E36  23847310.484 8  23847312.746 8 125318461.959 8  94802611.199 8
G02  22722171.656 7  22722173.832 5                 119405815.039 7  93043508.201 5
G08  20770213.375 8                  20770219.969 7 109148205.545 8                  85050790.723 7
G10  20895999.820 8                  20896006.297 8 109809214.757 8                  85565760.409 8
G23  22241741.773 7                  22241746.348 7 116881138.491 7                  91076157.919 7
G27  20356228.641 8                  20356234.230 7 106972700.612 8                  83355408.828 7
R01  20399338.844 7                 109046150.715 7
R08  21561586.039 6  21561592.586 7 115461338.275 6  89803218.389 7
R15  21697211.992 7  21697217.961 7 115943322.468 7  90178114.969 7
R17  20813102.711 8  20813107.313 7 111375105.394 8  86625380.241 7
R24  19658833.906 8  19658838.652 7 105124625.946 8  81763658.356 7
> 2025 06 15 09 44 45.0000000  0 19
C19  24096397.547 5 125476257.869 5
C20  22993439.508 7 119732875.192 7
C29  22360711.492 7 116438094.989 7
E02  24673950.789 7  24673952.254 8 129662483.238 7  98088833.388 8
E04  26499837.727 6  26499840.766 7 139257592.478 6 105347472.199 7
E10  26272905.875 7  26272909.645 8 138065054.451 7 104445326.178 8
E11  24326058.477 7  24326057.316 8 127834300.175 7  96705812.614 8
E25  26460477.922 6  26460483.008 7 139050755.063 6 105190985.426 7
E36  23844965.648 8  23844967.984 8 125306140.401 8  94793290.027 8
G02  22718436.281 7  22718437.629 5                 119386183.405 7  93028210.820 5
G08  20767365.828 8                  20767372.723 8 109133241.968 8                  85039130.787 8
G10  20894526.953 8                  20894533.828 8 109801476.908 8                  85559730.928 8
G23  22242792.242 7                  22242797.969 7 116886662.503 7                  91080462.335 7
G27  20355827.359 8                  20355833.000 7 106970591.072 8                  83353765.031 7
R01  20395873.398 7                 109027625.975 7
R08  21562150.484 7  21562156.691 7 115464359.625 7  89805568.294 7
R15  21697614.570 7  21697619.742 7 115945472.438 7  90179787.158 7
R17  20809266.547 8  20809271.602 7 111354578.946 8  86609415.233 7
R24  19658149.383 8  19658153.961 7 105120965.775 8  81760811.556 7
> 2025 06 15 09 44 50.0000000  0 19
C19  24092104.563 5 125453912.226 5
C20  22991666.844 7 119723642.542 7
C29  22360893.164 7 116439038.601 7
E02  24673427.828 7  24673429.766 8 129659737.378 7  98086756.166 8
E04  26496751.773 6  26496755.121 7 139241377.582 6 105335205.718 7
E10  26273634.688 7  26273638.262 8 138068883.314 7 104448222.666 8
E11  24325972.203 7  24325970.883 8 127833845.726 7  96705468.813 8
E25  26461932.484 6  26461938.227 7 139058402.229 6 105196770.445 7
E36  23842622.297 8  23842624.539 8 125293825.614 8  94783973.981 8
G02  22714701.547 7  22714702.676 5                 119366558.001 7  93012918.311 5
G08  20764521.070 8                  20764527.957 8 109118292.137 8                  85027481.572 8
G10  20893057.594 8                  20893064.711 8 109793754.668 8                  85553713.606 8
G23  22243845.578 7                  22243851.016 7 116892196.939 7                  91084774.872 7
G27  20355428.688 8                  20355434.586 7 106968496.850 8                  83352133.171 7
R01  20392411.781 7                 109009122.604 7
R08  21562720.625 7  21562724.770 7 115467401.437 7  89807934.117 7
R15  21698020.336 7  21698026.113 7 115947642.475 7  90181474.950 7
R17  20805431.906 8  20805436.742 7 111334060.084 8  86593456.126 7
R24  19657466.430 8  19657471.754 7 105117317.936 8  81757974.336 7
> 2025 06 15 09 44 55.0000000  0 19
C19  24087816.289 5 125431576.224 5
C20  22989896.945 7 119714426.635 7
C29  22361075.977 7 116439991.646 7
E02  24672907.859 7  24672909.840 8 129657005.088 7  98084689.212 8
E04  26493668.953 6  26493671.688 6 139225174.089 6 105322947.893 6
E10  26274363.734 7  26274367.621 8 138072715.915 7 104451121.984 8
E11  24325886.953 7  24325885.719 8 127833397.731 7  96705129.900 8
E25  26463388.766 6  26463394.570 7 139066054.812 6 105202559.539 7
E36  23840280.352 8  23840282.531 8 125281518.518 8  94774663.751 8
G02  22710967.938 7  22710969.301 5                 119346939.739 7  92997631.357 5
G08  20761679.055 8                  20761685.988 7 109103356.962 8                  85015843.772 7
G10  20891591.680 8                  20891598.086 8 109786048.961 8                  85547709.152 8
G23  22244901.383 7                  22244906.566 7 116897742.751 7                  91089096.273 7
G27  20355033.195 8                  20355039.086 8 106966418.878 8                  83350513.977 8
R01  20388954.039 7                 108990641.539 7
R08  21563292.633 7  21563296.969 7 115470464.702 7  89810316.655 7
R15  21698431.016 7  21698435.895 7 115949833.580 7  90183179.142 7
R17  20801598.070 8  20801604.281 7 111313549.932 8  86577503.792 7
R24  19656787.125 8  19656792.035 7 105113683.409 8  81755147.476 7
> 2025 06 15 09 45  0.0000000  0 20
C19  24083529.820 5 125409249.818 5
C20  22988130.578 7 119705227.412 7
C26  25799015.000 5 134342481.76715
C29  22361261.008 7 116440954.082 7
E02  24672390.344 7  24672392.500 8 129654286.344 7  98082632.497 8
E04  26490588.344 6  26490590.375 7 139208981.976 6 105310698.657 7
E10  26275093.797 7  26275097.684 8 138076552.348 7 104454024.210 8
E11  24325802.922 7  24325801.672 8 127832956.134 7  96704795.833 8
E25  26464846.258 6  26464851.797 7 139073712.780 6 105208352.740 7
E36  23837939.766 8  23837942.023 8 125269219.104 8  94765359.327 8
G02  22707236.398 7  22707237.727 5                 119327328.600 7  92982349.938 5
G08  20758839.391 8                  20758846.609 7 109088436.435 8                  85004217.387 7
G10  20890128.422 8                  20890134.797 8 109778359.757 8                  85541717.550 8
G23  22245958.805 7                  22245964.234 7 116903299.876 7                  91093426.495 7
G27  20354640.977 8                  20354647.129 8 106964357.118 8                  83348907.418 8
R01  20385501.125 7                 108972182.775 7
R08  21563868.188 7  21563872.594 7 115473549.318 7  89812715.798 7
R15  21698846.148 8  21698849.715 7 115952045.819 8  90184899.759 7
R17  20797767.211 8  20797773.125 7 111293048.317 8  86561558.096 7
R24  19656109.797 8  19656115.152 7 105110062.304 8  81752331.058 7
> 2025 06 15 09 45  5.0000000  0 20
C19  24079244.664 5 125386932.651 5
C20  22986367.281 7 119696044.432 7
C26  25799832.789 5 134346732.011 5
C29  22361447.656 7 116441925.448 7
E02  24671875.383 7  24671877.668 8 129651580.668 7  98080585.670 8
E04  26487509.336 6  26487511.137 7 139192800.803 6 105298457.692 7
E10  26275824.891 6  26275828.340 8 138080392.049 6 104456928.893 8
E11  24325720.008 7  24325718.863 8 127832520.481 7  96704466.263 8
E25  26466304.336 6  26466310.023 7 139081375.672 6 105214149.642 7
E36  23835600.414 8  23835602.852 8 125256926.895 8  94756060.355 8
G02  22703505.570 7  22703507.070 5                 119307724.097 7  92967073.708 5
G08  20756003.008 8                  20756010.238 7 109073530.101 8                  84992602.065 7
G10  20888668.328 8                  20888674.559 8 109770686.563 8                  85535738.441 8
G23  22247019.383 7                  22247023.668 7 116908867.854 7                  91097765.169 7
G27  20354251.602 8                  20354257.621 8 106962311.123 8                  83347313.138 8
R01  20382053.102 7                 108953745.849 7
R08  21564447.023 6  21564452.984 7 115476654.866 6  89815131.246 7
R15  21699262.914 8  21699267.051 7 115954278.551 8  90186636.315 7
R17  20793937.156 7  20793943.199 7 111272554.787 7  86545618.688 7
R24  19655435.219 8  19655440.395 7 105106454.025 8  81749524.633 7
> 2025 06 15 09 45 10.0000000  0 20
C19  24074959.805 5 125364624.854 5
C20  22984606.750 7 119686877.933 7
C26  25800652.898 5 134350990.855 5
C29  22361636.250 7 116442905.990 7
E02  24671363.133 8  24671365.328 8 129648888.344 8  98078548.936 8
E04  26484433.063 6  26484434.094 6 139176630.775 6 105286225.183 6
E10  26276556.156 6  26276559.727 8 138084235.292 6 104459836.268 8
E11  24325638.750 7  24325637.211 8 127832091.036 7  96704141.379 8
E25  26467763.492 6  26467769.270 7 139089043.722 6 105219950.456 7
E36  23833262.516 8  23833265.133 8 125244642.132 8  94746767.015 8
G02  22699776.281 7  22699778.305 5                 119288126.497 7  92951802.852 5
G08  20753168.625 8                  20753176.504 7 109058638.168 8                  84980997.979 7
G10  20887211.156 8                  20887217.512 7 109763029.636 8                  85529772.001 7
G23  22248080.563 7                  22248085.625 7 116914446.896 7                  91102112.457 7
G27  20353865.188 8                  20353871.484 8 106960281.104 8                  83345731.293 8
R01  20378608.672 7                 108935331.080 7
R08  21565031.570 7  21565036.813 7 115479781.531 7  89817563.118 7
R15  21699684.352 7  21699688.586 7 115956532.226 7  90188389.158 7
R17  20790109.281 8  20790114.684 7 111252069.653 8  86529685.800 7
R24  19654763.383 8  19654767.875 7 105102858.898 8  81746728.407 7
> 2025 06 15 09 45 15.0000000  0 20
C19  24070677.469 5 125342326.297 5
C20  22982848.898 7 119677727.660 7
C26  25801473.344 5 134355257.977 5
C29  22361826.547 7 116443895.415 7
E02  24670853.766 8  24670855.379 8 129646209.024 8  98076522.038 8
E04  26481357.641 6  26481359.156 6 139160471.625 6 105274000.878 6
E10  26277288.047 6  26277291.734 8 138088081.790 6 104462746.114 8
E11  24325558.141 7  24325556.570 8 127831667.502 7  96703820.973 8
E25  26469223.508 5  26469229.406 7 139096716.667 5 105225754.952 7
E36  23830926.242 8  23830928.848 8 125232364.537 8  94737479.093 8
G02  22696048.422 7  22696050.773 5                 119268535.532 7  92936537.165 5
G08  20750337.586 8                  20750345.348 8 109043760.415 8                  84969404.927 8
G10  20885757.664 8                  20885763.398 8 109755388.704 8                  85523818.031 8
G23  22249143.984 7                  22249149.004 7 116920036.731 7                  91106468.167 7
G27  20353481.680 8                  20353488.121 8 106958266.811 8                  83344161.697 8
R01  20375167.695 7                 108916938.112 7
R08  21565620.086 7  21565624.574 6 115482928.986 7  89820011.139 6
R15  21700110.484 7  21700114.199 7 115958806.344 7  90190157.898 7
R17  20786283.508 8  20786287.906 7 111231592.589 8  86513759.186 7
R24  19654093.641 8  19654097.984 7 105099276.624 8  81743942.195 7
> 2025 06 15 09 45 20.0000000  0 20
C19  24066399.219 5 125320036.507 5
C20  22981095.250 7 119668593.134 7
C26  25802294.297 5 134359532.947 5
C29  22362018.242 7 116444893.298 7
E02  24670346.336 7  24670347.980 8 129643542.301 7  98074504.664 8
E04  26478284.883 6  26478286.188 6 139144322.943 6 105261784.508 6
E10  26278020.508 6  26278024.266 8 138091931.133 6 104465658.105 8
E11  24325478.305 7  24325477.004 8 127831249.415 7  96703504.697 8
E25  26470685.461 5  26470690.336 7 139104394.038 5 105231562.829 7
E36  23828591.250 8  23828593.742 8 125220093.674 8  94728196.266 8
G02  22692321.500 7  22692324.215 5                 119248950.758 7  92921276.303 5
G08  20747509.625 8                  20747516.617 8 109028896.393 8                  84957822.574 8
G10  20884306.289 8                  20884312.250 7 109747763.322 8                  85517876.177 7
G23  22250209.953 7                  22250214.594 7 116925636.906 7                  91110831.922 7
G27  20353101.258 8                  20353107.688 8 106956267.799 8                  83342604.021 8
R01  20371730.500 8                 108898566.513 8
R08  21566211.539 7  21566216.836 6 115486096.791 7  89822474.962 6
R15  21700539.406 7  21700543.816 7 115961100.464 7  90191942.229 7
R17  20782457.578 8  20782462.539 7 111211123.108 8  86497838.501 7
R24  19653425.758 8  19653430.207 7 105095706.782 8  81741165.667 7
> 2025 06 15 09 45 25.0000000  0 20
C19  24062121.414 5 125297755.002 5
C20  22979344.406 7 119659473.992 7
C26  25803119.031 5 134363815.431 5
C29  22362211.484 7 116445899.244 7
E02  24669841.031 7  24669842.754 8 129640887.751 7  98072496.521 8
E04  26475213.273 7  26475215.141 6 139128184.340 7 105249575.772 6
E10  26278753.539 6  26278757.238 8 138095782.895 6 104468571.923 8
E11  24325399.711 7  24325398.418 8 127830836.428 7  96703192.282 8
E25  26472147.492 5  26472152.086 7 139112075.461 5 105237373.753 7
E36  23826257.281 8  23826259.898 9 125207829.140 8  94718918.226 9
G02  22688595.898 7  22688598.742 5                 119229371.761 7  92906019.933 5
G08  20744683.984 8                  20744690.555 8 109014045.677 8                  84946250.593 8
G10  20882858.117 8                  20882864.039 7 109740153.080 8                  85511946.117 7
G23  22251277.164 7                  22251282.230 7 116931246.998 7                  91115203.415 7
G27  20352723.727 8                  20352729.719 8 106954283.645 8                  83341057.909 8
R01  20368297.969 7                 108880216.013 7
R08  21566807.367 7  21566812.250 6 115489284.594 7  89824954.329 6
R15  21700972.000 7  21700976.574 7 115963414.101 7  90193741.734 7
R17  20778634.188 8  20778639.000 7 111190660.856 8  86481923.428 7
R24  19652760.211 8  19652765.164 7 105092148.885 8  81738398.410 7
> 2025 06 15 09 45 30.0000000  0 20
C19  24057845.000 4 125275482.82214
C20  22977596.602 7 119650371.265 7
C26  25803943.711 5 134368106.470 5
C29  22362405.906 7 116446914.264 7
E02  24669338.336 7  24669340.145 8 129638246.390 7  98070498.350 8
E04  26472143.969 6  26472146.246 6 139112056.832 6 105237375.441 6
E10  26279486.594 6  26279490.895 8 138099638.095 6 104471488.349 8
E11  24325322.555 7  24325321.016 7 127830429.490 7  96702884.430 7
E25  26473610.250 5  26473614.785 7 139119761.873 5 105243188.445 7
E36  23823924.875 8  23823927.359 8 125195571.973 8  94709645.763 8
G02  22684871.234 7  22684874.508 5                 119209799.620 7  92890768.917 5
G08  20741860.930 8                  20741867.297 8 108999209.387 8                  84934689.840 8
G10  20881413.039 8                  20881418.906 8 109732559.013 8                  85506028.671 8
G23  22252346.945 7                  22252351.617 7 116936868.040 7                  91119583.433 7
G27  20352349.070 8                  20352355.109 8 106952315.426 8                  83339524.225 8
R01  20364868.977 8                 108861887.528 8
R08  21567406.664 7  21567411.156 6 115492493.479 7  89827450.114 6
R15  21701407.695 7  21701414.242 7 115965748.371 7  90195557.282 7
R17  20774812.258 8  20774816.590 7 111170206.979 8  86466014.851 7
R24  19652097.586 8  19652102.359 7 105088604.011 8  81735641.289 7
> 2025 06 15 09 45 35.0000000  0 19
C20  22975851.078 7 119641284.116 7
C26  25804767.727 5 134372405.037 5
C29  22362602.281 7 116447937.547 7
E02  24668838.195 7  24668839.809 8 129635617.428 7  98068509.536 8
E04  26469077.445 7  26469079.270 6 139095939.645 7 105225182.906 6
E10  26280220.680 6  26280224.992 8 138103495.938 6 104474406.771 8
E11  24325245.727 7  24325244.543 7 127830027.820 7  96702580.571 7
E25  26475073.281 5  26475078.215 7 139127452.45615 105249006.31717
E36  23821593.852 8  23821596.078 8 125183321.301 8  94700378.206 8
G02  22681147.930 7  22681151.277 5                 119190233.476 7  92875522.563 5
G08  20739039.531 7                  20739046.504 8 108984386.625 7                  84923139.637 8
G10  20879970.727 8                  20879976.711 7 109724980.256 8                  85500123.152 7
G23  22253418.680 7                  22253423.289 7 116942499.159 7                  91123971.313 7
G27  20351977.273 8                  20351983.652 8 106950362.206 8                  83338002.237 8
R01  20361443.523 8                 108843580.310 8
R08  21568007.953 7  21568013.762 7 115495722.438 7  89829961.548 7
R15  21701849.555 7  21701855.355 7 115968102.514 7  90197388.279 7
R17  20770991.602 8  20770995.578 7 111149760.603 8  86450112.107 7
R24  19651437.141 8  19651441.684 7 105085071.283 8  81732893.606 7
> 2025 06 15 09 45 40.0000000  0 19
C20  22974109.383 7 119632212.681 7
C26  25805592.938 4 134376711.521 4
C29  22362800.133 7 116448969.233 7
E02  24668340.445 8  24668341.859 8 129633001.009 8  98066530.233 8
E04  26466011.969 7  26466014.457 6 139079832.896 7 105212998.254 6
E10  26280955.406 6  26280959.715 8 138107356.525 6 104477327.250 8
E11  24325170.156 7  24325169.109 7 127829631.608 7  96702280.829 7
E25  26476537.875 5  26476542.465 7 139135147.479 5 105254827.533 7
E36  23819263.656 8  23819266.086 8 125171077.354 8  94691115.742 8
G02  22677425.859 7  22677429.133 5                 119170673.521 7  92860281.036 5
G08  20736221.180 8                  20736228.648 8 108969577.589 8                  84911600.117 8
G10  20878531.094 8                  20878537.211 8 109717417.041 8                  85494229.733 8
G23  22254491.891 7                  22254496.320 7 116948140.574 7                  91128367.206 7
G27  20351608.422 8                  20351614.668 8 106948424.261 8                  83336492.143 8
R01  20358022.766 7                 108825294.586 7
R08  21568615.703 7  21568620.672 7 115498971.644 7  89832488.706 7
R15  21702293.109 7  21702299.305 7 115970476.695 7  90199234.836 7
R17  20767171.406 7  20767176.297 7 111129321.782 7  86434215.228 7
R24  19650779.305 8  19650783.141 7 105081551.060 8  81730155.646 7
> 2025 06 15 09 45 45.0000000  0 19
C20  22972370.172 7 119623156.555 7
C26  25806422.594 4 134381025.283 4
C29  22362999.516 7 116450008.885 7
E02  24667845.078 8  24667846.238 8 129630396.641 8  98064560.044 8
E04  26462948.484 6  26462951.359 7 139063736.149 6 105200821.184 7
E10  26281690.883 7  26281694.848 8 138111219.478 7 104480249.536 8
E11  24325095.836 7  24325094.641 7 127829240.351 7  96701984.850 7
E25  26478003.195 5  26478007.539 7 139142846.331 5 105260651.625 7
E36  23816935.109 8  23816937.293 8 125158839.614 8  94681857.971 8
G02  22673704.547 7  22673708.137 5                 119151119.233 7  92845043.948 5
G08  20733406.148 7                  20733413.102 8 108954781.821 7                  84900070.954 8
G10  20877094.469 8                  20877100.758 7 109709868.832 8                  85488348.021 7
G23  22255566.773 7                  22255571.613 7 116953791.748 7                  91132770.733 7
G27  20351243.125 8                  20351248.820 8 106946501.073 8                  83334993.564 8
R01  20354606.469 7                 108807029.700 7
R08  21569226.211 7  21569231.199 7 115502240.688 7  89835031.291 7
R15  21702742.258 7  21702747.254 7 115972870.258 7  90201096.453 7
R17  20763353.500 7  20763357.578 7 111108890.069 7  86418323.914 7
R24  19650123.023 8  19650127.328 7 105078042.602 8  81727426.845 7
> 2025 06 15 09 45 50.0000000  0 19
C20  22970633.508 7 119614115.898 7
C26  25807252.938 4 134385346.50914
C29  22363200.633 7 116451056.677 7
E02  24667351.805 8  24667353.047 8 129627804.545 8  98062599.138 8
E04  26459887.055 6  26459890.168 7 139047649.642 6 105188651.847 7
E10  26282426.531 7  26282430.383 8 138115084.824 7 104483173.651 8
E11  24325022.039 7  24325021.184 7 127828854.229 7  96701692.756 7
E25  26479469.195 5  26479473.398 7 139150549.329 5 105266478.858 7
E36  23814607.609 8  23814609.738 8 125146608.310 8  94672605.077 8
G02  22669984.180 7  22669988.059 5                 119131570.880 7  92829811.478 5
G08  20730592.914 7                  20730600.090 8 108939999.525 7                  84888552.282 8
G10  20875661.156 8                  20875667.172 7 109702335.874 8                  85482478.213 7
G23  22256644.766 7                  22256648.922 7 116959452.880 7                  91137182.012 7
G27  20350879.977 8                  20350885.820 8 106944592.803 8                  83333506.617 8
R01  20351194.227 7                 108788785.952 7
R08  21569840.328 7  21569845.691 7 115505529.736 7  89837589.432 7
R15  21703194.047 7  21703198.602 7 115975283.442 7  90202973.377 7
R17  20759536.977 7  20759541.262 7 111088465.726 7  86402438.337 7
R24  19649469.109 8  19649473.516 7 105074546.149 8  81724707.396 7
> 2025 06 15 09 45 55.0000000  0 19
C20  22968900.406 7 119605091.637 7
C26  25808080.398 4 134389676.44614
C29  22363403.086 7 116452113.547 7
E02  24666860.875 8  24666862.328 8 129625225.618 8  98060648.191 8
E04  26456827.742 6  26456831.063 7 139031574.215 6 105176490.925 7
E10  26283162.492 7  26283166.602 8 138118953.673 7 104486100.396 8
E11  24324949.805 7  24324948.852 7 127828474.186 7  96701405.251 7
E25  26480935.398 5  26480940.129 7 139158257.242 5 105272309.835 7
E36  23812281.320 8  23812283.566 8 125134384.340 8  94663357.722 8
G02  22666267.078 7  22666269.414 5                 119112029.350 7  92814584.326 5
G08  20727782.563 7                  20727790.012 8 108925231.615 7                  84877044.822 8
G10  20874230.852 8                  20874236.637 7 109694819.024 8                  85476620.938 7
G23  22257723.680 7                  22257728.352 7 116965124.892 7                  91141601.748 7
G27  20350520.047 8                  20350525.461 8 106942700.409 8                  83332032.023 8
R01  20347785.703 7                 108770564.497 7
R08  21570460.273 7  21570463.582 7 115508839.628 7  89840163.776 7
R15  21703650.680 8  21703654.230 7 115977717.287 8  90204866.379 7
R17  20755720.133 7  20755725.922 7 111068049.771 7  86386559.279 7
R24  19648817.586 8  19648822.023 7 105071062.892 8  81721998.201 7
> 2025 06 15 09 46  0.0000000  0 18
C20  22967169.922 7 119596082.764 7
C29  22363607.508 7 116453178.458 7
E02  24666372.281 7  24666373.918 8 129622658.892 7  98058706.478 8
E04  26453770.086 6  26453773.977 7 139015508.965 6 105164337.667 7
E10  26283899.016 7  26283903.262 8 138122824.923 7 104489028.966 8
E11  24324878.648 7  24324877.488 7 127828099.199 7  96701121.572 7
E25  26482402.828 5  26482407.691 7 139165969.131 5 105278143.820 7
E36  23809956.547 8  23809958.605 8 125122166.709 8  94654115.159 8
G02  22662549.141 7  22662551.504 5                 119092493.665 7  92799361.715 5
G08  20724974.828 8                  20724982.551 8 108910477.140 8                  84865547.831 8
G10  20872803.117 8                  20872809.223 7 109687317.345 8                  85470775.471 7
G23  22258804.273 7                  22258809.430 7 116970806.758 7                  91146029.186 7
G27  20350162.789 8                  20350168.527 8 106940822.888 8                  83330569.030 8
R01  20344380.789 8                 108752364.053 8
R08  21571081.953 7  21571085.613 7 115512169.354 7  89842753.580 7
R15  21704108.695 8  21704113.258 7 115980170.718 8  90206774.611 7
R17  20751906.742 8  20751911.863 7 111047641.080 8  86370685.869 7
R24  19648168.414 8  19648173.191 7 105067591.468 8  81719298.209 7
> 2025 06 15 09 46  5.0000000  0 18
C20  22965442.375 7 119587089.886 7
C29  22363813.992 7 116454252.024 7
E02  24665886.641 8  24665887.949 8 129620104.921 8  98056774.404 8
E04  26450716.570 6  26450719.012 7 138999454.440 6 105152192.530 7
E10  26284636.445 7  26284640.602 8 138126699.183 7 104491959.802 8
E11  24324808.609 7  24324807.211 7 127827729.839 7  96700842.155 7
E25  26483871.047 5  26483876.152 7 139173685.569 5 105283981.221 7
E36  23807632.758 8  23807634.973 8 125109956.012 8  94644877.848 8
G02  22658833.047 7  22658834.848 5                 119072964.378 7  92784144.090 5
G08  20722170.070 7                  20722177.676 8 108895736.618 7                  84854061.726 8
G10  20871378.578 8                  20871384.570 7 109679831.370 8                  85464942.231 7
G23  22259888.039 7                  22259893.191 7 116976499.083 7                  91150464.774 7
G27  20349808.414 8                  20349814.262 8 106938960.833 8                  83329118.070 8
R01  20340979.555 7                 108734185.371 7
R08  21571707.297 7  21571711.000 7 115515519.690 7  89845359.396 7
R15  21704571.375 8  21704576.148 7 115982644.172 8  90208698.415 7
R17  20748094.305 8  20748100.180 7 111027240.317 8  86354818.599 7
R24  19647522.406 8  19647526.438 7 105064132.783 8  81716608.131 7
> 2025 06 15 09 46 10.0000000  0 18
C20  22963718.531 7 119578113.483 7
C29  22364021.695 7 116455334.732 7
E02  24665403.227 8  24665404.461 8 129617564.209 8  98054852.371 8
E04  26447662.875 6  26447666.227 7 138983411.179 6 105140055.925 7
E10  26285374.797 7  26285378.539 8 138130576.969 7 104494893.303 8
E11  24324739.445 7  24324738.156 7 127827366.670 7  96700567.414 7
E25  26485338.180 5  26485345.500 7 139181407.069 5 105289822.514 7
E36  23805310.852 8  23805312.828 8 125097752.770 8  94635646.173 8
G02  22655117.070 7  22655119.316 5                 119053442.063 7  92768931.899 5
G08  20719367.617 7                  20719375.410 8 108881010.686 7                  84842586.989 8
G10  20869957.234 8                  20869962.969 7 109672361.639 8                  85459121.658 7
G23  22260973.430 7                  22260978.813 7 116982202.330 7                  91154908.854 7
G27  20349457.156 8                  20349462.961 8 106937114.745 8                  83327679.552 8
R01  20337583.109 7                 108716028.854 7
R08  21572336.813 7  21572340.891 7 115518890.879 7  89847981.411 7
R15  21705038.711 8  21705042.879 7 115985138.299 8  90210638.260 7
R17  20744283.297 7  20744289.102 7 111006848.011 7  86338957.922 7
R24  19646877.359 8  19646881.980 7 105060687.091 8  81713928.154 7
> 2025 06 15 09 46 15.0000000  0 18
C20  22961997.414 7 119569152.918 7
C29  22364231.656 7 116456425.922 7
E02  24664922.086 8  24664923.355 8 129615036.096 8  98052939.871 8
E04  26444612.539 6  26444615.465 7 138967378.511 6 105127927.315 7
E10  26286112.867 7  26286117.027 8 138134457.590 7 104497828.965 8
E11  24324672.000 7  24324670.066 7 127827008.996 7  96700296.826 7
E25  26486808.102 5  26486815.801 7 139189133.015 5 105295667.113 7
E36  23802989.805 8  23802991.895 8 125085556.278 8  94626419.613 8
G02  22651403.461 7  22651405.520 5                 119033925.985 7  92753724.587 5
G08  20716568.383 7                  20716575.883 8 108866298.573 7                  84831123.012 8
G10  20868538.820 8                  20868544.691 7 109664907.500 8                  85453313.213 7
G23  22262060.492 7                  22262066.238 7 116987915.876 7                  91159360.969 7
G27  20349108.383 8                  20349114.809 8 106935283.938 8                  83326252.947 8
R01  20334190.352 7                 108697894.020 7
R08  21572969.758 7  21572974.547 7 115522282.364 7  89850619.257 7
R15  21705509.344 8  21705512.883 7 115987652.236 8  90212593.525 7
R17  20740473.742 7  20740479.688 7 110986463.476 7  86323103.287 7
R24  19646235.977 8  19646240.059 7 105057253.865 8  81711257.867 7
> 2025 06 15 09 46 20.0000000  0 18
C20  22960279.234 7 119560208.646 7
C29  22364443.211 7 116457526.072 7
E02  24664443.359 8  24664444.766 8 129612521.040 8  98051037.238 8
E04  26441563.273 6  26441566.711 7 138951356.897 6 105115807.057 7
E10  26286851.602 7  26286856.113 8 138138341.518 7 104500767.116 8
E11  24324604.781 7  24324603.086 7 127826657.253 7  96700030.730 7
E25  26488279.273 5  26488286.906 7 139196863.711 5 105301515.301 7
E36  23800669.945 8  23800672.359 8 125073367.040 8  94617198.536 8
G02  22647691.109 7  22647693.137 5                 119014416.626 7  92738522.494 5
G08  20713771.563 8                  20713778.891 8 108851600.804 8                  84819670.210 8
G10  20867123.688 8                  20867129.188 7 109657469.344 8                  85447517.241 7
G23  22263149.266 7                  22263155.402 7 116993640.121 7                  91163821.397 7
G27  20348763.531 8                  20348769.680 8 106933468.874 8                  83324838.613 8
R01  20330801.414 7                 108679781.232 7
R08  21573603.992 7  21573611.949 7 115525694.479 7  89853273.138 7
R15  21705982.875 8  21705986.699 7 115990186.682 8  90214564.739 7
R17  20736664.969 7  20736671.684 7 110966087.158 7  86307255.045 7
