     3.04           OBSERVATION DATA    Mixed(MIXED)        RINEX VERSION / TYPE
cnvtToRINEX 3.14.0  convertToRINEX OPR  20250615 162946 UTC PGM / RUN BY / DATE 
----------------------------------------------------------- COMMENT             
36                                                          MARKER NAME         
36                                                          MARKER NUMBER       
GEODETIC                                                    MARKER TYPE         
GNSS Observer       Trimble                                 OBSERVER / AGENCY   
5849S10870          Geo Explorer 3      5.51                REC # / TYPE / VERS 
49S10870            UNKNOWN EXT     NONE                    ANT # / TYPE        
  3913236.6273  1190474.6715  4878391.7025                  APPROX POSITION XYZ 
        1.3400        0.0000        0.0000                  ANTENNA: DELTA H/E/N
G    6 C1C C2W C2X L1C L2W L2X                              SYS / # / OBS TYPES 
R    4 C1C C2C L1C L2C                                      SYS / # / OBS TYPES 
E    4 C1X C8X L1X L8X                                      SYS / # / OBS TYPES 
C    4 C2I C7I L2I L7I                                      SYS / # / OBS TYPES 
     5.000                                                  INTERVAL            
  2025     6    15    11    44   25.0000000     GPS         TIME OF FIRST OBS   
  2025     6    15    12    24   45.0000000     GPS         TIME OF LAST OBS    
     0                                                      RCV CLOCK OFFS APPL 
  5 R01  1 R02 -4 R03  5 R17  4 R18 -3                      GLONASS SLOT / FRQ #
G L2X -0.25000                                              SYS / PHASE SHIFT   
R L2C -0.25000                                              SYS / PHASE SHIFT   
    18                                                      LEAP SECONDS        
    25                                                      # OF SATELLITES     
   C12   485   485   485   485                              PRN / # OF OBS      
   C19   485     0   485     0                              PRN / # OF OBS      
   C20    22     0    21     0                              PRN / # OF OBS      
   C21    50     0    49     0                              PRN / # OF OBS      
   C22   485     0   485     0                              PRN / # OF OBS      
   E04   118   108   114   108                              PRN / # OF OBS      
   E05   296   293   295   293                              PRN / # OF OBS      
   E06   468   461   463   461                              PRN / # OF OBS      
   E09   485   485   485   485                              PRN / # OF OBS      
   E30   135   134   134   134                              PRN / # OF OBS      
   E34   485   485   485   485                              PRN / # OF OBS      
   E36   485   485   485   485                              PRN / # OF OBS      
   G01   485     0   485   485     0   485                  PRN / # OF OBS      
   G02   485   485     0   485   485     0                  PRN / # OF OBS      
   G03   461     0   436   439     0   435                  PRN / # OF OBS      
   G08   479     0   469   470     0   469                  PRN / # OF OBS      
   G10   104     0    50    78     0    47                  PRN / # OF OBS      
   G14    26     0     7    20     0     7                  PRN / # OF OBS      
   G17    53     0    22    44     0    22                  PRN / # OF OBS      
   G32   483     0   476   481     0   476                  PRN / # OF OBS      
   R01   216     0   216     0                              PRN / # OF OBS      
   R02   485   485   485   485                              PRN / # OF OBS      
   R03   485   485   485   485                              PRN / # OF OBS      
   R17   485   485   485   485                              PRN / # OF OBS      
   R18   485   485   485   485                              PRN / # OF OBS      
DBHZ                                                        SIGNAL STRENGTH UNIT
                                                            END OF HEADER       
>                              2  1
              *** Start of Kinematic Data ***               COMMENT             
> 2025 06 15 11 44 25.0000000  0 18
C12  24087620.086 6  24087616.699 7 125430564.17216  96990863.31917
C19  22239965.547 7                 115809332.36217
C22  22937124.406 7                 119439625.69917
E06  25093489.852 6  25093491.855 7 131867178.00616  99756677.58817
E09  24900611.398 8  24900612.672 8 130853597.48318  98989901.86818
E30  26927154.172 5  26927157.418 6 141503174.88415 107046226.43216
E34  24466414.195 8  24466417.395 8 128571874.92018  97263799.10718
E36  23666493.320 8  23666496.133 9 124368262.26818  94083792.43119
G01  21261266.648 7                  21261270.977 8 111728706.38517                  87061351.85118
G02  20699924.555 8  20699925.883 6                 108778832.97218  84762866.49916
G03  22740302.172 5                                                                
G08  21578024.234 7                  21578031.770 7 113393280.48017                  88358332.16117
G32  21892031.477 8                  21892039.051 7 115043400.96418                  89644342.94217
R01  21647697.219 7                 115719345.44417
R02  19424014.633 8  19424019.457 7 103650269.35918  80617001.27317
R03  21493223.773 6  21493228.387 6 115054898.37816  89487605.97616
R17  19315245.055 8  19315248.703 7 103359769.90118  80390995.20817
R18  20208357.516 8  20208361.766 7 107873584.62918  83901979.01417
> 2025 06 15 11 44 30.0000000  0 18
C12  24083601.125 6  24083597.680 7 125409632.758 6  96974677.822 7
C19  22239106.258 7                 115804857.440 7
C22  22933215.055 7                 119419268.770 7
E06  25092334.656 6  25092336.145 7 131861105.265 6  99752083.624 7
E09  24898148.641 8  24898150.578 8 130840658.332 8  98980113.490 8
E30  26927197.695 4  26927203.156 6 141503414.82414 107046407.97416
E34  24463403.961 8  24463407.383 8 128556057.048 8  97251833.006 8
E36  23665783.773 8  23665786.344 9 124364532.282 8  94080970.726 9
G01  21257802.797 7                  21257807.668 8 111710505.184 7                  87047169.101 8
G02  20698227.391 8  20698228.672 6                 108769915.125 8  84755917.529 6
G08  21579107.734 7                  21579115.547 7 113398976.706 7                  88362770.754 7
G10  23163879.648 5                                                                
G32  21890870.852 8                  21890877.188 7 115037298.183 8                  89639587.528 7
R01  21649602.375 7                 115729527.220 7
R02  19422494.008 8  19422499.480 7 103642156.182 8  80610691.014 7
R03  21488152.711 6  21488157.668 6 115027753.229 6  89466493.101 6
R17  19314637.844 8  19314642.938 7 103356528.921 8  80388474.440 7
R18  20204556.867 8  20204561.566 7 107853299.354 8  83886201.570 7
>                              3  5
              *** Start of Occupation ***                   COMMENT             
36                                                          MARKER NAME         
36                                                          MARKER NUMBER       
  3913236.6273  1190474.6715  4878391.7025                  APPROX POSITION XYZ 
        1.3400        0.0000        0.0000                  ANTENNA: DELTA H/E/N
> 2025 06 15 11 44 35.0000000  0 18
C12  24079583.023 6  24079579.551 7 125388709.725 6  96958498.830 7
C19  22238249.977 7                 115800398.977 7
C22  22929308.125 7                 119398924.492 7
E06  25091181.141 6  25091183.566 7 131855048.241 6  99747501.562 7
E09  24895689.234 7  24895691.305 8 130827734.427 7  98970336.656 8
E30  26927245.672 5  26927251.461 6 141503668.40615 107046599.93116
E34  24460395.633 8  24460398.824 8 128540246.798 8  97239872.653 8
E36  23665075.750 8  23665078.453 9 124360811.894 8  94078156.271 9
G01  21254341.258 7                  21254346.293 8 111692315.047 7                  87032994.963 8
G02  20696533.211 8  20696534.223 7                 108761010.286 8  84748978.691 7
G08  21580194.461 7                  21580202.191 7 113404687.500 7                  88367220.741 7
G10  23165193.172 5                  23165200.887 5 121733930.019 5                  94857626.98515
G32  21889712.992 8                  21889719.715 7 115031214.839 8                  89634847.271 7
R01  21651509.508 7                 115739723.501 7
R02  19420978.070 8  19420983.730 7 103634068.464 8  80604400.557 7
R03  21483084.281 6  21483090.020 6 115000622.466 6  89445391.469 6
R17  19314035.898 8  19314041.109 7 103353307.598 8  80385968.964 7
R18  20200760.016 8  20200764.285 7 107833027.894 8  83870434.901 7
> 2025 06 15 11 44 40.0000000  0 19
C12  24075566.922 6  24075563.660 6 125367796.194 6  96942327.191 6
C19  22237397.594 7                 115795957.906 7
C22  22925403.992 7                 119378593.839 7
E06  25090031.797 6  25090033.988 6 131849008.036 6  99742932.164 6
E09  24893232.773 7  24893235.188 8 130814826.829 7  98960572.155 8
E30  26927298.844 5  26927302.359 6 141503936.503 5 107046802.781 6
E34  24457389.094 8  24457391.879 8 128524445.198 8  97227918.846 8
E36  23664369.836 8  23664372.441 8 124357102.106 8  94075349.840 8
G01  21250881.719 7                  21250886.762 8 111674136.997 7                  87018830.261 8
G02  20694841.148 8  20694842.156 7                 108752119.470 8  84742050.784 7
G03  22726670.906 5                                                                
G08  21581284.586 7                  21581291.957 7 113410413.940 7                  88371682.888 7
G10  23166505.242 4                                                                
G32  21888559.461 8                  21888565.855 7 115025151.988 8                  89630122.966 7
R01  21653419.000 7                 115749935.191 7
R02  19419467.930 8  19419472.391 7 103626007.374 8  80598130.828 7
R03  21478019.672 7  21478024.016 6 114973507.108 7  89424301.702 6
R17  19313438.266 8  19313442.969 7 103350107.029 8  80383479.634 7
R18  20196965.148 8  20196969.273 7 107812771.327 8  83854679.787 7
> 2025 06 15 11 44 45.0000000  0 19
C12  24071552.555 6  24071549.152 6 125346891.283 6  96926162.172 6
C19  22236547.398 7                 115791533.554 7
C22  22921501.633 7                 119358276.042 7
E06  25088884.703 6  25088887.605 6 131842983.840 6  99738374.850 6
E09  24890779.914 8  24890781.926 8 130801934.733 8  98950819.373 8
E30  26927352.938 6  26927356.000 6 141504218.397 6 107047016.039 6
E34  24454383.469 8  24454386.430 8 128508651.484 8  97215970.992 8
E36  23663665.461 8  23663668.387 8 124353402.135 8  94072550.824 8
G01  21247424.258 7                  21247429.527 8 111655970.232 7                  87004674.347 8
G02  20693151.711 8  20693152.949 7                 108743241.893 8  84735133.188 7
G03  22722112.180 5                                                                
G08  21582376.570 7                  21582384.750 7 113416155.181 7                  88376156.581 7
G10  23167829.664 5                  23167834.680 4 121747771.21215                  94868412.33614
G32  21887409.883 8                  21887415.863 7 115019108.820 8                  89625413.994 7
R01  21655332.992 6                 115760161.729 6
R02  19417962.344 8  19417966.785 7 103617971.833 8  80591880.946 7
R03  21472955.211 6  21472960.984 6 114946406.471 6  89403223.526 6
R17  19312843.523 8  19312848.465 7 103346926.410 8  80381005.794 7
R18  20193173.711 8  20193177.293 7 107792528.834 8  83838935.611 7
> 2025 06 15 11 44 50.0000000  0 19
C12  24067539.102 6  24067535.461 6 125325994.592 6  96910003.524 6
C19  22235700.773 7                 115787125.362 7
C22  22917602.453 7                 119337970.615 7
E06  25087741.563 6  25087744.176 6 131836975.113 6  99733829.294 6
E09  24888328.875 7  24888331.582 8 130789057.665 7  98941077.963 8
E30  26927409.570 6  26927412.328 6 141504513.576 6 107047239.289 6
E34  24451379.625 8  24451382.289 8 128492865.122 8  97204028.718 8
E36  23662963.227 8  23662966.082 8 124349711.466 8  94069758.858 8
G01  21243968.844 7                  21243974.477 8 111637814.279 7                  86990526.876 8
G02  20691464.734 8  20691466.145 7                 108734377.063 8  84728225.517 7
G03  22717567.883 5                                                                
G08  21583472.891 7                  21583479.641 7 113421910.739 7                  88380641.430 7
G10  23169153.523 5                                 121754703.662 5                
G32  21886263.469 8                  21886268.820 7 115013084.854 8                  89620719.980 7
R01  21657248.148 6                 115770402.260 6
R02  19416461.344 8  19416465.383 7 103609961.355 8  80585650.564 7
R03  21467895.633 6  21467901.688 6 114919319.811 6  89382156.155 6
R17  19312253.289 8  19312257.793 7 103343765.198 8  80378547.064 7
R18  20189383.258 8  20189388.180 7 107772299.946 8  83823202.023 7
> 2025 06 15 11 44 55.0000000  0 19
C12  24063527.430 6  24063524.297 6 125305104.858 6  96893850.278 6
C19  22234856.719 7                 115782732.065 7
C22  22913704.719 7                 119317676.392 7
E06  25086599.805 6  25086603.395 6 131830980.538 6  99729294.478 6
E09  24885882.094 8  24885883.840 8 130776194.366 8  98931346.967 8
E30  26927468.391 6  26927471.035 6 141504820.818 6 107047471.681 6
E34  24448376.313 8  24448379.426 8 128477084.891 8  97192091.075 8
E36  23662262.484 8  23662265.344 8 124346028.876 8  94066972.998 8
G01  21240516.367 7                  21240521.641 8 111619667.931 7                  86976386.870 8
G02  20689779.805 8  20689781.906 7                 108725523.708 8  84721326.800 7
G03  22713031.172 5                                 119357892.04015                
G08  21584570.695 8                  21584577.625 7 113427679.357 8                  88385136.464 7
G10  23170472.344 5                                 121761642.210 5                
G32  21885120.680 8                  21885126.176 7 115007078.856 8                  89616039.999 7
R01  21659166.719 6                 115780655.743 6
R02  19414964.820 8  19414968.645 7 103601974.775 8  80579438.799 7
R03  21462839.453 6  21462844.824 6 114892246.129 6  89361098.833 6
R17  19311666.055 8  19311670.461 7 103340622.128 8  80376102.460 7
R18  20185596.938 8  20185600.680 7 107752083.418 8  83807478.082 7
> 2025 06 15 11 45  0.0000000  0 19
C12  24059517.484 6  24059513.957 7 125284222.460 6  96877702.668 7
C19  22234015.938 7                 115778354.054 7
C22  22909810.234 7                 119297393.665 7
E06  25085464.492 7  25085465.742 6 131825000.563 7  99724770.655 6
E09  24883437.000 7  24883438.742 8 130763345.180 7  98921626.639 8
E30  26927528.430 6  26927531.977 6 141505140.322 6 107047713.355 6
E34  24445374.758 8  24445377.605 8 128461311.145 8  97180158.334 8
E36  23661563.289 8  23661566.156 9 124342354.708 8  94064193.509 9
G01  21237064.938 7                  21237070.395 8 111601531.514 7                  86962254.570 8
G02  20688097.297 8  20688099.445 7                 108716682.192 8  84714437.301 7
G03  22708494.945 5                  22708500.238 6 119334056.586 5                  92987516.40516
G08  21585670.422 7                  21585677.934 7 113433461.361 7                  88389641.918 7
G10  23171792.367 5                                 121768587.438 5                
G32  21883981.039 8                  21883986.797 7 115001091.111 8                  89611374.231 7
R01  21661087.914 7                 115790922.444 7
R02  19413472.352 8  19413476.770 7 103594012.595 8  80573245.983 7
R03  21457783.273 6  21457788.965 6 114865185.599 6  89340051.743 6
R17  19311082.016 8  19311086.871 7 103337497.547 8  80373672.237 7
R18  20181811.180 8  20181816.152 8 107731879.557 8  83791763.947 8
> 2025 06 15 11 45  5.0000000  0 19
C12  24055508.695 6  24055505.242 7 125263348.234 6  96861561.401 7
C19  22233178.508 7                 115773992.153 7
C22  22905917.109 7                 119277123.299 7
E06  25084329.195 7  25084330.848 6 131819036.130 7  99720258.604 6
E09  24880993.992 8  24880996.660 8 130750511.000 8  98911917.658 8
E30  26927591.414 6  26927595.313 6 141505473.043 6 107047965.110 6
E34  24442374.813 8  24442377.457 8 128445544.745 8  97168231.167 8
E36  23660865.742 8  23660868.746 9 124338689.830 8  94061421.048 9
G01  21233616.578 7                  21233621.152 8 111583405.922 7                  86948130.738 8
G02  20686417.016 8  20686419.578 7                 108707853.416 8  84707557.740 7
G03  22703957.602 5                  22703964.992 6 119310230.898 5                  92968950.904 6
G08  21586773.133 8                  21586780.781 7 113439257.664 8                  88394158.499 7
G10  23173112.648 4                  23173120.004 5 121775540.319 4                  94890053.59915
G32  21882844.672 8                  21882851.020 7 114995122.542 8                  89606723.392 7
R01  21663009.781 7                 115801203.144 7
R02  19411985.305 8  19411988.914 7 103586075.413 8  80567072.641 7
R03  21452732.578 6  21452736.117 6 114838139.148 6  89319015.642 6
R17  19310502.680 8  19310506.512 7 103334392.306 8  80371257.023 7
R18  20178028.875 7  20178033.742 8 107711689.314 7  83776060.444 8
> 2025 06 15 11 45 10.0000000  0 18
C12  24051501.711 6  24051498.191 6 125242480.954 6  96845425.520 6
C19  22232343.938 7                 115769645.134 7
C22  22902026.094 7                 119256864.071 7
E06  25083196.461 7  25083198.688 6 131813085.810 7  99715757.202 6
E09  24878554.750 8  24878557.133 8 130737690.567 8  98902219.083 8
E30  26927656.398 6  26927660.566 6 141505817.716 6 107048225.896 6
E34  24439375.406 8  24439378.391 8 128429784.459 8  97156308.619 8
E36  23660170.172 8  23660172.859 9 124335032.992 8  94058654.671 9
G01  21230169.281 7                  21230173.922 8 111565289.897 7                  86934014.345 8
G02  20684739.453 8  20684741.426 7                 108699036.115 8  84700687.120 7
G08  21587878.563 8                  21587886.129 7 113445066.934 8                  88398685.176 7
G10  23174436.836 4                                                                
G32  21881712.539 8                  21881718.246 6 114989171.875 8                  89602086.495 6
R01  21664935.094 7                 115811496.692 7
R02  19410502.672 8  19410505.629 7 103578162.073 8  80560917.843 7
R03  21447681.188 6  21447685.766 6 114811105.487 6  89297989.466 6
R17  19309924.648 8  19309929.949 8 103331305.251 8  80368855.982 8
R18  20174248.961 8  20174253.156 7 107691511.440 8  83760366.552 7
> 2025 06 15 11 45 15.0000000  0 19
C12  24047495.344 6  24047493.023 7 125221620.874 6  96829295.201 7
C19  22231512.273 7                 115765313.231 7
C22  22898138.336 7                 119236616.258 7
E06  25082066.516 6  25082069.215 7 131807149.992 6  99711266.774 7
E09  24876118.258 8  24876120.238 8 130724884.159 8  98892531.121 8
E30  26927724.320 5  26927728.527 6 141506174.595 5 107048495.877 6
E34  24436377.414 8  24436380.582 8 128414030.503 8  97144390.867 8
E36  23659475.633 8  23659478.613 8 124331384.467 8  94055894.581 8
G01  21226723.828 7                  21226728.617 8 111547183.671 7                  86919905.604 8
G02  20683063.906 8  20683065.863 7                 108690230.556 8  84693825.642 7
G03  22694893.836 4                                                                
G08  21588986.563 7                  21588994.492 7 113450889.448 7                  88403222.185 7
G10  23175766.539 5                                 121789465.03815                
G32  21880584.070 8                  21880589.574 6 114983239.401 8                  89597463.787 6
R01  21666863.813 7                 115821803.358 7
R02  19409023.391 8  19409027.211 7 103570272.905 8  80554781.823 7
R03  21442634.414 7  21442638.137 6 114784084.980 7  89276973.459 6
R17  19309351.859 8  19309356.266 7 103328236.522 8  80366469.181 7
R18  20170471.813 8  20170475.477 7 107671346.128 8  83744682.427 7
> 2025 06 15 11 45 20.0000000  0 19
C12  24043490.828 6  24043489.000 7 125200769.117 6  96813171.321 7
C19  22230683.219 8                 115760997.521 8
C22  22894252.844 7                 119216380.896 7
E06  25080940.367 6  25080942.578 7 131801229.707 6  99706788.105 7
E09  24873683.844 8  24873686.102 8 130712092.819 8  98882854.564 8
E30  26927795.703 6  26927799.063 6 141506544.739 6 107048775.869 6
E34  24433380.961 8  24433384.195 8 128398284.022 8  97132478.780 8
E36  23658783.281 8  23658786.094 8 124327745.302 8  94053141.575 8
G01  21223279.789 7                  21223285.176 8 111529088.350 7                  86905805.375 8
G02  20681390.016 7  20681392.289 7                 108681437.811 7  84686974.140 7
G03  22690363.906 5                  22690371.445 5 119238808.93115                  92913278.12815
G08  21590097.336 7                  21590104.824 7 113456726.304 7                  88407770.370 7
G10  23177092.445 5                                 121796438.324 5                
G32  21879458.547 8                  21879463.645 7 114977326.109 8                  89592856.044 7
R01  21668794.133 7                 115832124.024 7
R02  19407549.766 8  19407553.840 7 103562408.843 8  80548665.354 7
R03  21437589.164 7  21437592.781 6 114757078.757 7  89255968.701 6
R17  19308782.516 8  19308786.082 7 103325187.244 8  80364097.513 7
R18  20166696.305 8  20166700.590 7 107651194.607 8  83729009.047 7
> 2025 06 15 11 45 25.0000000  0 20
C12  24039488.430 6  24039485.434 7 125179925.745 6  96797053.912 7
C19  22229856.914 7                 115756698.131 7
C20  25099476.063 5                 130699496.75915
C22  22890369.266 7                 119196158.185 7
E06  25079816.469 7  25079819.016 6 131795325.016 7  99702321.272 6
E09  24871252.477 8  24871254.922 8 130699316.688 8  98873189.502 8
E30  26927868.766 6  26927871.840 5 141506928.268 6 107049066.018 5
E34  24430385.984 8  24430389.203 8 128382545.127 8  97120572.400 8
E36  23658092.867 8  23658095.434 9 124324115.648 8  94050395.758 9
G01  21219838.328 7                  21219843.727 8 111511004.102 7                  86891713.762 8
G02  20679719.492 8  20679721.480 6                 108672657.971 8  84680132.719 6
G03  22685833.414 4                  22685844.855 6 119215019.92814                  92894741.23716
G08  21591210.664 7                  21591218.531 7 113462577.543 7                  88412329.777 7
G10  23178421.414 5                                 121803419.34515                
G32  21878336.797 8                  21878342.449 7 114971432.216 8                  89588263.368 7
R01  21670727.609 7                 115842458.918 7
R02  19406080.609 8  19406084.621 7 103554569.979 8  80542568.470 7
R03  21432548.695 7  21432550.398 6 114730086.914 7  89234975.068 6
R17  19308215.578 8  19308219.988 7 103322157.570 8  80361741.100 7
R18  20162925.391 8  20162927.773 7 107631056.899 8  83713346.380 7
> 2025 06 15 11 45 30.0000000  0 21
C12  24035486.914 6  24035483.906 7 125159088.137 6  96780940.925 7
C19  22229034.102 8                 115752412.344 8
C20  25100890.867 4                 130706870.19514
C22  22886487.188 7                 119175945.354 7
E04  26364543.656 4  26364535.418 5 138546603.75014 104809613.80515
E06  25078695.297 7  25078697.695 6 131789433.263 7  99697864.206 6
E09  24868823.313 8  24868826.020 8 130686553.069 8  98863533.910 8
E30  26927944.531 6  26927946.488 5 141507322.486 6 107049364.243 5
E34  24427392.234 8  24427395.055 8 128366811.090 8  97108669.684 8
E36  23657403.461 8  23657405.984 9 124320492.782 8  94047655.073 9
G01  21216399.266 7                  21216404.387 8 111492928.154 7                  86877628.631 8
G02  20678050.664 8  20678052.504 6                 108663888.367 8  84673299.263 6
G03  22681308.703 5                                                                
G08  21592326.641 7                  21592334.063 7 113468440.469 7                  88416898.289 7
G10  23179752.906 5                  23179755.504 5 121810405.463 5                  94917223.06715
G32  21877218.219 8                  21877224.004 7 114965554.944 8                  89583683.635 7
R01  21672663.719 7                 115852805.220 7
R02  19404615.461 8  19404620.383 7 103546753.729 8  80536489.146 7
R03  21427507.016 7  21427510.309 6 114703106.844 7  89213990.563 6
R17  19307652.492 8  19307656.641 7 103319144.696 8  80359397.746 7
R18  20159154.617 8  20159157.613 7 107610930.358 8  83697692.385 7
> 2025 06 15 11 45 35.0000000  0 21
C12  24031486.141 6  24031483.438 7 125138256.396 6  96764832.513 7
C19  22228213.063 8                 115748140.286 8
C20  25102310.156 5                 130714249.766 5
C22  22882607.320 7                 119155742.632 7
E04  26364675.383 5  26364682.434 5 138547327.61915 104810161.40715
E06  25077576.633 6  25077578.852 6 131783554.608 6  99693417.048 6
E09  24866397.406 8  24866399.629 8 130673802.083 8  98853887.873 8
E30  26928020.406 6  26928023.188 5 141507727.493 6 107049670.647 5
E34  24424399.375 8  24424401.934 9 128351082.032 8  97096770.766 9
E36  23656715.211 8  23656717.891 9 124316876.839 8  94044919.634 9
G01  21212961.328 8                  21212966.125 8 111474860.708 8                  86863550.107 8
G02  20676383.867 8  20676385.488 6                 108655129.158 8  84666473.897 6
G03  22676788.570 5                  22676794.754 6 119167463.63915                  92857684.35916
G08  21593444.570 7                  21593451.875 7 113474315.236 7                  88421476.017 7
G10  23181081.828 5                  23181087.746 5 121817396.575 5                  94922670.836 5
G32  21876103.391 8                  21876109.199 7 114959694.432 8                  89579117.000 7
R01  21674602.414 7                 115863163.118 7
R02  19403155.734 8  19403159.695 7 103538960.188 8  80530427.488 7
R03  21422469.156 7  21422473.695 6 114676138.395 7  89193015.229 6
R17  19307092.727 8  19307096.520 7 103316148.819 8  80357067.598 7
R18  20155386.344 8  20155389.293 7 107590815.069 8  83682047.160 7
> 2025 06 15 11 45 40.0000000  0 22
C12  24027486.625 6  24027484.309 7 125117431.449 6  96748729.360 7
C19  22227395.594 8                 115743882.863 8
C20  25103732.695 5                 130721636.247 5
C22  22878729.875 7                 119135550.848 7
E04  26364814.227 5  26364822.930 5 138548063.188 5 104810717.93015
E06  25076461.266 6  25076462.711 6 131777689.919 6  99688980.415 6
E09  24863973.539 8  24863975.777 9 130661064.660 8  98844252.098 9
E30  26928099.828 5  26928102.254 5 141508144.176 5 107049985.82215
E34  24421407.383 8  24421409.879 8 128335358.865 8  97084876.292 8
E36  23656028.953 8  23656031.324 9 124313268.714 8  94042190.104 9
G01  21209524.453 8                  21209529.957 8 111456802.620 8                  86849478.857 8
G02  20674719.352 8  20674720.578 7                 108646381.185 8  84659657.302 7
G03  22672264.914 5                  22672272.492 6 119143697.264 5                  92839165.222 6
G08  21594565.133 7                  21594572.621 7 113480202.676 7                  88426063.646 7
G10  23182408.953 4                                                                
G14  23848955.898 4                                 125327252.53814                
G32  21874991.859 8                  21874997.668 7 114953851.608 8                  89574564.133 7
R01  21676541.727 7                 115873533.390 7
R02  19401699.602 8  19401703.789 7 103531190.245 8  80524384.182 7
R03  21417432.367 7  21417436.801 6 114649182.753 7  89172049.737 6
R17  19306536.695 8  19306540.234 7 103313170.957 8  80354751.478 7
R18  20151619.016 8  20151623.500 7 107570711.962 8  83666411.405 7
> 2025 06 15 11 45 45.0000000  0 22
C12  24023489.766 6  24023486.098 7 125096614.210 6  96732632.142 7
C19  22226580.820 7                 115739640.957 7
C20  25105151.867 5                 130729030.657 5
C22  22874855.164 7                 119115370.896 7
E04  26364955.117 5  26364965.742 5 138548811.50115 104811284.02115
E06  25075348.438 6  25075349.539 6 131771840.114 6  99684555.025 6
E09  24861552.141 8  24861554.676 8 130648341.669 8  98834627.238 8
E30  26928181.563 6  26928183.777 5 141508573.523 6 107050310.638 5
E34  24418416.648 8  24418419.168 8 128319642.523 8  97072986.979 8
E36  23655344.063 8  23655346.371 9 124309669.326 8  94039467.182 9
G01  21206089.477 7                  21206094.906 8 111438754.849 7                  86835415.645 8
G02  20673057.117 8  20673058.172 7                 108637645.385 8  84652850.176 7
G03  22667747.211 5                  22667751.801 6 119119940.043 5                  92820653.139 6
G08  21595688.172 8                  21595695.508 7 113486103.771 8                  88430661.885 7
G10  23183742.727 5                  23183754.066 4 121831397.76315                  94933580.83414
G14  23847845.148 4                                                                
G32  21873883.313 8                  21873888.563 7 114948027.355 8                  89570025.771 7
R01  21678483.609 7                 115883917.030 7
R02  19400248.125 8  19400252.340 7 103523444.758 8  80518359.919 7
R03  21412398.156 7  21412404.078 6 114622240.747 7  89151094.840 6
R17  19305984.469 8  19305987.246 7 103310211.809 8  80352449.934 7
R18  20147855.180 8  20147859.652 7 107550621.976 8  83650785.880 7
> 2025 06 15 11 45 50.0000000  0 21
C12  24019492.891 6  24019490.398 7 125075805.497 6  96716541.517 7
C19  22225769.531 7                 115735415.396 7
C20  25106573.078 5                 130736433.733 5
C22  22870981.602 7                 119095203.674 7
E04  26365098.961 5  26365111.035 4 138549573.239 5 104811860.35714
E06  25074239.391 6  25074239.613 6 131766005.935 6  99680141.501 6
E09  24859134.055 8  24859136.520 8 130635633.981 8  98825013.952 8
E30  26928265.844 5  26928267.848 5 141509016.188 5 107050645.513 5
E34  24415427.055 8  24415429.883 8 128303933.821 8  97061103.446 8
E36  23654660.680 8  23654663.309 9 124306079.489 8  94036751.491 9
G01  21202657.328 7                  21202662.660 8 111420718.150 7                  86821361.098 8
G02  20671397.156 8  20671398.211 6                 108628922.594 8  84646053.189 6
G03  22663232.188 5                  22663232.727 6 119096192.767 5                  92802148.864 6
G08  21596813.438 7                  21596821.258 7 113492019.263 7                  88435271.373 7
G10  23185076.602 5                  23185089.270 4 121838409.51615                  94939044.46614
G32  21872778.781 8                  21872784.508 7 114942222.494 8                  89565502.505 7
R01  21680428.578 7                 115894314.916 7
R02  19398800.875 8  19398805.195 7 103515724.597 8  80512355.357 7
R03  21407368.609 7  21407373.910 6 114595313.291 7  89130151.290 6
R17  19305434.711 8  19305437.695 7 103307272.212 8  80350163.557 7
R18  20144094.703 8  20144099.223 7 107530545.959 8  83635171.218 7
> 2025 06 15 11 45 55.0000000  0 21
C12  24015498.453 6  24015496.223 7 125055005.418 6  96700457.591 7
C19  22224961.352 7                 115731206.342 7
C20  25107996.531 5                 130743845.724 5
C22  22867110.461 7                 119075049.328 7
E04  26365246.477 6  26365258.785 4 138550348.756 6 104812447.141 4
E06  25073131.234 6  25073132.484 6 131760187.710 6  99675740.016 6
E09  24856719.078 8  24856721.195 8 130622941.783 8  98815412.388 8
E30  26928352.461 6  26928354.598 5 141509472.470 6 107050990.721 5
E34  24412439.250 8  24412442.090 8 128288232.916 8  97049225.825 8
E36  23653979.195 8  23653982.070 9 124302499.395 8  94034043.177 9
G01  21199227.883 7                  21199232.027 8 111402692.793 7                  86807315.372 8
G02  20669740.211 8  20669740.773 6                 108620212.976 8  84639266.486 6
G03  22658717.813 5                  22658716.098 6 119072455.79215                  92783652.49816
G08  21597941.695 7                  21597949.371 7 113497949.393 7                  88439892.231 7
G10  23186411.828 4                  23186423.578 4 121845429.242 4                  94944514.431 4
G32  21871677.578 7                  21871683.504 7 114936437.229 7                  89560994.528 7
R01  21682377.227 7                 115904727.236 7
R02  19397359.172 8  19397363.469 7 103508030.135 8  80506370.784 7
R03  21402340.688 7  21402346.699 6 114568400.566 7  89109219.223 6
R17  19304889.414 8  19304892.316 7 103304352.609 8  80347892.768 7
R18  20140336.695 8  20140341.117 8 107510484.180 8  83619567.612 8
> 2025 06 15 11 46  0.0000000  0 21
C12  24011505.094 6  24011503.109 7 125034212.460 6  96684379.174 7
C19  22224156.047 7                 115727012.184 7
C20  25109419.984 5                 130751264.845 5
C22  22863242.367 7                 119054906.230 7
E04  26365395.891 5  26365408.871 3 138551136.354 5 104813042.892 3
E06  25072026.508 6  25072028.164 6 131754383.671 6  99671349.296 6
E09  24854306.133 8  24854308.613 8 130610263.422 8  98805821.286 8
E30  26928441.719 5  26928443.723 5 141509940.719 5 107051344.96015
E34  24409452.039 8  24409455.488 8 128272538.218 8  97037352.903 8
E36  23653299.500 8  23653302.398 9 124298927.396 8  94031340.987 9
G01  21195798.625 7                  21195804.074 8 111384677.126 7                  86793277.179 8
G02  20668084.992 8  20668085.867 7                 108611514.935 8  84632488.797 7
G03  22654193.328 5                  22654199.531 5 119048727.248 5                  92765162.757 5
G08  21599072.672 7                  21599080.609 7 113503892.449 7                  88444523.164 7
G10  23187747.891 4                                                                
G32  21870580.117 7                  21870587.043 7 114930669.926 7                  89556500.527 7
R01  21684326.008 7                 115915152.192 7
R02  19395921.789 8  19395925.625 7 103500359.536 8  80500404.771 7
R03  21397314.438 7  21397321.191 6 114541500.908 7  89088297.285 6
R17  19304346.203 8  19304350.191 7 103301451.169 8  80345636.114 7
R18  20136580.789 8  20136585.297 8 107490434.903 8  83603973.723 8
> 2025 06 15 11 46  5.0000000  0 21
C12  24007514.133 6  24007511.695 6 125013427.486 6  96668306.919 6
C19  22223353.883 7                 115722833.808 7
C20  25110843.602 5                 130758692.061 5
C22  22859377.133 7                 119034775.302 7
E04  26365548.414 5  26365551.852 4 138551936.901 5 104813648.82914
E06  25070925.578 6  25070926.754 6 131748594.777 6  99666970.018 6
E09  24851896.188 8  24851898.773 8 130597599.785 8  98796241.322 8
E30  26928533.375 5  26928535.188 5 141510421.841 5 107051708.89115
E34  24406466.586 8  24406470.211 8 128256850.615 8  97025485.345 8
E36  23652621.625 8  23652624.422 9 124295364.427 8  94028645.622 9
G01  21192373.008 7                  21192378.207 8 111366672.048 7                  86779247.240 8
G02  20666431.930 8  20666433.070 6                 108602829.367 8  84625720.816 6
G03  22649679.281 5                                                                
G08  21600206.422 7                  21600214.262 7 113509849.379 7                  88449164.912 7
G10  23189083.164 4                                                                
G32  21869487.000 7                  21869492.637 7 114924921.486 7                  89552021.216 7
R01  21686278.797 7                 115925590.714 7
R02  19394488.344 8  19394492.816 7 103492713.593 8  80494457.928 7
R03  21392292.094 7  21392299.344 7 114514615.436 7  89067386.361 7
R17  19303807.844 8  19303811.598 7 103298568.894 8  80343394.353 7
R18  20132827.578 8  20132831.969 8 107470399.120 8  83588390.330 8
> 2025 06 15 11 46 10.0000000  0 21
C12  24003523.633 6  24003521.582 6 124992649.902 6  96652240.378 6
C19  22222554.523 7                 115718670.579 7
C20  25112267.156 4                 130766126.852 4
C22  22855513.617 7                 119014655.947 7
E04  26365703.609 5  26365705.906 4 138552749.770 5 104814263.775 4
E06  25069826.094 7  25069828.332 6 131742820.437 7  99662601.729 6
E09  24849489.063 8  24849491.668 8 130584950.309 8  98786672.086 8
E30  26928627.555 6  26928628.961 5 141510915.153 6 107052082.062 5
E34  24403482.719 8  24403486.168 8 128241169.492 8  97013622.686 8
E36  23651945.453 8  23651948.016 9 124291809.842 8  94025956.600 9
G01  21188947.938 7                  21188953.754 8 111348676.961 7                  86765225.119 8
G02  20664781.367 8  20664782.559 6                 108594155.653 8  84618962.082 6
G03  22645169.383 4                                                                
G08  21601342.078 7                  21601350.152 7 113515819.504 7                  88453816.943 7
G10  23190421.352 4                                                                
G32  21868395.930 7                  21868402.313 7 114919191.215 7                  89547556.088 7
R01  21688234.203 7                 115936042.207 7
R02  19393060.469 8  19393064.832 7 103485091.865 8  80488529.921 7
R03  21387270.648 6  21387279.305 7 114487743.271 6  89046485.810 7
R17  19303271.453 8  19303276.719 7 103295704.984 8  80341166.890 7
R18  20129076.578 8  20129081.230 7 107450376.189 8  83572816.952 7
> 2025 06 15 11 46 15.0000000  0 20
C12  23999535.352 6  23999532.191 6 124971880.243 6  96636179.943 6
C19  22221758.352 7                 115714523.040 7
C20  25113693.047 5                 130773569.64815
C22  22851652.461 7                 118994548.679 7
E04  26365861.734 5  26365862.574 4 138553575.447 5 104814888.354 4
E06  25068730.313 7  25068732.742 6 131737061.093 7  99658244.806 6
E09  24847084.766 8  24847087.328 8 130572315.504 8  98777113.936 8
E30  26928724.703 6  26928725.203 4 141511421.213 6 107052464.87314
E34  24400500.188 8  24400503.516 8 128225495.401 8  97001765.342 8
E36  23651270.688 8  23651273.340 9 124288264.184 8  94023274.333 9
G01  21185526.445 7                  21185531.508 8 111330692.395 7                  86751211.177 8
G02  20663133.305 8  20663134.523 6                 108585494.337 8  84612212.996 6
G03  22640656.992 5                                                                
G08  21602481.375 7                  21602488.629 7 113521803.384 7                  88458479.690 7
G32  21867308.844 8                  21867315.641 7 114913479.712 8                  89543105.570 7
R01  21690192.367 7                 115946507.037 7
R02  19391636.477 8  19391640.613 7 103477494.727 8  80482621.036 7
R03  21382255.633 6  21382261.246 6 114460885.085 6  89025596.097 6
R17  19302740.195 8  19302744.832 7 103292860.194 8  80338954.257 7
R18  20125327.453 8  20125332.418 8 107430366.616 8  83557253.974 8
> 2025 06 15 11 46 20.0000000  0 20
C12  23995548.734 6  23995545.469 6 124951118.802 6  96620125.901 6
C19  22220964.953 7                 115710391.480 7
C20  25115125.414 5                 130781020.56415
C22  22847793.430 7                 118974453.797 7
E04  26366020.359 5  26366021.773 3 138554414.330 5 104815522.984 3
E06  25067636.523 6  25067639.828 6 131731317.130 6  99653899.521 6
E09  24844683.523 8  24844685.793 8 130559695.651 8  98767567.099 8
E30  26928825.742 5  26928823.961 4 141511940.349 5 107052857.52614
E34  24397519.492 8  24397522.266 8 128209828.617 8  96989913.523 8
E36  23650597.570 8  23650600.426 9 124284727.744 8  94020599.042 9
G01  21182106.023 7                  21182111.480 8 111312718.639 7                  86737205.663 8
G02  20661487.508 8  20661488.813 6                 108576845.694 8  84605473.797 6
G03  22636150.719 4                                                                
G08  21603622.484 7                  21603629.984 7 113527801.257 7                  88463153.358 7
G32  21866225.914 8                  21866232.566 7 114907787.271 8                  89538669.885 7
R01  21692152.406 7                 115956985.630 7
R02  19390217.930 8  19390221.898 7 103469922.682 8  80476731.682 7
R03  21377242.328 6  21377245.852 6 114434041.262 6  89004717.562 6
R17  19302212.023 8  19302216.832 7 103290034.691 8  80336756.647 7
R18  20121581.844 8  20121586.582 7 107410370.806 8  83541701.696 7
> 2025 06 15 11 46 25.0000000  0 21
C12  23991562.406 6  23991560.406 6 124930364.916 6  96604077.697 6
C19  22220174.164 7                 115706275.233 7
C20  25116559.055 4                 130788479.210 4
C22  22843936.844 7                 118954370.656 7
E04  26366181.203 5  26366183.316 3 138555265.669 5 104816167.067 3
E06  25066546.555 6  25066549.664 6 131725587.815 6  99649565.337 6
E09  24842284.984 8  24842287.008 8 130547090.104 8  98758031.090 8
E30  26928930.461 5  26928925.168 4 141512471.830 5 107053259.485 4
E34  24394539.211 8  24394542.273 8 128194168.493 8  96978066.741 8
E36  23649926.188 8  23649929.125 9 124281199.856 8  94017930.224 9
G01  21178687.469 7                  21178692.633 8 111294755.031 7                  86723208.061 8
G02  20659843.969 8  20659845.750 6                 108568209.069 8  84598743.956 6
G03  22631647.391 4                  22631649.320 6 118930223.89714                  92672822.46816
G08  21604766.648 7                  21604774.082 7 113533812.510 7                  88467837.443 7
G10  23194450.039 5                                                                
G32  21865145.656 8                  21865152.715 7 114902113.200 8                  89534248.536 7
R01  21694114.797 7                 115967477.292 7
R02  19388803.000 8  19388807.566 7 103462374.815 8  80470861.124 7
R03  21372229.703 7  21372233.871 6 114407210.703 7  88983849.382 6
R17  19301687.148 8  19301692.004 7 103287227.823 8  80334573.507 7
R18  20117838.086 8  20117842.875 7 107390388.003 8  83526159.534 7
> 2025 06 15 11 46 30.0000000  0 21
C12  23987578.031 6  23987576.430 6 124909618.561 6  96588035.300 6
C19  22219387.289 7                 115702174.196 7
C20  25117989.195 4                 130795945.37014
C22  22840081.789 7                 118934299.177 7
E04  26366345.969 5  26366347.313 4 138556129.471 5 104816820.584 4
E06  25065458.219 6  25065462.230 6 131719873.117 6  99645242.219 6
E09  24839888.586 8  24839890.852 8 130534498.784 8  98748505.854 8
E30  26929036.938 5  26929028.871 4 141513015.582 5 107053670.721 4
E34  24391560.055 8  24391563.488 8 128178514.933 8  96966224.928 8
E36  23649256.594 8  23649259.426 8 124277680.461 8  94015267.808 8
G01  21175270.734 7                  21175276.035 8 111276801.504 7                  86709218.305 8
G02  20658202.984 8  20658204.301 6                 108559584.388 8  84592023.436 6
G03  22627158.898 5                                                                
G08  21605912.375 7                  21605920.688 7 113539837.010 7                  88472531.854 7
G10  23195794.156 5                                                                
G32  21864069.313 8                  21864076.461 7 114896457.407 8                  89529841.440 7
R01  21696080.375 7                 115977981.870 7
R02  19387393.148 8  19387397.621 7 103454851.201 8  80465009.410 7
R03  21367218.492 7  21367223.934 6 114380393.763 7  88962991.805 6
R17  19301165.734 8  19301171.016 7 103284439.460 8  80332404.769 7
R18  20114096.742 8  20114102.133 7 107370418.187 8  83510627.470 7
> 2025 06 15 11 46 35.0000000  0 21
C12  23983595.188 6  23983593.219 6 124888879.248 6  96571998.356 6
C19  22218602.148 8                 115698087.972 8
C20  25119423.898 4                 130803418.65414
C22  22836230.055 7                 118914238.986 7
E04  26366512.344 5  26366513.703 4 138557005.125 5 104817483.021 4
E06  25064374.102 6  25064377.547 6 131714172.597 6  99640929.810 6
E09  24837495.195 8  24837497.391 8 130521921.283 8  98738991.057 8
E30  26929136.898 5  26929134.684 4 141513571.114 5 107054090.934 4
E34  24388582.547 8  24388585.816 8 128162867.546 8  96954387.783 8
E36  23648588.359 8  23648591.254 9 124274169.128 8  94012611.506 9
G01  21171856.180 7                  21171861.000 8 111258857.685 7                  86695236.088 8
G02  20656563.945 8  20656565.344 6                 108550971.232 8  84585311.871 6
G03  22622675.570 5                  22622641.543 6 118882885.81915                  92635935.80616
G08  21607062.352 7                  21607069.320 7 113545874.347 7                  88477236.241 7
G10  23197141.594 5                  23197161.191 5 121901834.02715                  94988485.77215
G32  21862997.117 8                  21863003.383 7 114890819.538 8                  89525448.286 7
R01  21698047.242 7                 115988498.885 7
R02  19385988.047 8  19385992.020 7 103447351.286 8  80459176.146 7
R03  21362208.375 6  21362216.715 6 114353589.875 6  88942144.390 6
R17  19300648.781 8  19300652.898 7 103281669.300 8  80330250.179 7
R18  20110357.922 8  20110363.219 7 107350460.934 8  83495105.150 7
> 2025 06 15 11 46 40.0000000  0 21
C12  23979613.969 6  23979611.777 6 124868146.679 6  96555966.637 6
C19  22217820.023 8                 115694016.156 8
C20  25120863.070 4                 130810898.57014
C22  22832379.648 7                 118894189.638 7
E04  26366680.250 5  26366682.340 4 138557892.397 5 104818154.235 4
E06  25063292.219 6  25063295.512 6 131708485.863 6  99636627.826 6
E09  24835104.227 8  24835106.516 8 130509357.219 8  98729486.429 8
E30  26929240.234 5  26929246.004 4 141514138.216 5 107054519.88614
E34  24385606.438 8  24385609.270 8 128147225.933 8  96942555.012 8
E36  23647921.797 8  23647924.563 9 124270665.473 8  94009961.010 9
G01  21168443.609 7                  21168448.348 8 111240923.172 7                  86681261.121 8
G02  20654926.938 8  20654928.313 7                 108542369.200 8  84578608.986 7
G03  22618178.891 5                                 118859229.182 5                
G08  21608213.016 7                  21608220.652 7 113551924.136 7                  88481950.352 7
G10  23198489.828 5                  23198508.910 4 121908913.405 5                  94994002.176 4
G32  21861926.984 8                  21861933.434 7 114885199.138 8                  89521068.755 7
R01  21700017.859 7                 115999028.010 7
R02  19384586.445 8  19384590.938 7 103439874.763 8  80453361.076 7
R03  21357205.023 6  21357212.375 6 114326798.847 6  88921306.921 6
R17  19300134.633 8  19300139.023 7 103278916.875 8  80328109.406 7
R18  20106621.719 8  20106626.469 7 107330515.896 8  83479592.329 7
> 2025 06 15 11 46 45.0000000  0 21
C12  23975634.578 6  23975630.879 6 124847419.711 6  96539939.228 6
C19  22217040.523 7                 115689957.670 7
C20  25122302.031 4                 130818384.19214
C22  22828531.000 7                 118874150.104 7
E04  26366850.500 5  26366853.180 5 138558790.162 5 104818833.358 5
E06  25062213.063 6  25062215.945 6 131702811.813 6  99632335.438 6
E09  24832715.500 8  24832717.973 8 130496805.490 8  98719991.135 8
E30  26929348.969 5  26929370.012 4 141514715.599 5 107054957.49614
E34  24382630.664 8  24382633.633 8 128131588.984 8  96930725.771 8
E36  23647256.469 8  23647259.078 9 124267168.386 8  94007315.474 9
G01  21165032.102 7                  21165037.039 8 111222996.848 7                  86667292.555 8
G02  20653291.922 8  20653293.238 7                 108533777.197 8  84571913.932 7
G03  22613678.086 5                  22613642.566 6 118835579.567 5                  92599110.01216
G08  21609366.672 7                  21609374.008 7 113557985.232 7                  88486673.262 7
G10  23199839.828 6                  23199855.922 4 121915997.497 6                  94999522.242 4
G32  21860860.781 8                  21860866.957 7 114879595.113 8                  89516701.980 7
R01  21701989.109 7                 116009568.194 7
R02  19383189.219 8  19383194.324 7 103432420.710 8  80447563.462 7
R03  21352203.555 6  21352208.773 6 114300019.548 6  88900478.565 6
R17  19299622.406 8  19299628.184 7 103276181.045 8  80325981.547 7
R18  20102887.602 8  20102892.117 7 107310581.881 8  83464088.106 7
> 2025 06 15 11 46 50.0000000  0 21
C12  23971654.461 6  23971651.063 6 124826700.061 6  96523917.469 6
C19  22216263.945 7                 115685914.114 7
C20  25123741.570 4                 130825877.05314
C22  22824685.141 7                 118854122.004 7
E04  26367023.172 4  26367026.500 5 138559699.95214 104819521.67115
E06  25061135.906 6  25061138.980 6 131697152.079 6  99628053.899 6
E09  24830329.609 8  24830332.105 8 130484267.729 8  98710506.410 8
E30  26929462.859 5  26929481.215 5 141515304.971 5 107055403.339 5
E34  24379656.305 8  24379659.184 8 128115958.387 8  96918901.330 8
E36  23646592.414 8  23646595.156 9 124263679.511 8  94004676.162 9
G01  21161622.656 7                  21161627.723 8 111205080.372 7                  86653331.668 8
G02  20651659.125 8  20651660.445 7                 108525196.921 8  84565227.989 7
G03  22609169.555 5                  22609140.938 6 118811938.79215                  92580688.64116
G08  21610522.141 7                  21610530.059 7 113564059.273 7                  88491406.282 7
G10  23201187.641 5                  23201205.652 4 121923087.921 5                  95005047.187 4
G32  21859797.563 8                  21859804.320 7 114874009.141 8                  89512349.281 7
R01  21703962.773 7                 116020120.916 7
R02  19381796.758 8  19381801.777 7 103424990.420 8  80441784.343 7
R03  21347204.070 6  21347209.711 6 114273253.429 6  88879660.552 6
R17  19299114.750 8  19299119.980 7 103273463.595 8  80323867.965 7
R18  20099155.727 8  20099160.109 7 107290660.656 8  83448593.853 7
> 2025 06 15 11 46 55.0000000  0 20
C12  23967676.117 6  23967673.113 6 124805988.468 6  96507901.965 6
C19  22215490.594 8                 115681886.242 8
C22  22820841.055 7                 118834106.080 7
E04  26367201.516 5  26367211.230 6 138560622.57315 104820219.12816
E06  25060060.055 6  25060064.617 6 131691507.389 6  99623783.758 6
E09  24827946.281 7  24827949.008 8 130471744.705 7  98701032.830 8
E30  26929576.000 5  26929594.902 5 141515907.003 5 107055858.77815
E34  24376683.063 8  24376686.102 8 128100334.849 8  96907082.230 8
E36  23645929.984 8  23645932.953 9 124260199.594 8  94002043.620 9
G01  21158215.508 7                  21158220.438 8 111187174.490 7                  86639379.053 8
G02  20650028.797 8  20650030.027 7                 108516629.043 8  84558551.726 7
G03  22604661.625 4                  22604643.789 6 118788307.50614                  92562274.60016
G08  21611681.055 7                  21611688.496 7 113570147.012 7                  88496149.978 7
G10  23202537.539 5                  23202558.836 5 121930185.325 5                  95010577.617 5
G32  21858738.836 8                  21858745.430 7 114868441.914 8                  89508011.175 7
R01  21705940.492 7                 116030687.011 7
R02  19380409.484 8  19380414.008 7 103417584.813 8  80436024.430 7
R03  21342204.039 6  21342212.168 6 114246501.592 6  88858853.646 6
R17  19298610.531 8  19298616.020 7 103270765.276 8  80321769.277 7
R18  20095426.672 8  20095431.129 7 107270753.025 8  83433110.129 7
> 2025 06 15 11 47  0.0000000  0 20
C12  23963700.250 6  23963697.395 7 124785284.072 6  96491892.012 7
C19  22214720.023 7                 115677873.270 7
C22  22816999.117 7                 118814101.581 7
E04  26367379.063 5  26367389.406 6 138561557.26415 104820926.26816
E06  25058988.211 6  25058992.977 6 131685876.975 6  99619524.406 6
E09  24825565.836 7  24825568.637 8 130459235.625 7  98691569.809 8
E30  26929693.906 5  26929711.141 5 141516521.005 5 107056323.26315
E34  24373711.063 8  24373714.234 9 128084717.614 8  96895267.906 9
E36  23645269.453 8  23645272.258 9 124256727.863 8  93999417.284 9
G01  21154810.344 7                  21154815.129 8 111169278.416 7                  86625434.068 8
G02  20648400.477 8  20648401.836 7                 108508072.817 8  84551884.529 7
G03  22600166.250 4                                                                
G08  21612842.141 7                  21612849.293 7 113576247.658 7                  88500903.726 7
G10  23203891.281 6                  23203911.645 5 121937289.085 6                  95016113.096 5
G32  21857681.984 8                  21857689.285 7 114862892.701 8                  89503687.088 7
R01  21707919.547 7                 116041265.568 7
R02  19379026.805 8  19379030.273 7 103410203.246 8  80430283.200 7
R03  21337211.078 6  21337217.676 6 114219762.973 6  88838056.926 6
R17  19298110.469 8  19298115.242 7 103268085.096 8  80319684.686 7
R18  20091699.594 8  20091703.910 7 107250858.101 8  83417636.290 7
> 2025 06 15 11 47  5.0000000  0 20
C12  23959726.102 6  23959722.879 7 124764586.776 6  96475887.563 7
C19  22213952.164 7                 115673875.001 7
C22  22813159.055 7                 118794108.325 7
E04  26367559.250 5  26367569.672 6 138562503.861 5 104821642.343 6
E06  25057918.922 6  25057923.992 6 131680260.706 6  99615275.742 6
E09  24823188.172 7  24823190.871 8 130446740.335 7  98682117.211 8
E30  26929812.227 5  26929829.926 4 141517146.707 5 107056796.562 4
E34  24370740.695 8  24370743.531 9 128069106.475 8  96883458.191 9
E36  23644610.695 8  23644613.145 9 124253264.150 8  93996797.012 9
G01  21151406.039 7                  21151411.500 8 111151392.033 7                  86611496.630 8
G02  20646774.477 8  20646775.930 7                 108499528.103 8  84545226.311 7
G03  22595674.188 4                                                                
G08  21614005.180 7                  21614012.684 7 113582361.037 7                  88505667.383 7
G10  23205242.930 5                  23205264.043 5 121944398.894 5                  95021653.205 5
G32  21856630.305 8                  21856636.512 7 114857361.307 8                  89499376.893 7
R01  21709900.914 7                 116051856.488 7
R02  19377647.477 8  19377651.445 7 103402845.364 8  80424560.418 7
R03  21332217.328 6  21332225.230 6 114193037.668 6  88817270.622 6
R17  19297613.125 8  19297617.480 7 103265423.096 8  80317614.256 7
R18  20087974.609 8  20087979.941 7 107230975.808 8  83402172.285 7
> 2025 06 15 11 47 10.0000000  0 20
C12  23955752.945 6  23955749.293 7 124743896.168 6  96459888.284 7
C19  22213187.477 7                 115669891.011 7
C22  22809321.906 7                 118774125.848 7
E04  26367742.227 5  26367751.910 6 138563461.864 5 104822367.060 6
E06  25056853.219 6  25056857.516 6 131674658.081 6  99611037.411 6
E09  24820812.805 7  24820815.637 8 130434258.366 7  98672674.685 8
E30  26929932.734 5  26929942.055 3 141517783.738 5 107057278.35213
E34  24367771.273 8  24367773.914 8 128053501.034 8  96871652.782 8
E36  23643952.703 8  23643955.410 8 124249807.991 8  93994182.444 8
G01  21148004.500 7                  21148009.211 8 111133514.830 7                  86597566.343 8
G02  20645150.805 8  20645152.027 7                 108490994.393 8  84538576.675 7
G08  21615170.414 7                  21615178.676 7 113588486.655 7                  88510440.584 7
G10  23206597.266 5                  23206620.160 5 121951514.275 5                  95027197.659 5
G14  23829507.016 5                                                                
G32  21855580.898 8                  21855587.547 7 114851847.264 8                  89495080.235 7
R01  21711884.250 7                 116062459.190 7
R02  19376273.297 8  19376277.035 7 103395510.606 8  80418855.606 7
R03  21327229.188 6  21327234.727 6 114166324.677 6  88796493.838 6
R17  19297118.258 8  19297123.652 7 103262778.654 8  80315557.462 7
R18  20084253.188 8  20084257.371 7 107211105.620 8  83386717.721 7
> 2025 06 15 11 47 15.0000000  0 20
C12  23951781.133 6  23951777.402 7 124723213.278 6  96443894.957 7
C19  22212425.359 7                 115665922.392 7
C22  22805486.664 7                 118754155.281 7
E04  26367927.633 5  26367936.375 6 138564432.396 5 104823101.255 6
E06  25055790.797 6  25055793.934 6 131669070.240 6  99606810.271 6
E09  24818440.016 7  24818443.160 8 130421790.880 7  98663243.112 8
E30  26930055.867 5  26930057.086 3 141518433.161 5 107057768.72013
E34  24364803.055 8  24364805.609 8 128037902.399 8  96859852.524 8
E36  23643296.469 8  23643299.309 9 124246360.493 8  93991574.439 9
G01  21144604.820 7                  21144609.137 8 111115647.961 7                  86583644.104 8
G02  20643529.000 8  20643530.652 7                 108482472.857 8  84531936.509 7
G08  21616338.914 7                  21616346.520 7 113594625.644 7                  88515224.216 7
G10  23207952.617 5                  23207974.609 5 121958636.419 5                  95032747.377 5
G14  23828460.586 5                                 125219506.61315                
G32  21854534.719 8                  21854541.645 7 114846351.710 8                  89490797.969 7
R01  21713869.336 7                 116073074.808 7
R02  19374903.805 8  19374907.469 7 103388200.289 8  80413169.808 7
R03  21322240.578 6  21322247.129 6 114139625.940 6  88775728.164 6
R17  19296628.273 8  19296633.270 7 103260153.076 8  80313515.330 7
R18  20080532.180 8  20080537.215 8 107191248.762 8  83371273.491 8
> 2025 06 15 11 47 20.0000000  0 20
C12  23947811.203 6  23947806.738 7 124702535.716 6  96427905.772 7
C19  22211665.977 7                 115661966.667 7
C22  22801652.945 7                 118734194.189 7
E04  26368113.813 5  26368122.641 6 138565412.917 5 104823843.014 6
E06  25054729.273 6  25054732.766 6 131663494.669 6  99602592.378 6
E09  24816070.336 7  24816072.973 8 130409335.354 7  98653820.585 8
E30  26930181.484 5  26930183.258 3 141519092.511 5 107058267.470 3
E34  24361835.031 8  24361838.109 8 128022308.064 8  96848055.516 8
E36  23642641.453 8  23642644.434 9 124242919.225 8  93988971.134 9
G01  21141206.867 7                  21141211.145 8 111097788.967 7                  86569728.020 8
G02  20641909.156 8  20641911.184 7                 108473961.007 8  84525303.898 7
G08  21617508.945 7                  21617516.879 7 113600775.499 7                  88520016.296 7
G10  23209306.977 5                  23209332.109 5 121965762.836 5                  95038300.449 5
G14  23827415.336 5                                 125214010.231 5                
G32  21853491.547 7                  21853498.961 7 114840872.128 7                  89486528.164 7
R01  21715858.008 7                 116083700.975 7
R02  19373537.367 8  19373541.066 7 103380911.846 8  80407501.005 7
R03  21317256.016 6  21317260.938 6 114112938.559 6  88754971.312 6
R17  19296140.789 8  19296145.301 7 103257543.745 8  80311485.841 7
R18  20076814.539 8  20076819.324 7 107171402.693 8  83355837.665 7
> 2025 06 15 11 47 25.0000000  0 20
C12  23943841.414 6  23943837.559 7 124681866.282 6  96411922.865 7
C19  22210909.461 7                 115658026.708 7
C22  22797821.117 7                 118714245.425 7
E04  26368302.156 5  26368311.480 5 138566406.356 5 104824594.531 5
E06  25053670.617 6  25053674.543 6 131657934.266 6  99598385.998 6
E09  24813703.234 7  24813705.586 8 130396894.671 7  98644409.286 8
E30  26930309.875 5  26930311.922 4 141519764.688 5 107058775.942 4
